[{"id":"4b0bf426f964a5200e3523e3","name":"Royal Festival Hall","stats":{"checkinsCount":9179,"usersCount":5204,"tipCount":67},"categories":[{"id":"4bf58dd8d48988d1f2931735"}],"location":{"lat":51.5058710105437,"lng":-0.11692285537719727,"postalCode":"SE1 8XX"}},{"id":"4b0c1159f964a520633623e3","name":"Stamford Bridge","stats":{"checkinsCount":6625,"usersCount":4046,"tipCount":70},"categories":[{"id":"4bf58dd8d48988d188941735"}],"location":{"lat":51.48173200760156,"lng":-0.19100815057754517,"postalCode":"SW6 1HS"}},{"id":"4b114284f964a520657923e3","name":"Platform 9 ¾","stats":{"checkinsCount":6093,"usersCount":3403,"tipCount":69},"categories":[{"id":"4bf58dd8d48988d1f1931735"}],"location":{"lat":51.532161374676384,"lng":-0.12359619140625,"postalCode":"N1 9AL"}},{"id":"4b141334f964a520de9c23e3","name":"BFI IMAX","stats":{"checkinsCount":4243,"usersCount":2995,"tipCount":50},"categories":[{"id":"4bf58dd8d48988d17f941735"}],"location":{"lat":51.504829231091406,"lng":-0.11363983154296875,"postalCode":"SE1 8XR"}},{"id":"4c44a8bb8c1f20a1b8ba3c99","name":"Vue Cinema","stats":{"checkinsCount":4473,"usersCount":2275,"tipCount":43},"categories":[{"id":"4bf58dd8d48988d180941735"}],"location":{"lat":51.50738497987933,"lng":-0.22133896077757642,"postalCode":"W12 7GF"}},{"id":"4b34b457f964a520532825e3","name":"Olympic Stadium","stats":{"checkinsCount":2498,"usersCount":1234,"tipCount":23},"categories":[{"id":"4bf58dd8d48988d184941735"}],"location":{"lat":51.538407944183675,"lng":-0.0164794921875,"postalCode":"E20 2ST"}},{"id":"4b5b1c6df964a520dae328e3","name":"Apollo Victoria Theatre","stats":{"checkinsCount":3377,"usersCount":2848,"tipCount":44},"categories":[{"id":"4bf58dd8d48988d137941735"}],"location":{"lat":51.49565252945547,"lng":-0.1430368423461914,"postalCode":"SW1V 1LG"}},{"id":"4f7c274ae4b07f26b765e3ab","name":"Damien Hirst @ Tate Modern","stats":{"checkinsCount":1422,"usersCount":1372,"tipCount":9},"categories":[{"id":"4bf58dd8d48988d1e2931735"}],"location":{"lat":51.507479365220405,"lng":-0.09970925037212393}},{"id":"4b926847f964a5205af733e3","name":"Cineworld O2 Greenwich","stats":{"checkinsCount":3919,"usersCount":1548,"tipCount":45},"categories":[{"id":"4bf58dd8d48988d17f941735"}],"location":{"lat":51.502732243819835,"lng":0.004334449768066406,"postalCode":"SE10 0AX"}},{"id":"4b9d06fbf964a520978936e3","name":"Vue Cinema","stats":{"checkinsCount":3648,"usersCount":1922,"tipCount":23},"categories":[{"id":"4bf58dd8d48988d17f941735"}],"location":{"lat":51.534072158289945,"lng":-0.10641337354274194,"postalCode":"N1 0PS"}},{"id":"4c90f9deae45224b83e3e397","name":"XOYO","stats":{"checkinsCount":1631,"usersCount":1196,"tipCount":16},"categories":[{"id":"4bf58dd8d48988d1e5931735"}],"location":{"lat":51.525461749925064,"lng":-0.08597429992737023,"postalCode":"Ec2a 4ap"}},{"id":"4bad083df964a52078263be3","name":"Disney presents THE LION KING","stats":{"checkinsCount":1892,"usersCount":1747,"tipCount":24},"categories":[{"id":"4bf58dd8d48988d137941735"}],"location":{"lat":51.51148622830808,"lng":-0.11943735581974124,"postalCode":"WC2E 7DA"}},{"id":"4ac518d2f964a5203da720e3","name":"British Museum","stats":{"checkinsCount":14800,"usersCount":11593,"tipCount":185},"categories":[{"id":"4bf58dd8d48988d190941735"}],"location":{"lat":51.519271779584045,"lng":-0.1268470287322998,"postalCode":"WC1B 3DG"}},{"id":"4ac518d3f964a52076a720e3","name":"Tate Modern","stats":{"checkinsCount":20733,"usersCount":16191,"tipCount":235},"categories":[{"id":"4bf58dd8d48988d18f941735"}],"location":{"lat":51.507607256702116,"lng":-0.0994563102722168,"postalCode":"SE1 9TG"}},{"id":"4ac518cdf964a520e6a520e3","name":"National Gallery","stats":{"checkinsCount":7761,"usersCount":6315,"tipCount":98},"categories":[{"id":"4bf58dd8d48988d18f941735"}],"location":{"lat":51.50872242607024,"lng":-0.1283276081085205,"postalCode":"WC2N 5DN"}},{"id":"4ac518e8f964a520b2ab20e3","name":"O2 Academy Brixton","stats":{"checkinsCount":6021,"usersCount":4157,"tipCount":51},"categories":[{"id":"4bf58dd8d48988d1e5931735"}],"location":{"lat":51.465411111083824,"lng":-0.11501312255859375,"postalCode":"SW9 9SL"}},{"id":"4ac518cef964a52014a620e3","name":"Battersea Power Station","stats":{"checkinsCount":2556,"usersCount":1344,"tipCount":24},"categories":[{"id":"4deefb944765f83613cdba6e"}],"location":{"lat":51.48175706334808,"lng":-0.1446676254272461,"postalCode":"SW8 5BP"}},{"id":"4ac518f9f964a5200fb020e3","name":"Alexandra Palace","stats":{"checkinsCount":1973,"usersCount":1343,"tipCount":18},"categories":[{"id":"4bf58dd8d48988d1f3931735"}],"location":{"lat":51.594148608712146,"lng":-0.13080596923828125,"postalCode":"N22 7AY"}},{"id":"4ac518cef964a520f7a520e3","name":"Tower of London","stats":{"checkinsCount":13405,"usersCount":11184,"tipCount":308},"categories":[{"id":"4bf58dd8d48988d181941735"}],"location":{"lat":51.5084594103514,"lng":-0.07683325205873114,"postalCode":"EC3N 4AB"}},{"id":"4ac518e9f964a520b5ab20e3","name":"Craven Cottage","stats":{"checkinsCount":3066,"usersCount":1493,"tipCount":22},"categories":[{"id":"4bf58dd8d48988d188941735"}],"location":{"lat":51.47463399555331,"lng":-0.2208423614501953,"postalCode":"SW6 6HH"}},{"id":"4ac518eaf964a52007ac20e3","name":"The O2 Arena","stats":{"checkinsCount":16329,"usersCount":10458,"tipCount":118},"categories":[{"id":"4bf58dd8d48988d1e5931735"}],"location":{"lat":51.5028524558886,"lng":0.003154277801513672,"postalCode":"SE10 0DX"}},{"id":"4ac518e9f964a520d4ab20e3","name":"Emirates Stadium","stats":{"checkinsCount":13668,"usersCount":6288,"tipCount":130},"categories":[{"id":"4bf58dd8d48988d188941735"}],"location":{"lat":51.554967881032674,"lng":-0.10842561721801758,"postalCode":"N5 1BU"}},{"id":"4ac518e8f964a520acab20e3","name":"Lord's Cricket Ground (MCC)","stats":{"checkinsCount":3303,"usersCount":1872,"tipCount":33},"categories":[{"id":"4bf58dd8d48988d18a941735"}],"location":{"lat":51.529411544586594,"lng":-0.17269134521484375,"postalCode":"NW8 8QN"}},{"id":"4ac7a2caf964a520adb820e3","name":"National Theatre","stats":{"checkinsCount":4075,"usersCount":2435,"tipCount":39},"categories":[{"id":"4bf58dd8d48988d137941735"}],"location":{"lat":51.50733724187813,"lng":-0.11485941496203049,"postalCode":"SE1 9PX"}},{"id":"4ac518cff964a52063a620e3","name":"Somerset House","stats":{"checkinsCount":5371,"usersCount":3694,"tipCount":56},"categories":[{"id":"4bf58dd8d48988d190941735"}],"location":{"lat":51.51106619606999,"lng":-0.11719107627868652,"postalCode":"WC2R 1LA"}},{"id":"4ac518cdf964a520e9a520e3","name":"Science Museum","stats":{"checkinsCount":7778,"usersCount":6561,"tipCount":110},"categories":[{"id":"4bf58dd8d48988d191941735"}],"location":{"lat":51.49721887311906,"lng":-0.1742699654628721,"postalCode":"SW7 2DD"}},{"id":"4ac51183f964a52049a020e3","name":"Tate Britain","stats":{"checkinsCount":4480,"usersCount":3521,"tipCount":64},"categories":[{"id":"4bf58dd8d48988d18f941735"}],"location":{"lat":51.49104344519927,"lng":-0.12788772583007812,"postalCode":"SW1P 4RG"}},{"id":"4ac518e8f964a520b3ab20e3","name":"O2 Shepherd's Bush Empire","stats":{"checkinsCount":3319,"usersCount":2554,"tipCount":29},"categories":[{"id":"4bf58dd8d48988d1e5931735"}],"location":{"lat":51.50348857280701,"lng":-0.2241763472557068,"postalCode":"W12 8TT"}},{"id":"4ac518cdf964a520e8a520e3","name":"Natural History Museum","stats":{"checkinsCount":10317,"usersCount":8813,"tipCount":127},"categories":[{"id":"4bf58dd8d48988d191941735"}],"location":{"lat":51.49652419516191,"lng":-0.176505446434021,"postalCode":"SW7 5BD"}},{"id":"4ac518e8f964a52075ab20e3","name":"Royal Albert Hall","stats":{"checkinsCount":8929,"usersCount":6258,"tipCount":106},"categories":[{"id":"4bf58dd8d48988d1e6931735"}],"location":{"lat":51.500982454474055,"lng":-0.1774120330810547,"postalCode":"SW7 2AP"}},{"id":"4ac518d2f964a52042a720e3","name":"Design Museum","stats":{"checkinsCount":2477,"usersCount":2046,"tipCount":46},"categories":[{"id":"4bf58dd8d48988d18f941735"}],"location":{"lat":51.502652102264484,"lng":-0.07184028625488281,"postalCode":"SE1 2YD"}},{"id":"4ac518cef964a520fca520e3","name":"Madame Tussauds","stats":{"checkinsCount":5134,"usersCount":4262,"tipCount":88},"categories":[{"id":"4bf58dd8d48988d1f1931735"}],"location":{"lat":51.52281301708984,"lng":-0.15535998877990853,"postalCode":"NW1 5LR"}},{"id":"4ac51183f964a52048a020e3","name":"ZSL London Zoo","stats":{"checkinsCount":3999,"usersCount":3086,"tipCount":56},"categories":[{"id":"4bf58dd8d48988d17b941735"}],"location":{"lat":51.535645144168825,"lng":-0.15573978424072266,"postalCode":"NW1 4RY"}},{"id":"4ac518e7f964a52067ab20e3","name":"BFI Southbank","stats":{"checkinsCount":4655,"usersCount":2524,"tipCount":43},"categories":[{"id":"4bf58dd8d48988d17f941735"}],"location":{"lat":51.50657887273498,"lng":-0.1146697998046875,"postalCode":"SE1 8XT"}},{"id":"4ac518d3f964a5204da720e3","name":"Barbican Centre","stats":{"checkinsCount":4679,"usersCount":2780,"tipCount":52},"categories":[{"id":"4bf58dd8d48988d1f2931735"}],"location":{"lat":51.51969236771462,"lng":-0.09372711181640625,"postalCode":"EC2Y 8DS"}},{"id":"4ac518d3f964a52078a720e3","name":"Imperial War Museum","stats":{"checkinsCount":2737,"usersCount":2307,"tipCount":39},"categories":[{"id":"4bf58dd8d48988d190941735"}],"location":{"lat":51.4960666562374,"lng":-0.10866165161132812,"postalCode":"SE1 6HZ"}},{"id":"4ac518d2f964a52040a720e3","name":"National Maritime Museum","stats":{"checkinsCount":1928,"usersCount":1515,"tipCount":24},"categories":[{"id":"4bf58dd8d48988d181941735"}],"location":{"lat":51.48140962243473,"lng":-0.0052356719970703125,"postalCode":"SE10 9NF"}},{"id":"4ac518f7f964a5209eaf20e3","name":"White Hart Lane Stadium","stats":{"checkinsCount":3543,"usersCount":1475,"tipCount":37},"categories":[{"id":"4bf58dd8d48988d188941735"}],"location":{"lat":51.602655975223975,"lng":-0.06637996018077996,"postalCode":"N17 0AP"}},{"id":"4ac518ebf964a52020ac20e3","name":"HMV Forum","stats":{"checkinsCount":2533,"usersCount":1976,"tipCount":30},"categories":[{"id":"4bf58dd8d48988d1e5931735"}],"location":{"lat":51.55214604549632,"lng":-0.14214634895324707,"postalCode":"NW5 1JY"}},{"id":"4ac518d3f964a52067a720e3","name":"Royal Academy of Arts","stats":{"checkinsCount":3761,"usersCount":2898,"tipCount":55},"categories":[{"id":"4bf58dd8d48988d18f941735"}],"location":{"lat":51.50863561745838,"lng":-0.13926029205322266,"postalCode":"W1J 0BD"}},{"id":"4ac518cdf964a520cca520e3","name":"The Lexington","stats":{"checkinsCount":2877,"usersCount":1403,"tipCount":34},"categories":[{"id":"4bf58dd8d48988d1e9931735"}],"location":{"lat":51.5317208790871,"lng":-0.11125802993774414,"postalCode":"N1 9JB"}},{"id":"4ac518e8f964a52077ab20e3","name":"Sadler's Wells","stats":{"checkinsCount":2445,"usersCount":1177,"tipCount":18},"categories":[{"id":"4bf58dd8d48988d137941735"}],"location":{"lat":51.52912625278767,"lng":-0.1062479323478266,"postalCode":"EC1R 4TN"}},{"id":"4ac518d2f964a52047a720e3","name":"National Portrait Gallery","stats":{"checkinsCount":4732,"usersCount":3826,"tipCount":62},"categories":[{"id":"4bf58dd8d48988d1e2931735"}],"location":{"lat":51.50927666176991,"lng":-0.12759268283843994,"postalCode":"WC2H 0HE"}},{"id":"4ac518e8f964a5207fab20e3","name":"Royal Opera House","stats":{"checkinsCount":3896,"usersCount":2496,"tipCount":38},"categories":[{"id":"4bf58dd8d48988d136941735"}],"location":{"lat":51.512944244327656,"lng":-0.12214539385598706,"postalCode":"WC2E 9DD"}},{"id":"4ac518e9f964a520c4ab20e3","name":"Vue","stats":{"checkinsCount":3468,"usersCount":2409,"tipCount":31},"categories":[{"id":"4bf58dd8d48988d17f941735"}],"location":{"lat":51.5111269,"lng":-0.1292612,"postalCode":"WC2H 7AL"}},{"id":"4ac518d0f964a520aaa620e3","name":"Abbey Road Studios","stats":{"checkinsCount":2128,"usersCount":1297,"tipCount":27},"categories":[{"id":"4bf58dd8d48988d1e5931735"}],"location":{"lat":51.53208128488629,"lng":-0.17793774604797363,"postalCode":"NW8 9AY"}},{"id":"4ac518e7f964a5204bab20e3","name":"Her Majesty's Theatre","stats":{"checkinsCount":1564,"usersCount":1378,"tipCount":32},"categories":[{"id":"4bf58dd8d48988d137941735"}],"location":{"lat":51.50825818413502,"lng":-0.13176268013868592,"postalCode":"SW1Y 4QL"}},{"id":"4ac518e8f964a520a4ab20e3","name":"Ritzy Cinema","stats":{"checkinsCount":2991,"usersCount":1239,"tipCount":43},"categories":[{"id":"4bf58dd8d48988d17f941735"}],"location":{"lat":51.46125352026383,"lng":-0.11547446250915527,"postalCode":"SW2 1JG"}},{"id":"4ac518eaf964a520ecab20e3","name":"Olympia","stats":{"checkinsCount":2348,"usersCount":1668,"tipCount":19},"categories":[{"id":"4bf58dd8d48988d1f1931735"}],"location":{"lat":51.49696169158996,"lng":-0.21062850952148438,"postalCode":"W14 8UX"}},{"id":"4ac518cef964a5203aa620e3","name":"Royal Observatory","stats":{"checkinsCount":2658,"usersCount":2387,"tipCount":41},"categories":[{"id":"4bf58dd8d48988d192941735"}],"location":{"lat":51.47764105478667,"lng":-0.0011157989501953125,"postalCode":"SE10 8XJ"}},{"id":"4ac518e9f964a520daab20e3","name":"Roundhouse","stats":{"checkinsCount":5307,"usersCount":3618,"tipCount":55},"categories":[{"id":"4bf58dd8d48988d1e5931735"}],"location":{"lat":51.543185724231996,"lng":-0.15183448791503906,"postalCode":"NW1 8EH"}},{"id":"4ac518d4f964a520afa720e3","name":"Proud Galleries","stats":{"checkinsCount":2022,"usersCount":1510,"tipCount":34},"categories":[{"id":"4bf58dd8d48988d1e9931735"}],"location":{"lat":51.54187789016918,"lng":-0.14913082122802734,"postalCode":"NW1 8AH"}},{"id":"4ac518d3f964a52054a720e3","name":"The Sherlock Holmes Museum","stats":{"checkinsCount":1558,"usersCount":1395,"tipCount":22},"categories":[{"id":"4bf58dd8d48988d181941735"}],"location":{"lat":51.523563745291796,"lng":-0.15811380407433148,"postalCode":"NW1 6XE"}},{"id":"4acf1d2ef964a52074d220e3","name":"BAFTA","stats":{"checkinsCount":1869,"usersCount":1151,"tipCount":10},"categories":[{"id":"4bf58dd8d48988d17f941735"}],"location":{"lat":51.508822589647636,"lng":-0.1375436782836914,"postalCode":"W1J 9LN"}},{"id":"4ace3a62f964a52039cf20e3","name":"The Hospital Club","stats":{"checkinsCount":7380,"usersCount":2715,"tipCount":61},"categories":[{"id":"4bf58dd8d48988d1f2931735"}],"location":{"lat":51.51475188104656,"lng":-0.12471199035644531,"postalCode":"WC2H 9HQ"}},{"id":"4ac518e8f964a520adab20e3","name":"The Kia Oval","stats":{"checkinsCount":1913,"usersCount":1124,"tipCount":15},"categories":[{"id":"4bf58dd8d48988d18a941735"}],"location":{"lat":51.4837364238246,"lng":-0.114956796169281,"postalCode":"SE11 5SS"}},{"id":"4ac518e7f964a5204cab20e3","name":"The London Palladium","stats":{"checkinsCount":1586,"usersCount":1385,"tipCount":15},"categories":[{"id":"4bf58dd8d48988d137941735"}],"location":{"lat":51.51444967097597,"lng":-0.14067968037327006,"postalCode":"W1F 7TF"}},{"id":"4ac518c3f964a52055a420e3","name":"Scala","stats":{"checkinsCount":1994,"usersCount":1557,"tipCount":16},"categories":[{"id":"4bf58dd8d48988d1e5931735"}],"location":{"lat":51.530770594714056,"lng":-0.12090636885989278,"postalCode":"N1 9NL"}},{"id":"4ac518c5f964a520e8a420e3","name":"Bloomsbury Bowling Lanes","stats":{"checkinsCount":1629,"usersCount":1266,"tipCount":24},"categories":[{"id":"4bf58dd8d48988d1e4931735"}],"location":{"lat":51.524468,"lng":-0.1284809995285769,"postalCode":"WC1H 9EU"}},{"id":"4ac518e7f964a52070ab20e3","name":"ODEON","stats":{"checkinsCount":3311,"usersCount":2465,"tipCount":45},"categories":[{"id":"4bf58dd8d48988d180941735"}],"location":{"lat":51.510461902236,"lng":-0.12944340705871582,"postalCode":"WC2H 7JY"}},{"id":"4ac518e8f964a52072ab20e3","name":"Empire Cinema","stats":{"checkinsCount":2512,"usersCount":1766,"tipCount":16},"categories":[{"id":"4bf58dd8d48988d17f941735"}],"location":{"lat":51.51066556016945,"lng":-0.1302480697631836,"postalCode":"WC2H 7NA"}},{"id":"4ac518d2f964a5203ca720e3","name":"Museum of London","stats":{"checkinsCount":2711,"usersCount":2194,"tipCount":54},"categories":[{"id":"4bf58dd8d48988d190941735"}],"location":{"lat":51.517568168602,"lng":-0.09632971103048445,"postalCode":"EC2Y  5HN"}},{"id":"4ac518e9f964a520d2ab20e3","name":"Rich Mix Cultural Foundation","stats":{"checkinsCount":2066,"usersCount":1267,"tipCount":21},"categories":[{"id":"4bf58dd8d48988d1f1931735"}],"location":{"lat":51.524197125142166,"lng":-0.07308584704522973,"postalCode":"E1 6LA"}},{"id":"4bc76e872f94d13a36ea117f","name":"O2 Academy Islington","stats":{"checkinsCount":1901,"usersCount":1229,"tipCount":16},"categories":[{"id":"4bf58dd8d48988d1e5931735"}],"location":{"lat":51.53407013964267,"lng":-0.10619401931762695,"postalCode":"N1"}},{"id":"4ac518e7f964a52044ab20e3","name":"Dominion Theatre","stats":{"checkinsCount":2271,"usersCount":1691,"tipCount":33},"categories":[{"id":"4bf58dd8d48988d137941735"}],"location":{"lat":51.51665764014642,"lng":-0.1302537008690701,"postalCode":"W1T 7AQ"}},{"id":"4ac518e7f964a52053ab20e3","name":"Palace Theatre","stats":{"checkinsCount":1871,"usersCount":1227,"tipCount":12},"categories":[{"id":"4bf58dd8d48988d137941735"}],"location":{"lat":51.51322289213271,"lng":-0.12960433959960938,"postalCode":"W1D 5AY"}},{"id":"4ac518cdf964a520eca520e3","name":"London Transport Museum","stats":{"checkinsCount":1560,"usersCount":1218,"tipCount":24},"categories":[{"id":"4bf58dd8d48988d181941735"}],"location":{"lat":51.51146682844727,"lng":-0.12187957763671875,"postalCode":"WC2E 7BB"}},{"id":"4ac518c1f964a520e8a320e3","name":"Cargo","stats":{"checkinsCount":2089,"usersCount":1591,"tipCount":30},"categories":[{"id":"4bf58dd8d48988d1e5931735"}],"location":{"lat":51.5263345103079,"lng":-0.07899125294487028,"postalCode":"EC2A 3AY"}},{"id":"4ac518eff964a52062ad20e3","name":"Leadenhall Market","stats":{"checkinsCount":2213,"usersCount":861,"tipCount":12},"categories":[{"id":"4deefb944765f83613cdba6e"}],"location":{"lat":51.512746,"lng":-0.083694,"postalCode":"EC3V 1LT"}},{"id":"4ad64197f964a5201d0621e3","name":"Shakespeare's Globe Theatre","stats":{"checkinsCount":4193,"usersCount":3397,"tipCount":54},"categories":[{"id":"4bf58dd8d48988d137941735"}],"location":{"lat":51.508333980296754,"lng":-0.09703879920461073,"postalCode":"SE1 9DT"}},{"id":"4ad0de63f964a52093da20e3","name":"Cineworld West India Quay","stats":{"checkinsCount":4611,"usersCount":1320,"tipCount":36},"categories":[{"id":"4bf58dd8d48988d180941735"}],"location":{"lat":51.50764732314014,"lng":-0.022401809692382812,"postalCode":"E14 4AL"}},{"id":"4adb5f4af964a520912621e3","name":"Cineworld Wandsworth","stats":{"checkinsCount":3501,"usersCount":932,"tipCount":40},"categories":[{"id":"4bf58dd8d48988d17f941735"}],"location":{"lat":51.45467546470801,"lng":-0.19359111785888672,"postalCode":"SW18 4TF"}},{"id":"4bdd45a2645e0f47f3346b19","name":"London Sea Life Aquarium","stats":{"checkinsCount":1898,"usersCount":1681,"tipCount":32},"categories":[{"id":"4fceea171983d5d06c3e9823"}],"location":{"lat":51.50229146352127,"lng":-0.1192617416381836,"postalCode":"SE1 7PB"}},{"id":"4ad06c8ef964a52009d820e3","name":"Wellcome Collection","stats":{"checkinsCount":2361,"usersCount":1652,"tipCount":52},"categories":[{"id":"4bf58dd8d48988d191941735"}],"location":{"lat":51.52591394790353,"lng":-0.13419628143310547,"postalCode":"NW1 2BE"}},{"id":"4adf4587f964a520f87821e3","name":"Saatchi Gallery","stats":{"checkinsCount":3301,"usersCount":2590,"tipCount":45},"categories":[{"id":"4bf58dd8d48988d1e2931735"}],"location":{"lat":51.49046226670941,"lng":-0.1587975025177002,"postalCode":"SW3 4SQ"}},{"id":"4ad09ceff964a520bdd820e3","name":"Prince Charles Cinema","stats":{"checkinsCount":1950,"usersCount":1135,"tipCount":31},"categories":[{"id":"4bf58dd8d48988d17f941735"}],"location":{"lat":51.51141157743393,"lng":-0.13033870792481,"postalCode":"WC2H 7BY"}},{"id":"4ae2d9f8f964a5208d8f21e3","name":"Victoria and Albert Museum (V&A)","stats":{"checkinsCount":9984,"usersCount":7971,"tipCount":161},"categories":[{"id":"4bf58dd8d48988d18f941735"}],"location":{"lat":51.496814746693175,"lng":-0.17146825790405273,"postalCode":"SW7 2RL"}},{"id":"4ae19e32f964a520708621e3","name":"HMV Hammersmith Apollo","stats":{"checkinsCount":5151,"usersCount":3978,"tipCount":31},"categories":[{"id":"4bf58dd8d48988d1e5931735"}],"location":{"lat":51.490936562354825,"lng":-0.22459745407104492,"postalCode":"W6 9QH"}},{"id":"4bed4d1d91380f474baa9f18","name":"Greenwich Meridian","stats":{"checkinsCount":1622,"usersCount":1408,"tipCount":14},"categories":[{"id":"4deefb944765f83613cdba6e"}],"location":{"lat":51.47793172667162,"lng":-0.0014591217041015625}},{"id":"4ae470f4f964a5209b9a21e3","name":"Cineworld Shaftesbury Avenue","stats":{"checkinsCount":3048,"usersCount":1190,"tipCount":17},"categories":[{"id":"4bf58dd8d48988d180941735"}],"location":{"lat":51.5106922693391,"lng":-0.13348817825317383,"postalCode":"W1D 7DH"}},{"id":"4aeca7bbf964a520f8c921e3","name":"Curzon Cinema","stats":{"checkinsCount":2054,"usersCount":1269,"tipCount":30},"categories":[{"id":"4bf58dd8d48988d17f941735"}],"location":{"lat":51.512675381440204,"lng":-0.13062357902526855,"postalCode":"W1D 5DY"}},{"id":"4bb1c12ff964a520a7a13ce3","name":"Whitechapel Gallery","stats":{"checkinsCount":1430,"usersCount":1048,"tipCount":24},"categories":[{"id":"4bf58dd8d48988d1e2931735"}],"location":{"lat":51.515820139788545,"lng":-0.07055282592773438,"postalCode":"E1 7QX"}},{"id":"4ac518c8f964a5208ba520e3","name":"Relentless Garage","stats":{"checkinsCount":1566,"usersCount":1155,"tipCount":15},"categories":[{"id":"4bf58dd8d48988d1e5931735"}],"location":{"lat":51.54665529727936,"lng":-0.10399460792541504,"postalCode":"N5 1RD"}},{"id":"4ac518b9f964a520b6a120e3","name":"Institute of Contemporary Arts","stats":{"checkinsCount":1602,"usersCount":1073,"tipCount":27},"categories":[{"id":"4bf58dd8d48988d1e2931735"}],"location":{"lat":51.50601,"lng":-0.130908,"postalCode":"SW1Y 5AH"}},{"id":"4acdbc1df964a520dacc20e3","name":"The Old Vic","stats":{"checkinsCount":1528,"usersCount":1071,"tipCount":18},"categories":[{"id":"4bf58dd8d48988d137941735"}],"location":{"lat":51.502438390761164,"lng":-0.10982036590576172,"postalCode":"SE1 8NB"}},{"id":"4ac518d2f964a5203ba720e3","name":"Hayward Gallery","stats":{"checkinsCount":1414,"usersCount":1130,"tipCount":22},"categories":[{"id":"4bf58dd8d48988d1e2931735"}],"location":{"lat":51.506244976845146,"lng":-0.11560320854187012,"postalCode":"SE1 8XX"}},{"id":"4ac518cef964a520fba520e3","name":"London Dungeon","stats":{"checkinsCount":1326,"usersCount":1163,"tipCount":19},"categories":[{"id":"4bf58dd8d48988d1f1931735"}],"location":{"lat":51.505790874508364,"lng":-0.08650660514831543,"postalCode":"SE1 9BD"}},{"id":"4ac518e7f964a5206eab20e3","name":"ODEON","stats":{"checkinsCount":1456,"usersCount":1005,"tipCount":11},"categories":[{"id":"4bf58dd8d48988d17f941735"}],"location":{"lat":51.51344680532424,"lng":-0.16008726454397643,"postalCode":"W2 2EN"}},{"id":"4ac518e7f964a52059ab20e3","name":"Queen's Theatre","stats":{"checkinsCount":1279,"usersCount":1138,"tipCount":19},"categories":[{"id":"4bf58dd8d48988d137941735"}],"location":{"lat":51.511760623284765,"lng":-0.13247966766357422,"postalCode":"W1D 6BA"}},{"id":"4acdbaf0f964a520d6cc20e3","name":"Kings Place","stats":{"checkinsCount":1676,"usersCount":963,"tipCount":17},"categories":[{"id":"4bf58dd8d48988d1e2931735"}],"location":{"lat":51.53475086862483,"lng":-0.12196540832519531,"postalCode":"N1 9AG"}},{"id":"4ac518e7f964a52062ab20e3","name":"Young Vic","stats":{"checkinsCount":1657,"usersCount":959,"tipCount":21},"categories":[{"id":"4bf58dd8d48988d137941735"}],"location":{"lat":51.503063504290125,"lng":-0.10748031281336486,"postalCode":"SE1 8LZ"}},{"id":"4ac518e8f964a5209eab20e3","name":"Clapham Picturehouse","stats":{"checkinsCount":1709,"usersCount":845,"tipCount":25},"categories":[{"id":"4bf58dd8d48988d17f941735"}],"location":{"lat":51.462429983101735,"lng":-0.13802647590637207,"postalCode":"SW4 0AT"}},{"id":"4ac518b9f964a520baa120e3","name":"Ronnie Scott's Jazz Club","stats":{"checkinsCount":1417,"usersCount":1170,"tipCount":32},"categories":[{"id":"4bf58dd8d48988d1e7931735"}],"location":{"lat":51.5134175238805,"lng":-0.13155310433017287,"postalCode":"W1D 4HT"}},{"id":"4ac518e9f964a520bdab20e3","name":"Queen Elizabeth Hall","stats":{"checkinsCount":1434,"usersCount":1067,"tipCount":17},"categories":[{"id":"4bf58dd8d48988d1e6931735"}],"location":{"lat":51.50650541584913,"lng":-0.11671900749206543,"postalCode":"SE1 8XX"}},{"id":"4aeb3a10f964a520d8bf21e3","name":"Vue Cinema","stats":{"checkinsCount":1605,"usersCount":873,"tipCount":21},"categories":[{"id":"4bf58dd8d48988d17f941735"}],"location":{"lat":51.54798968998552,"lng":-0.1810169219970703,"postalCode":"NW3 6LU"}},{"id":"4ae3634ff964a5205a9421e3","name":"Barfly","stats":{"checkinsCount":1517,"usersCount":1115,"tipCount":16},"categories":[{"id":"4bf58dd8d48988d1e5931735"}],"location":{"lat":51.5430261802875,"lng":-0.14911095791244935,"postalCode":"NW1 8AN"}},{"id":"4ae9e8c4f964a52088b721e3","name":"Union Chapel","stats":{"checkinsCount":1499,"usersCount":1136,"tipCount":23},"categories":[{"id":"4bf58dd8d48988d1e5931735"}],"location":{"lat":51.544813791666215,"lng":-0.10243892669677734,"postalCode":"N1 2XD"}},{"id":"4af5dad6f964a520ddfd21e3","name":"All Star Lanes","stats":{"checkinsCount":1454,"usersCount":1141,"tipCount":24},"categories":[{"id":"4bf58dd8d48988d1e4931735"}],"location":{"lat":51.52172181775443,"lng":-0.07218360900878906,"postalCode":"E1 6QL"}},{"id":"4b0dbfc7f964a520534f23e3","name":"Century Club","stats":{"checkinsCount":1603,"usersCount":793,"tipCount":14},"categories":[{"id":"4bf58dd8d48988d1f1931735"}],"location":{"lat":51.51201027746488,"lng":-0.13230863520340277,"postalCode":"W1D 6LQ"}},{"id":"4b4635a1f964a5201c1a26e3","name":"Adelphi Theatre","stats":{"checkinsCount":1179,"usersCount":1036,"tipCount":18},"categories":[{"id":"4bf58dd8d48988d137941735"}],"location":{"lat":51.50997111626242,"lng":-0.12284517288208008,"postalCode":"WC2R 0JT"}},{"id":"4ac518d3f964a52057a720e3","name":"Serpentine Gallery","stats":{"checkinsCount":1215,"usersCount":971,"tipCount":20},"categories":[{"id":"4bf58dd8d48988d1e2931735"}],"location":{"lat":51.50448603170895,"lng":-0.17460062934323456,"postalCode":"W2 3XA"}},{"id":"4ac518e7f964a5204aab20e3","name":"Theatre Royal Haymarket","stats":{"checkinsCount":1120,"usersCount":846,"tipCount":14},"categories":[{"id":"4bf58dd8d48988d137941735"}],"location":{"lat":51.508475354971175,"lng":-0.13144969940185547,"postalCode":"SW1Y 4HT"}},{"id":"4ac518e7f964a52060ab20e3","name":"Victoria Palace Theatre","stats":{"checkinsCount":1200,"usersCount":906,"tipCount":17},"categories":[{"id":"4bf58dd8d48988d137941735"}],"location":{"lat":51.49659049116021,"lng":-0.14235850110017692,"postalCode":"SW1E 5EA"}},{"id":"4ac518e9f964a520ceab20e3","name":"Cambridge Theatre","stats":{"checkinsCount":1220,"usersCount":1032,"tipCount":15},"categories":[{"id":"4bf58dd8d48988d137941735"}],"location":{"lat":51.51365849535242,"lng":-0.12675393168608146,"postalCode":"WC2 9HU"}},{"id":"4ac518e7f964a5205cab20e3","name":"Shaftesbury Theatre","stats":{"checkinsCount":1175,"usersCount":987,"tipCount":13},"categories":[{"id":"4bf58dd8d48988d137941735"}],"location":{"lat":51.51598,"lng":-0.126153,"postalCode":"WC2H 8DP"}},{"id":"4ac518c9f964a520a7a520e3","name":"Crobar","stats":{"checkinsCount":1898,"usersCount":590,"tipCount":28},"categories":[{"id":"4bf58dd8d48988d1e9931735"}],"location":{"lat":51.51485102241697,"lng":-0.13015371549223248,"postalCode":"W1D 4AS"}},{"id":"4ac518eaf964a52002ac20e3","name":"Leicester Square Theatre","stats":{"checkinsCount":1244,"usersCount":983,"tipCount":12},"categories":[{"id":"4bf58dd8d48988d137941735"}],"location":{"lat":51.51122644944369,"lng":-0.13015687465667725,"postalCode":"WC2H 7BX"}},{"id":"4ac518e9f964a520d1ab20e3","name":"Wyndham's Theatre","stats":{"checkinsCount":1145,"usersCount":889,"tipCount":13},"categories":[{"id":"4bf58dd8d48988d137941735"}],"location":{"lat":51.51124939,"lng":-0.128331,"postalCode":"WC2H 0DA"}},{"id":"4adaddb1f964a520382421e3","name":"Cineworld Haymarket","stats":{"checkinsCount":1461,"usersCount":723,"tipCount":16},"categories":[{"id":"4bf58dd8d48988d17f941735"}],"location":{"lat":51.5088,"lng":-0.1324,"postalCode":"SW1Y 4RL"}},{"id":"4b05c425f964a520cfe222e3","name":"Natural History Museum Ice Rink","stats":{"checkinsCount":889,"usersCount":805,"tipCount":8},"categories":[{"id":"4bf58dd8d48988d181941735"}],"location":{"lat":51.496046617931334,"lng":-0.17446428537368774,"postalCode":"SW7 5BD"}},{"id":"4c304b436f1fef3b21b9eb3d","name":"Royal Armouries at The Tower of London","stats":{"checkinsCount":882,"usersCount":792,"tipCount":7},"categories":[{"id":"4deefb944765f83613cdba6e"}],"location":{"lat":51.507941142609155,"lng":-0.0762176513671875,"postalCode":"EC3N 4AB"}},{"id":"4f22df5ee4b0020c2d201e70","name":"Cutty Sark","stats":{"checkinsCount":1081,"usersCount":784,"tipCount":12},"categories":[{"id":"4bf58dd8d48988d190941735"}],"location":{"lat":51.482812732960156,"lng":-0.009613037109375,"postalCode":"SE10 9HT"}},{"id":"4b5b426bf964a5202cef28e3","name":"Vue Cinema","stats":{"checkinsCount":1209,"usersCount":720,"tipCount":6},"categories":[{"id":"4bf58dd8d48988d17f941735"}],"location":{"lat":51.480206921910444,"lng":-0.19496440887451172,"postalCode":"SW6 1BY"}},{"id":"4b855193f964a520665631e3","name":"Theatre Royal","stats":{"checkinsCount":1139,"usersCount":809,"tipCount":11},"categories":[{"id":"4bf58dd8d48988d137941735"}],"location":{"lat":51.51272610354094,"lng":-0.12056624554536365,"postalCode":"WC2B 5JF"}},{"id":"4b9539f2f964a520409634e3","name":"Westminster Hall","stats":{"checkinsCount":992,"usersCount":795,"tipCount":4},"categories":[{"id":"4deefb944765f83613cdba6e"}],"location":{"lat":51.50062180251775,"lng":-0.1261281967163086,"postalCode":"SW1A 1AA"}},{"id":"4bad16def964a520792c3be3","name":"Prince of Wales Theatre","stats":{"checkinsCount":950,"usersCount":815,"tipCount":13},"categories":[{"id":"4bf58dd8d48988d137941735"}],"location":{"lat":51.51043853159524,"lng":-0.13217926025390625,"postalCode":"W1D 6AS"}},{"id":"4ac518e9f964a520d7ab20e3","name":"Loftus Road Stadium","stats":{"checkinsCount":1414,"usersCount":576,"tipCount":10},"categories":[{"id":"4bf58dd8d48988d188941735"}],"location":{"lat":51.50927666176991,"lng":-0.23221492767333984,"postalCode":"W12 7PJ"}},{"id":"4ac518eaf964a520f4ab20e3","name":"Troxy","stats":{"checkinsCount":930,"usersCount":793,"tipCount":15},"categories":[{"id":"4bf58dd8d48988d1f3931735"}],"location":{"lat":51.51279480120168,"lng":-0.04398998724641667,"postalCode":"E1 0HX"}},{"id":"4ac518e7f964a5205bab20e3","name":"Savoy Theatre","stats":{"checkinsCount":949,"usersCount":827,"tipCount":10},"categories":[{"id":"4bf58dd8d48988d137941735"}],"location":{"lat":51.510461902236,"lng":-0.12087106704711914,"postalCode":"WC2R 0ET"}},{"id":"4acdd490f964a5202bcd20e3","name":"Tate Modern Members' Room (Level 6)","stats":{"checkinsCount":1041,"usersCount":689,"tipCount":16},"categories":[{"id":"4bf58dd8d48988d1e2931735"}],"location":{"lat":51.50760265063598,"lng":-0.0996999930625673}},{"id":"4ac518c7f964a52072a520e3","name":"Jazz Cafe","stats":{"checkinsCount":962,"usersCount":795,"tipCount":19},"categories":[{"id":"4bf58dd8d48988d1e7931735"}],"location":{"lat":51.538866467974174,"lng":-0.14295304550167517,"postalCode":"NW1 7PG"}},{"id":"4ac518e7f964a52056ab20e3","name":"Piccadilly Theatre","stats":{"checkinsCount":1179,"usersCount":738,"tipCount":15},"categories":[{"id":"4bf58dd8d48988d137941735"}],"location":{"lat":51.51086697638315,"lng":-0.13524618793851967,"postalCode":"W1D 7DY"}},{"id":"4ac518ebf964a5201cac20e3","name":"Odeon","stats":{"checkinsCount":1101,"usersCount":828,"tipCount":12},"categories":[{"id":"4bf58dd8d48988d17f941735"}],"location":{"lat":51.51390727124453,"lng":-0.12799501419067383,"postalCode":"WC2H 8AH"}},{"id":"4ac518e7f964a52041ab20e3","name":"The London Coliseum","stats":{"checkinsCount":983,"usersCount":723,"tipCount":12},"categories":[{"id":"4bf58dd8d48988d136941735"}],"location":{"lat":51.50982499041834,"lng":-0.12675504982510719,"postalCode":"WC2N 4ES"}},{"id":"4ac518ebf964a52041ac20e3","name":"Village Underground","stats":{"checkinsCount":1043,"usersCount":790,"tipCount":10},"categories":[{"id":"4bf58dd8d48988d1e5931735"}],"location":{"lat":51.52373115122374,"lng":-0.07857263088226318,"postalCode":"EC2A 3PQ"}},{"id":"4ac518e8f964a52090ab20e3","name":"Riverside Studios","stats":{"checkinsCount":999,"usersCount":692,"tipCount":12},"categories":[{"id":"4bf58dd8d48988d17f941735"}],"location":{"lat":51.488651,"lng":-0.227586,"postalCode":"W6 9RL"}},{"id":"4ac518e8f964a52096ab20e3","name":"Cineworld Fulham Road","stats":{"checkinsCount":1570,"usersCount":529,"tipCount":13},"categories":[{"id":"4bf58dd8d48988d17f941735"}],"location":{"lat":51.4872,"lng":-0.1794,"postalCode":"SW10 9QR"}},{"id":"4ac518e8f964a5209fab20e3","name":"The Soho Theatre and Writers' Centre","stats":{"checkinsCount":1110,"usersCount":773,"tipCount":6},"categories":[{"id":"4bf58dd8d48988d137941735"}],"location":{"lat":51.51440159186046,"lng":-0.13291408142618047,"postalCode":"W1D 3NE"}},{"id":"4ac518d4f964a520aca720e3","name":"Ripley's Believe It or Not! Museum","stats":{"checkinsCount":846,"usersCount":794,"tipCount":14},"categories":[{"id":"4bf58dd8d48988d181941735"}],"location":{"lat":51.509877632620366,"lng":-0.13453960418701172,"postalCode":"W1J 0DA"}},{"id":"4ac518e7f964a52049ab20e3","name":"Garrick Theatre","stats":{"checkinsCount":973,"usersCount":848,"tipCount":10},"categories":[{"id":"4bf58dd8d48988d137941735"}],"location":{"lat":51.51000784192644,"lng":-0.1278930902481079,"postalCode":"WC2H 0HH"}},{"id":"4b4a485df964a520358226e3","name":"Odeon Whiteleys & The Lounge","stats":{"checkinsCount":955,"usersCount":556,"tipCount":17},"categories":[{"id":"4bf58dd8d48988d180941735"}],"location":{"lat":51.51489876810915,"lng":-0.18844127655029297,"postalCode":"W2 4YN"}},{"id":"4b37e675f964a520414825e3","name":"The Casino At The Empire","stats":{"checkinsCount":963,"usersCount":558,"tipCount":8},"categories":[{"id":"4bf58dd8d48988d17c941735"}],"location":{"lat":51.509864277798705,"lng":-0.13084888458251953,"postalCode":"WC2H 7NA"}},{"id":"4c558eecfd2ea59363d2f22b","name":"The Clock Tower","stats":{"checkinsCount":2099,"usersCount":223,"tipCount":6},"categories":[{"id":"4deefb944765f83613cdba6e"}],"location":{"lat":51.5797539831616,"lng":-0.12367799878120422,"postalCode":"N8 8"}},{"id":"4e74c57663655e2fd72f6a63","name":"Vue Cinema","stats":{"checkinsCount":916,"usersCount":603,"tipCount":14},"categories":[{"id":"4bf58dd8d48988d180941735"}],"location":{"lat":51.542878786960145,"lng":-0.006308555603027344,"postalCode":"E20"}},{"id":"4b75a42bf964a5204c192ee3","name":"All Star Lanes","stats":{"checkinsCount":777,"usersCount":658,"tipCount":10},"categories":[{"id":"4bf58dd8d48988d1e4931735"}],"location":{"lat":51.51945876626997,"lng":-0.1226158019666488,"postalCode":"WC1B 4DA"}},{"id":"4babe997f964a520c2d43ae3","name":"Duke of York's Theatre","stats":{"checkinsCount":797,"usersCount":698,"tipCount":9},"categories":[{"id":"4bf58dd8d48988d137941735"}],"location":{"lat":51.51022971927459,"lng":-0.12690944373171997,"postalCode":"WC2N 4BG"}},{"id":"4ac518ebf964a5203aac20e3","name":"Vue Cinema","stats":{"checkinsCount":979,"usersCount":461,"tipCount":12},"categories":[{"id":"4bf58dd8d48988d17f941735"}],"location":{"lat":51.60375193233095,"lng":-0.17307758331298828,"postalCode":"N12 0GL"}},{"id":"4ac518e8f964a520a9ab20e3","name":"ODEON","stats":{"checkinsCount":993,"usersCount":531,"tipCount":10},"categories":[{"id":"4bf58dd8d48988d17f941735"}],"location":{"lat":51.495759401243255,"lng":-0.04364490509033203,"postalCode":"SE16 7LL"}},{"id":"4ac518e9f964a520c5ab20e3","name":"Odeon Cinema","stats":{"checkinsCount":956,"usersCount":514,"tipCount":7},"categories":[{"id":"4bf58dd8d48988d180941735"}],"location":{"lat":51.55846324543888,"lng":-0.12096226215362549,"postalCode":"N7 6LJ"}},{"id":"4ac518d3f964a52077a720e3","name":"Churchill Museum & Cabinet War Rooms","stats":{"checkinsCount":780,"usersCount":751,"tipCount":15},"categories":[{"id":"4bf58dd8d48988d190941735"}],"location":{"lat":51.501838214359076,"lng":-0.12882649898529053,"postalCode":"SW1A 2AQ"}},{"id":"4ac518d3f964a52071a720e3","name":"The Wallace Collection","stats":{"checkinsCount":814,"usersCount":646,"tipCount":25},"categories":[{"id":"4bf58dd8d48988d1e2931735"}],"location":{"lat":51.51719391345978,"lng":-0.153045,"postalCode":"W1U 3BN"}},{"id":"4ac518d0f964a5209ea620e3","name":"Namco Station County Hall","stats":{"checkinsCount":769,"usersCount":604,"tipCount":17},"categories":[{"id":"4bf58dd8d48988d1e1931735"}],"location":{"lat":51.501823964606395,"lng":-0.11956214904785156,"postalCode":"SE1 7PB"}},{"id":"4ac518c5f964a520b3a420e3","name":"Hootananny","stats":{"checkinsCount":889,"usersCount":556,"tipCount":9},"categories":[{"id":"4bf58dd8d48988d1e5931735"}],"location":{"lat":51.45531863176158,"lng":-0.11351165711399527,"postalCode":"SW2 1DF"}},{"id":"4dc91970b0fbf26798c2c42c","name":"Hackney Picturehouse","stats":{"checkinsCount":995,"usersCount":471,"tipCount":16},"categories":[{"id":"4bf58dd8d48988d17f941735"}],"location":{"lat":51.54480759625824,"lng":-0.055375688001920484,"postalCode":"E8 1HE"}},{"id":"4ac518e9f964a520c7ab20e3","name":"Everyman Screen On The Green","stats":{"checkinsCount":868,"usersCount":550,"tipCount":21},"categories":[{"id":"4bf58dd8d48988d17f941735"}],"location":{"lat":51.536539402143234,"lng":-0.10355472564697266,"postalCode":"N1 0NP"}},{"id":"4ac518e9f964a520c8ab20e3","name":"Apollo Cinemas","stats":{"checkinsCount":882,"usersCount":602,"tipCount":9},"categories":[{"id":"4bf58dd8d48988d17f941735"}],"location":{"lat":51.5089645,"lng":-0.1341235,"postalCode":"SW1Y 4LR"}},{"id":"4ac518ebf964a52036ac20e3","name":"Conway Hall","stats":{"checkinsCount":827,"usersCount":573,"tipCount":10},"categories":[{"id":"4bf58dd8d48988d1f1931735"}],"location":{"lat":51.519881,"lng":-0.11844,"postalCode":"WC1R 4RL"}},{"id":"4ac518e7f964a52054ab20e3","name":"Peacock Theatre","stats":{"checkinsCount":984,"usersCount":611,"tipCount":9},"categories":[{"id":"4bf58dd8d48988d137941735"}],"location":{"lat":51.514591553001914,"lng":-0.1182202451081097,"postalCode":"WC2A 2HT"}},{"id":"4ac518e9f964a520d0ab20e3","name":"Novello Theatre","stats":{"checkinsCount":738,"usersCount":600,"tipCount":12},"categories":[{"id":"4bf58dd8d48988d137941735"}],"location":{"lat":51.51221504637884,"lng":-0.11927658091863297,"postalCode":"WC2B 4LD"}},{"id":"4ac518c6f964a52017a520e3","name":"Cafe Oto","stats":{"checkinsCount":1177,"usersCount":498,"tipCount":25},"categories":[{"id":"4bf58dd8d48988d1e5931735"}],"location":{"lat":51.54669701750695,"lng":-0.07485635683421059,"postalCode":"E8 3DL"}},{"id":"4ac518c9f964a520a8a520e3","name":"The Underworld","stats":{"checkinsCount":905,"usersCount":547,"tipCount":16},"categories":[{"id":"4bf58dd8d48988d1e5931735"}],"location":{"lat":51.53921539754178,"lng":-0.1424252986907959,"postalCode":"NW1 0NE"}},{"id":"4ac518e8f964a52084ab20e3","name":"Bloomsbury Theatre","stats":{"checkinsCount":801,"usersCount":612,"tipCount":4},"categories":[{"id":"4bf58dd8d48988d137941735"}],"location":{"lat":51.525051940000004,"lng":-0.132582,"postalCode":"WC1H 0AH"}},{"id":"4ac518e8f964a520b4ab20e3","name":"Gielgud Theatre","stats":{"checkinsCount":825,"usersCount":625,"tipCount":7},"categories":[{"id":"4bf58dd8d48988d137941735"}],"location":{"lat":51.51169385189717,"lng":-0.1329946517944336,"postalCode":"W1D 6AR"}},{"id":"4ac518c7f964a52073a520e3","name":"The Borderline","stats":{"checkinsCount":936,"usersCount":606,"tipCount":20},"categories":[{"id":"4bf58dd8d48988d1e5931735"}],"location":{"lat":51.514912328459886,"lng":-0.13033290969418995,"postalCode":"W1D 4AR"}},{"id":"4ac518e9f964a520ccab20e3","name":"New London Theatre","stats":{"checkinsCount":702,"usersCount":641,"tipCount":8},"categories":[{"id":"4bf58dd8d48988d137941735"}],"location":{"lat":51.51515248101072,"lng":-0.12256622314453125,"postalCode":"WC2B 5PW"}},{"id":"4ac518e7f964a5205fab20e3","name":"Vaudeville Theatre","stats":{"checkinsCount":774,"usersCount":605,"tipCount":6},"categories":[{"id":"4bf58dd8d48988d137941735"}],"location":{"lat":51.51013137348817,"lng":-0.1224374771118164,"postalCode":"WC2R 0NH"}},{"id":"4ac518c9f964a5209fa520e3","name":"100 Club","stats":{"checkinsCount":822,"usersCount":589,"tipCount":15},"categories":[{"id":"4bf58dd8d48988d1e9931735"}],"location":{"lat":51.516035,"lng":-0.135258,"postalCode":"W1D 1LL"}},{"id":"4ad7179cf964a520a60821e3","name":"The New Den","stats":{"checkinsCount":1200,"usersCount":483,"tipCount":9},"categories":[{"id":"4bf58dd8d48988d188941735"}],"location":{"lat":51.48611321321685,"lng":-0.05106925964355469,"postalCode":"SE16 3LN"}},{"id":"4ad2591ef964a5200ae120e3","name":"Greenwich Picturehouse","stats":{"checkinsCount":1021,"usersCount":473,"tipCount":18},"categories":[{"id":"4bf58dd8d48988d17e941735"}],"location":{"lat":51.47945627641783,"lng":-0.009985802840936319,"postalCode":"SE10 8NN"}},{"id":"4adb6d89f964a520582721e3","name":"ODEON","stats":{"checkinsCount":904,"usersCount":566,"tipCount":12},"categories":[{"id":"4bf58dd8d48988d17f941735"}],"location":{"lat":51.53900133034814,"lng":-0.143884836840413,"postalCode":"NW1 7AA"}},{"id":"4adce812f964a5206a6221e3","name":"The Comedy Store","stats":{"checkinsCount":735,"usersCount":632,"tipCount":13},"categories":[{"id":"4bf58dd8d48988d18e941735"}],"location":{"lat":51.51010800267787,"lng":-0.13235092163085938,"postalCode":"SW1Y 4EE"}},{"id":"4ae71110f964a5203fa821e3","name":"Cineworld Wood Green","stats":{"checkinsCount":1282,"usersCount":427,"tipCount":19},"categories":[{"id":"4bf58dd8d48988d17f941735"}],"location":{"lat":51.59506837648672,"lng":-0.10799646377563477,"postalCode":"N22 6LU"}},{"id":"4f0ee2f1c2eeb8e9e1651a3f","name":"Udderbelly Festival","stats":{"checkinsCount":655,"usersCount":504,"tipCount":5},"categories":[{"id":"4bf58dd8d48988d1f2931735"}],"location":{"lat":51.50393435023761,"lng":-0.11758804321289062,"postalCode":"SE1 8XX"}},{"id":"4c1cd32bb306c928426b64b7","name":"Barbican Art Gallery","stats":{"checkinsCount":665,"usersCount":535,"tipCount":11},"categories":[{"id":"4bf58dd8d48988d1e2931735"}],"location":{"lat":51.51953091601874,"lng":-0.09369781365129846}},{"id":"4c557d1506901b8d2d1a8f4d","name":"V&A Museum Of Childhood","stats":{"checkinsCount":751,"usersCount":561,"tipCount":16},"categories":[{"id":"4bf58dd8d48988d190941735"}],"location":{"lat":51.52904444305163,"lng":-0.05565851926803589,"postalCode":"E2 9PA"}},{"id":"4b5e0cfdf964a520037b29e3","name":"Bush Hall","stats":{"checkinsCount":677,"usersCount":544,"tipCount":7},"categories":[{"id":"4bf58dd8d48988d1e6931735"}],"location":{"lat":51.5064186030132,"lng":-0.2316141128540039,"postalCode":"W12 7LJ"}},{"id":"4b706629f964a520f8172de3","name":"Noel Coward Theatre","stats":{"checkinsCount":650,"usersCount":543,"tipCount":12},"categories":[{"id":"4bf58dd8d48988d137941735"}],"location":{"lat":51.51106026553182,"lng":-0.12756905916044514,"postalCode":"WC2N 4AU"}},{"id":"4ba9bdfcf964a52076363ae3","name":"London 2012 Olympic Park","stats":{"checkinsCount":822,"usersCount":478,"tipCount":11},"categories":[{"id":"4bf58dd8d48988d184941735"}],"location":{"lat":51.53623443403258,"lng":-0.009843283364587797,"postalCode":"E15"}},{"id":"4db4228e81543d71da3ef5a4","name":"The Crown Jewels","stats":{"checkinsCount":645,"usersCount":590,"tipCount":2},"categories":[{"id":"4bf58dd8d48988d190941735"}],"location":{"lat":51.50841545796351,"lng":-0.07575398936678093,"postalCode":"EC3N 4AB"}},{"id":"4cb0b108eb65b1f7cd696ecd","name":"London Eye 4D Experience","stats":{"checkinsCount":602,"usersCount":530,"tipCount":9},"categories":[{"id":"4bf58dd8d48988d17f941735"}],"location":{"lat":51.503344535622404,"lng":-0.11949594431659075}},{"id":"4ac518e8f964a520a3ab20e3","name":"Odeon Swiss Cottage","stats":{"checkinsCount":814,"usersCount":482,"tipCount":15},"categories":[{"id":"4bf58dd8d48988d180941735"}],"location":{"lat":51.54251250548329,"lng":-0.17498946897573503,"postalCode":"NW3 5EL"}},{"id":"4ac518d0f964a52090a620e3","name":"RAF Museum London","stats":{"checkinsCount":702,"usersCount":444,"tipCount":15},"categories":[{"id":"4bf58dd8d48988d190941735"}],"location":{"lat":51.59857398721448,"lng":-0.23998260498046875,"postalCode":"NW9 5LL"}},{"id":"4ac518e9f964a520c2ab20e3","name":"Cineworld Chelsea","stats":{"checkinsCount":877,"usersCount":422,"tipCount":6},"categories":[{"id":"4bf58dd8d48988d180941735"}],"location":{"lat":51.4853,"lng":-0.1731,"postalCode":"SW3 5EW"}},{"id":"4ac518d1f964a520bda620e3","name":"Queen's House","stats":{"checkinsCount":583,"usersCount":531,"tipCount":15},"categories":[{"id":"4bf58dd8d48988d1e2931735"}],"location":{"lat":51.4812759906,"lng":-0.0039482116699219,"postalCode":"SE10 9NF"}},{"id":"4ac518eaf964a520f7ab20e3","name":"Wilton's Music Hall","stats":{"checkinsCount":683,"usersCount":485,"tipCount":15},"categories":[{"id":"4bf58dd8d48988d137941735"}],"location":{"lat":51.51045188624859,"lng":-0.06688356399536133,"postalCode":"E1 8JB"}},{"id":"4ac518e7f964a5206fab20e3","name":"Odeon Kensington","stats":{"checkinsCount":713,"usersCount":479,"tipCount":7},"categories":[{"id":"4bf58dd8d48988d17f941735"}],"location":{"lat":51.498772501945496,"lng":-0.199165,"postalCode":"W8 6NA"}},{"id":"4ac518c9f964a520a9a520e3","name":"Dublin Castle","stats":{"checkinsCount":738,"usersCount":496,"tipCount":8},"categories":[{"id":"4bf58dd8d48988d1e5931735"}],"location":{"lat":51.5374,"lng":-0.1457,"postalCode":"NW1 7AN"}},{"id":"4ac518d3f964a52062a720e3","name":"Royal Institute Of British Architects","stats":{"checkinsCount":732,"usersCount":551,"tipCount":10},"categories":[{"id":"4bf58dd8d48988d1e2931735"}],"location":{"lat":51.52105424548617,"lng":-0.1448822021484375,"postalCode":"W1B 1AD"}},{"id":"4ac518bef964a52011a320e3","name":"Monto Water Rats","stats":{"checkinsCount":616,"usersCount":482,"tipCount":13},"categories":[{"id":"4bf58dd8d48988d1e9931735"}],"location":{"lat":51.52893883127083,"lng":-0.11973442389350256,"postalCode":"WC1X 8BZ"}},{"id":"4ac518c4f964a52097a420e3","name":"All Star Lanes","stats":{"checkinsCount":769,"usersCount":529,"tipCount":9},"categories":[{"id":"4bf58dd8d48988d1e4931735"}],"location":{"lat":51.513813795679454,"lng":-0.18831253051757812,"postalCode":"W2 4DB"}},{"id":"4ac518e7f964a5203eab20e3","name":"Apollo Theatre","stats":{"checkinsCount":793,"usersCount":546,"tipCount":5},"categories":[{"id":"4bf58dd8d48988d137941735"}],"location":{"lat":51.511599,"lng":-0.133244,"postalCode":"W1D 7ES"}},{"id":"4ac518e7f964a5204eab20e3","name":"Lyric Theatre","stats":{"checkinsCount":659,"usersCount":564,"tipCount":17},"categories":[{"id":"4bf58dd8d48988d137941735"}],"location":{"lat":51.51123854936504,"lng":-0.13354374724272353,"postalCode":"W1D 7ES"}},{"id":"4acef0acf964a52016d220e3","name":"Pineapple Dance Studios‎","stats":{"checkinsCount":827,"usersCount":399,"tipCount":5},"categories":[{"id":"4bf58dd8d48988d134941735"}],"location":{"lat":51.513211,"lng":-0.125096,"postalCode":"WC2H 9JA"}},{"id":"4ac518e8f964a520b0ab20e3","name":"Electric Cinema","stats":{"checkinsCount":814,"usersCount":504,"tipCount":17},"categories":[{"id":"4bf58dd8d48988d17f941735"}],"location":{"lat":51.515514989022684,"lng":-0.20489357076956666,"postalCode":"W11 2ED"}},{"id":"4ac518e8f964a520a8ab20e3","name":"Madame JoJo's","stats":{"checkinsCount":620,"usersCount":504,"tipCount":21},"categories":[{"id":"4bf58dd8d48988d1e6931735"}],"location":{"lat":51.51245486363116,"lng":-0.13380591164999495,"postalCode":"W1F 0SE"}},{"id":"4ac518e7f964a52057ab20e3","name":"Prince Edward Theatre","stats":{"checkinsCount":623,"usersCount":552,"tipCount":9},"categories":[{"id":"4bf58dd8d48988d137941735"}],"location":{"lat":51.51342319927852,"lng":-0.13073086738586426,"postalCode":"W1D 4HS"}},{"id":"4ddd53a852b155583de92b36","name":"Playboy Club","stats":{"checkinsCount":889,"usersCount":463,"tipCount":8},"categories":[{"id":"4bf58dd8d48988d17c941735"}],"location":{"lat":51.50432433690939,"lng":-0.15077692379191573,"postalCode":"W1K 1ND"}},{"id":"4ad6e877f964a5205f0821e3","name":"Shoreditch Town Hall","stats":{"checkinsCount":754,"usersCount":395,"tipCount":4},"categories":[{"id":"4bf58dd8d48988d1e2931735"}],"location":{"lat":51.52723559044543,"lng":-0.07926464080810547,"postalCode":"EC1V 9LT"}},{"id":"4af608faf964a520690022e3","name":"ODEON","stats":{"checkinsCount":618,"usersCount":481,"tipCount":6},"categories":[{"id":"4bf58dd8d48988d17f941735"}],"location":{"lat":51.51851,"lng":-0.132019,"postalCode":"W1T 1BX"}},{"id":"4c4b023d959220a12e06f20e","name":"London 2012 venue - Aquatics Centre","stats":{"checkinsCount":636,"usersCount":374,"tipCount":5},"categories":[{"id":"4bf58dd8d48988d184941735"}],"location":{"lat":51.5401488983387,"lng":-0.0106680872491687,"postalCode":"E15"}},{"id":"4b4d9677f964a52070d426e3","name":"LOVEFiLM","stats":{"checkinsCount":1423,"usersCount":140,"tipCount":3},"categories":[{"id":"4bf58dd8d48988d1f1931735"}],"location":{"lat":51.521882033642676,"lng":-0.2618694305419922,"postalCode":"W3 6RU"}},{"id":"4f3a479ce4b0ae43d16279e4","name":"Yayoi Kusama - Tate Modern","stats":{"checkinsCount":522,"usersCount":496,"tipCount":6},"categories":[{"id":"4bf58dd8d48988d1e2931735"}],"location":{"lat":51.50723281413592,"lng":-0.10003928594746672}},{"id":"4c2e486b66e40f471af0bf8b","name":"Regents Park Open Air Theatre","stats":{"checkinsCount":543,"usersCount":451,"tipCount":14},"categories":[{"id":"4bf58dd8d48988d137941735"}],"location":{"lat":51.52842870701279,"lng":-0.15472322702407837,"postalCode":"NW1 4"}},{"id":"4b671fdaf964a520473c2be3","name":"Cineworld Hammersmith","stats":{"checkinsCount":616,"usersCount":315,"tipCount":20},"categories":[{"id":"4bf58dd8d48988d17f941735"}],"location":{"lat":51.4924,"lng":-0.2335,"postalCode":"W6 9JT"}},{"id":"4b61bbfdf964a520701f2ae3","name":"Purple Turtle","stats":{"checkinsCount":575,"usersCount":413,"tipCount":5},"categories":[{"id":"4bf58dd8d48988d1e9931735"}],"location":{"lat":51.534753020000004,"lng":-0.138307,"postalCode":"NW1 1TN"}},{"id":"4c937119418ea1cdbf63ad85","name":"Barbican Concert Hall","stats":{"checkinsCount":588,"usersCount":417,"tipCount":1},"categories":[{"id":"4bf58dd8d48988d1e5931735"}],"location":{"lat":51.519451,"lng":-0.093832,"postalCode":"EC2Y 8DS"}},{"id":"4c921bc9ae96a0933adda846","name":"Turbine Hall","stats":{"checkinsCount":490,"usersCount":424,"tipCount":2},"categories":[{"id":"4bf58dd8d48988d18f941735"}],"location":{"lat":51.50733468638316,"lng":-0.0999214768466709,"postalCode":"SE1"}},{"id":"4bc4b348461576b0804e8032","name":"Matchroom Stadium","stats":{"checkinsCount":661,"usersCount":289,"tipCount":7},"categories":[{"id":"4bf58dd8d48988d188941735"}],"location":{"lat":51.55997677566468,"lng":-0.012590855663487463,"postalCode":"E10 5NF"}},{"id":"4ac518d3f964a52079a720e3","name":"Museum of London Docklands","stats":{"checkinsCount":648,"usersCount":444,"tipCount":25},"categories":[{"id":"4bf58dd8d48988d190941735"}],"location":{"lat":51.50762728992553,"lng":-0.02339959144592285,"postalCode":"E14 4AL"}},{"id":"4ac518d0f964a52091a620e3","name":"Queen's Gallery","stats":{"checkinsCount":538,"usersCount":472,"tipCount":3},"categories":[{"id":"4bf58dd8d48988d1e2931735"}],"location":{"lat":51.499880066733844,"lng":-0.14239816568550456,"postalCode":"SW1A 1AA"}},{"id":"4ac518d2f964a52044a720e3","name":"Geffrye Museum","stats":{"checkinsCount":614,"usersCount":443,"tipCount":20},"categories":[{"id":"4bf58dd8d48988d18f941735"}],"location":{"lat":51.53180430660922,"lng":-0.0764697790145874,"postalCode":"E2 8EA"}},{"id":"4ac518e8f964a52092ab20e3","name":"BAC (Battersea Arts Centre)","stats":{"checkinsCount":608,"usersCount":377,"tipCount":12},"categories":[{"id":"4bf58dd8d48988d137941735"}],"location":{"lat":51.46483628990203,"lng":-0.16076087951660156,"postalCode":"SW11 5TN"}},{"id":"4ac518cef964a52009a620e3","name":"Photographers' Gallery","stats":{"checkinsCount":487,"usersCount":407,"tipCount":9},"categories":[{"id":"4bf58dd8d48988d1e2931735"}],"location":{"lat":51.514959029043034,"lng":-0.13892460125010309,"postalCode":"W1F 7LW"}},{"id":"4ac518e8f964a52098ab20e3","name":"Old Red Lion Pub and Theatre","stats":{"checkinsCount":556,"usersCount":370,"tipCount":8},"categories":[{"id":"4bf58dd8d48988d137941735"}],"location":{"lat":51.5313048,"lng":-0.1061189,"postalCode":"EC1V 4NJ"}},{"id":"4ac518e8f964a52081ab20e3","name":"English National Opera (ENO)","stats":{"checkinsCount":568,"usersCount":366,"tipCount":6},"categories":[{"id":"4bf58dd8d48988d1f3931735"}],"location":{"lat":51.51003955952155,"lng":-0.12691140174865723,"postalCode":"WC2N 4ES"}},{"id":"4ac518e7f964a52061ab20e3","name":"Trafalgar Studios","stats":{"checkinsCount":586,"usersCount":431,"tipCount":2},"categories":[{"id":"4bf58dd8d48988d137941735"}],"location":{"lat":51.506692396780124,"lng":-0.12748003005981445,"postalCode":"SW1A 2DY"}},{"id":"4ac518e8f964a520a6ab20e3","name":"Rio Cinema","stats":{"checkinsCount":619,"usersCount":364,"tipCount":22},"categories":[{"id":"4bf58dd8d48988d17e941735"}],"location":{"lat":51.5498249,"lng":-0.0752834,"postalCode":"E8 2BB"}},{"id":"4ac518e9f964a520d5ab20e3","name":"Hackney Empire","stats":{"checkinsCount":616,"usersCount":453,"tipCount":4},"categories":[{"id":"4bf58dd8d48988d137941735"}],"location":{"lat":51.54562404361896,"lng":-0.055465663529342686,"postalCode":"E8 1EJ"}},{"id":"4ac518cff964a5205ca620e3","name":"Tower Bridge Exhibition","stats":{"checkinsCount":495,"usersCount":468,"tipCount":4},"categories":[{"id":"4bf58dd8d48988d181941735"}],"location":{"lat":51.50608605686159,"lng":-0.07546932637013293,"postalCode":"SE1 2UP"}},{"id":"4ac518e7f964a5206bab20e3","name":"Everyman Baker Street","stats":{"checkinsCount":611,"usersCount":377,"tipCount":7},"categories":[{"id":"4bf58dd8d48988d17f941735"}],"location":{"lat":51.52045505009437,"lng":-0.15681715669023583,"postalCode":"W1U 6TJ"}},{"id":"4ac518e7f964a5203dab20e3","name":"Aldwych Theatre","stats":{"checkinsCount":638,"usersCount":390,"tipCount":5},"categories":[{"id":"4bf58dd8d48988d137941735"}],"location":{"lat":51.51316891398143,"lng":-0.11858210087549208,"postalCode":"WC2B 4DF"}},{"id":"4ac518d4f964a5208da720e3","name":"White Cube","stats":{"checkinsCount":488,"usersCount":415,"tipCount":5},"categories":[{"id":"4bf58dd8d48988d1e2931735"}],"location":{"lat":51.52734238816749,"lng":-0.08126020431518555,"postalCode":"N1 6PB"}},{"id":"4ad72b39f964a520e20821e3","name":"Frieze Art Fair","stats":{"checkinsCount":513,"usersCount":375,"tipCount":11},"categories":[{"id":"4bf58dd8d48988d1e2931735"}],"location":{"lat":51.52540664057756,"lng":-0.14977455139160156}},{"id":"4bd48d456f6495217c956dec","name":"Lyric Hammersmith","stats":{"checkinsCount":605,"usersCount":438,"tipCount":9},"categories":[{"id":"4bf58dd8d48988d137941735"}],"location":{"lat":51.49320108903252,"lng":-0.2257990837097168,"postalCode":"W6 0QL"}},{"id":"4deba172d22da22d4ef2180c","name":"Vue Cinema","stats":{"checkinsCount":650,"usersCount":358,"tipCount":8},"categories":[{"id":"4bf58dd8d48988d17f941735"}],"location":{"lat":51.504303025300395,"lng":-0.21872564070617762,"postalCode":"W12 8PP"}},{"id":"4ae8cb3ff964a5205ab221e3","name":"BBC Radio Theatre","stats":{"checkinsCount":556,"usersCount":357,"tipCount":5},"categories":[{"id":"4bf58dd8d48988d1f2931735"}],"location":{"lat":51.518295,"lng":-0.143971,"postalCode":"W1A 1AA"}},{"id":"4ae4b377f964a520429d21e3","name":"Genesis Cinema","stats":{"checkinsCount":791,"usersCount":337,"tipCount":18},"categories":[{"id":"4bf58dd8d48988d17f941735"}],"location":{"lat":51.52084062029354,"lng":-0.051283836364746094,"postalCode":"E1 4UJ"}},{"id":"4af0b7eef964a52086de21e3","name":"Coronet Cinema","stats":{"checkinsCount":631,"usersCount":436,"tipCount":8},"categories":[{"id":"4bf58dd8d48988d17f941735"}],"location":{"lat":51.50865795003036,"lng":-0.19806345402034115,"postalCode":"W11 3LB"}},{"id":"4b08016df964a520320223e3","name":"Vortex Jazz Club","stats":{"checkinsCount":446,"usersCount":352,"tipCount":9},"categories":[{"id":"4bf58dd8d48988d1e7931735"}],"location":{"lat":51.548822,"lng":-0.076375,"postalCode":"N16 8JH"}},{"id":"4b1ebbb8f964a520b01e24e3","name":"The Tabernacle","stats":{"checkinsCount":457,"usersCount":345,"tipCount":13},"categories":[{"id":"4bf58dd8d48988d1e5931735"}],"location":{"lat":51.51696848999419,"lng":-0.201873779296875,"postalCode":"W11 2AY"}},{"id":"4c4b00809c8d2d7f95b5586a","name":"London 2012 Velodrome","stats":{"checkinsCount":522,"usersCount":255,"tipCount":4},"categories":[{"id":"4bf58dd8d48988d1f4931735"}],"location":{"lat":51.55033811087074,"lng":-0.015277862548828125,"postalCode":"E15"}},{"id":"4b310ca6f964a52002ff24e3","name":"Stratford Picturehouse","stats":{"checkinsCount":607,"usersCount":281,"tipCount":10},"categories":[{"id":"4bf58dd8d48988d17e941735"}],"location":{"lat":51.5429204757105,"lng":0.0012871551029296061,"postalCode":"E15 1BX"}},{"id":"4c3a303fdfb0e21eaac5b1a8","name":"Aubin Cinema","stats":{"checkinsCount":458,"usersCount":338,"tipCount":10},"categories":[{"id":"4bf58dd8d48988d17e941735"}],"location":{"lat":51.52430447109121,"lng":-0.07409626164849337,"postalCode":"E2"}},{"id":"4b7ef87cf964a520410d30e3","name":"Half Moon","stats":{"checkinsCount":549,"usersCount":301,"tipCount":8},"categories":[{"id":"4bf58dd8d48988d1e9931735"}],"location":{"lat":51.46742619506041,"lng":-0.22014597453812376,"postalCode":"SW15 1EU"}},{"id":"4b9232d5f964a520e8eb33e3","name":"tkts","stats":{"checkinsCount":490,"usersCount":272,"tipCount":4},"categories":[{"id":"4bf58dd8d48988d1f1931735"}],"location":{"lat":51.51013170735682,"lng":-0.12996643781661987,"postalCode":"WC2H 7LH"}},{"id":"4bbdb292f57ba5934051aeb9","name":"Spitalfields Arts Market","stats":{"checkinsCount":396,"usersCount":312,"tipCount":3},"categories":[{"id":"4bf58dd8d48988d1e2931735"}],"location":{"lat":51.51958555204942,"lng":-0.076904296875,"postalCode":"E1 6AA"}},{"id":"4cb49bd5eb65b1f7f0768bcd","name":"The Old Vic Tunnels","stats":{"checkinsCount":543,"usersCount":317,"tipCount":4},"categories":[{"id":"4bf58dd8d48988d1e2931735"}],"location":{"lat":51.50075537764915,"lng":-0.11383295059204102,"postalCode":"SE1 7NN"}},{"id":"4acdd67ff964a52033cd20e3","name":"The Phoenix Cinema","stats":{"checkinsCount":651,"usersCount":187,"tipCount":11},"categories":[{"id":"4bf58dd8d48988d17f941735"}],"location":{"lat":51.588496252055656,"lng":-0.16411708668833958,"postalCode":"N2 9PJ"}},{"id":"4cc9df0459e8ef3bd897ff37","name":"London Forum","stats":{"checkinsCount":440,"usersCount":393,"tipCount":4},"categories":[{"id":"4bf58dd8d48988d1e6931735"}],"location":{"lat":51.55214569341565,"lng":-0.14208337140491045,"postalCode":"NW5 1JY"}},{"id":"4ac518e8f964a520a7ab20e3","name":"Grosvenor Victoria Casino","stats":{"checkinsCount":574,"usersCount":280,"tipCount":5},"categories":[{"id":"4bf58dd8d48988d17c941735"}],"location":{"lat":51.51708866450503,"lng":-0.16546010971069336,"postalCode":"W2 2DT"}},{"id":"4ac518f4f964a520dbae20e3","name":"Christie's","stats":{"checkinsCount":725,"usersCount":186,"tipCount":2},"categories":[{"id":"4bf58dd8d48988d1e2931735"}],"location":{"lat":51.50696807293964,"lng":-0.13747132623808678,"postalCode":"SW1Y 6QT"}},{"id":"4ac518ebf964a52037ac20e3","name":"Corsica Studios","stats":{"checkinsCount":421,"usersCount":290,"tipCount":10},"categories":[{"id":"4bf58dd8d48988d1f1931735"}],"location":{"lat":51.49351504107947,"lng":-0.09896278381347656,"postalCode":"SE17 1LB"}},{"id":"4ac518c6f964a5202aa520e3","name":"Plan B","stats":{"checkinsCount":473,"usersCount":359,"tipCount":18},"categories":[{"id":"4bf58dd8d48988d1e5931735"}],"location":{"lat":51.464447021484375,"lng":-0.1144176721572876,"postalCode":"SW9 7AY"}},{"id":"4ac518e8f964a5207aab20e3","name":"Rowans Leisure","stats":{"checkinsCount":567,"usersCount":320,"tipCount":11},"categories":[{"id":"4bf58dd8d48988d1e4931735"}],"location":{"lat":51.56522641296103,"lng":-0.1052713394165039,"postalCode":"N4 2DF"}},{"id":"4ac518eaf964a52009ac20e3","name":"The Scoop at More London","stats":{"checkinsCount":470,"usersCount":312,"tipCount":3},"categories":[{"id":"4bf58dd8d48988d137941735"}],"location":{"lat":51.50506343,"lng":-0.07929682731628418,"postalCode":"SE1 2DB"}},{"id":"4ac518eaf964a520e9ab20e3","name":"Camden Dingwalls","stats":{"checkinsCount":425,"usersCount":342,"tipCount":4},"categories":[{"id":"4bf58dd8d48988d1e9931735"}],"location":{"lat":51.541294,"lng":-0.145874,"postalCode":"N8"}},{"id":"4bc1ca70920eb713bb211b2c","name":"'Round Midnight","stats":{"checkinsCount":517,"usersCount":329,"tipCount":9},"categories":[{"id":"4bf58dd8d48988d1e7931735"}],"location":{"lat":51.53373644524688,"lng":-0.10720252990722656,"postalCode":"N1 0RW"}},{"id":"4ac518d3f964a5204fa720e3","name":"Sir John Soane's Museum","stats":{"checkinsCount":390,"usersCount":315,"tipCount":26},"categories":[{"id":"4bf58dd8d48988d181941735"}],"location":{"lat":51.5168296829319,"lng":-0.1174759718958727,"postalCode":"WC2A 3BP"}},{"id":"4ac518e7f964a52048ab20e3","name":"Fortune Theatre","stats":{"checkinsCount":482,"usersCount":347,"tipCount":7},"categories":[{"id":"4bf58dd8d48988d137941735"}],"location":{"lat":51.513212,"lng":-0.120565,"postalCode":"WC2B 5HH"}},{"id":"4ac518f9f964a5200ab020e3","name":"Queens Ice & Bowl","stats":{"checkinsCount":447,"usersCount":332,"tipCount":4},"categories":[{"id":"4bf58dd8d48988d1e4931735"}],"location":{"lat":51.51111293669556,"lng":-0.18747568130493164,"postalCode":"W2 4QP"}},{"id":"4ac518e9f964a520baab20e3","name":"Cadogan Hall","stats":{"checkinsCount":421,"usersCount":318,"tipCount":7},"categories":[{"id":"4bf58dd8d48988d1f3931735"}],"location":{"lat":51.49361729621887,"lng":-0.157258,"postalCode":"SW1X 9DQ"}},{"id":"4bcad9f5cc8cd13aab64becf","name":"London Film Museum","stats":{"checkinsCount":452,"usersCount":391,"tipCount":9},"categories":[{"id":"4bf58dd8d48988d181941735"}],"location":{"lat":51.50201096474784,"lng":-0.11921882629394531,"postalCode":"SE1 7PB"}},{"id":"4ac518e7f964a52043ab20e3","name":"Criterion Theatre","stats":{"checkinsCount":433,"usersCount":390,"tipCount":7},"categories":[{"id":"4bf58dd8d48988d137941735"}],"location":{"lat":51.50995954506986,"lng":-0.13439713332887637,"postalCode":"SW1Y 4XA"}},{"id":"4ac518e8f964a520a5ab20e3","name":"Renoir","stats":{"checkinsCount":517,"usersCount":350,"tipCount":5},"categories":[{"id":"4bf58dd8d48988d17f941735"}],"location":{"lat":51.52425850312692,"lng":-0.12342453002929688,"postalCode":"WC1N 1AW"}},{"id":"4ac518e7f964a52045ab20e3","name":"Donmar Warehouse","stats":{"checkinsCount":479,"usersCount":256,"tipCount":6},"categories":[{"id":"4bf58dd8d48988d137941735"}],"location":{"lat":51.51396777248324,"lng":-0.12576741410688536,"postalCode":"WC2H 9LX"}},{"id":"4ac518e7f964a5205aab20e3","name":"Royal Court Theatre","stats":{"checkinsCount":548,"usersCount":330,"tipCount":8},"categories":[{"id":"4bf58dd8d48988d1f2931735"}],"location":{"lat":51.492507,"lng":-0.15704243333333334,"postalCode":"SW1W 8AS"}},{"id":"4acf7199f964a520b3d320e3","name":"The Arts Theatre Club (Soho)","stats":{"checkinsCount":458,"usersCount":338,"tipCount":8},"categories":[{"id":"4bf58dd8d48988d1e2931735"}],"location":{"lat":51.51367,"lng":-0.131565,"postalCode":"W1D 4SQ"}},{"id":"4cdc8f92d4ecb1f778458048","name":"Royal Horse Guards","stats":{"checkinsCount":371,"usersCount":335,"tipCount":1},"categories":[{"id":"4deefb944765f83613cdba6e"}],"location":{"lat":51.504722,"lng":-0.126796,"postalCode":"SW1A 2AF"}},{"id":"4addf483f964a520b66621e3","name":"RADA Studios","stats":{"checkinsCount":796,"usersCount":165,"tipCount":1},"categories":[{"id":"4bf58dd8d48988d137941735"}],"location":{"lat":51.52073380732144,"lng":-0.1325225830078125,"postalCode":"WC1E 7EX"}},{"id":"4be57938bcef2d7fc3ce03e5","name":"Windmill Brixton","stats":{"checkinsCount":432,"usersCount":287,"tipCount":8},"categories":[{"id":"4bf58dd8d48988d1e5931735"}],"location":{"lat":51.4538999404075,"lng":-0.12245893478393555,"postalCode":"SW2 5BZ"}},{"id":"4ae066c9f964a520067f21e3","name":"Everyman Hampstead","stats":{"checkinsCount":514,"usersCount":329,"tipCount":12},"categories":[{"id":"4bf58dd8d48988d17f941735"}],"location":{"lat":51.5564457289427,"lng":-0.1790094597393382,"postalCode":"NW3 6TX"}},{"id":"4beb261ff90e9c744480e3ed","name":"Science Museum (IMAX)","stats":{"checkinsCount":396,"usersCount":360,"tipCount":1},"categories":[{"id":"4bf58dd8d48988d17f941735"}],"location":{"lat":51.49760290014126,"lng":-0.17427921295166016,"postalCode":"SW7 2DD"}},{"id":"4ae89305f964a5208ab021e3","name":"Curzon Mayfair Cinema","stats":{"checkinsCount":484,"usersCount":379,"tipCount":9},"categories":[{"id":"4bf58dd8d48988d17f941735"}],"location":{"lat":51.506562,"lng":-0.147817,"postalCode":"W1J 7TY"}},{"id":"4b48f3fdf964a520255f26e3","name":"G Casino London Piccadilly","stats":{"checkinsCount":425,"usersCount":217,"tipCount":5},"categories":[{"id":"4bf58dd8d48988d17c941735"}],"location":{"lat":51.51039845293572,"lng":-0.13203451003917635,"postalCode":"W1D 6BL"}},{"id":"4b4b3737f964a520aa9426e3","name":"Fashion Street","stats":{"checkinsCount":750,"usersCount":129,"tipCount":3},"categories":[{"id":"4bf58dd8d48988d1e2931735"}],"location":{"lat":51.518454,"lng":-0.072773,"postalCode":"E1"}},{"id":"4b3d40f5f964a520029125e3","name":"The Unicorn","stats":{"checkinsCount":645,"usersCount":186,"tipCount":6},"categories":[{"id":"4bf58dd8d48988d1e9931735"}],"location":{"lat":51.55353356291088,"lng":-0.1277292850862623,"postalCode":"NW1 9AA"}},{"id":"4e2b52f245dd3272c812091c","name":"Amy Winehouse's Home","stats":{"checkinsCount":419,"usersCount":225,"tipCount":3},"categories":[{"id":"4d4b7104d754a06370d81259"}],"location":{"lat":51.54528184611029,"lng":-0.13108953902751927,"postalCode":"NW1"}},{"id":"4f2a993d7b0c8da979c10a8d","name":"TEST","stats":{"checkinsCount":293,"usersCount":261,"tipCount":3},"categories":[{"id":"4bf58dd8d48988d1e1931735"}],"location":{"lat":51.52607414904275,"lng":-0.03162860870361328,"postalCode":"E1 6QL"}},{"id":"4d28f2296e27a143b5951f24","name":"Arcola Theatre","stats":{"checkinsCount":335,"usersCount":235,"tipCount":9},"categories":[{"id":"4bf58dd8d48988d137941735"}],"location":{"lat":51.54681479418206,"lng":-0.07506291148263687,"postalCode":"E8 2DJ"}},{"id":"4b5099e3f964a520f42827e3","name":"Tobacco Dock","stats":{"checkinsCount":459,"usersCount":231,"tipCount":7},"categories":[{"id":"4deefb944765f83613cdba6e"}],"location":{"lat":51.50908408402166,"lng":-0.0581716627420584}},{"id":"4c540dfc4623be9afda424f2","name":"Royal Mews","stats":{"checkinsCount":361,"usersCount":290,"tipCount":4},"categories":[{"id":"4bf58dd8d48988d181941735"}],"location":{"lat":51.4986916268569,"lng":-0.14336815309945367,"postalCode":"SW1W 1QH"}},{"id":"4c55cfacfd2ea59323b25d2c","name":"Rich Mix Cinema","stats":{"checkinsCount":354,"usersCount":273,"tipCount":4},"categories":[{"id":"4bf58dd8d48988d1f1931735"}],"location":{"lat":51.524207571468324,"lng":-0.07316635610261965,"postalCode":"E1 6LA"}},{"id":"4b804a3af964a520b96430e3","name":"Cineworld Staples Corner","stats":{"checkinsCount":509,"usersCount":229,"tipCount":7},"categories":[{"id":"4bf58dd8d48988d180941735"}],"location":{"lat":51.568080781398635,"lng":-0.22779464721679688,"postalCode":"NW2 6LW"}},{"id":"4e9399d0a17cee456fbb5d42","name":"White Cube","stats":{"checkinsCount":404,"usersCount":296,"tipCount":5},"categories":[{"id":"4bf58dd8d48988d1e2931735"}],"location":{"lat":51.49950643488766,"lng":-0.08188247680664062,"postalCode":"SE1 3TQ"}},{"id":"4ebd0869b6341bd7890875ba","name":"Aspers Casino","stats":{"checkinsCount":347,"usersCount":256,"tipCount":7},"categories":[{"id":"4bf58dd8d48988d17c941735"}],"location":{"lat":51.54268405225372,"lng":-0.006596545704843889,"postalCode":"E20 1EN"}},{"id":"4ac518eaf964a520eaab20e3","name":"Battersea Evolution","stats":{"checkinsCount":320,"usersCount":261,"tipCount":4},"categories":[{"id":"4bf58dd8d48988d1f1931735"}],"location":{"lat":51.48052764515145,"lng":-0.1556110382080078,"postalCode":"SW11 4NJ"}},{"id":"4acd585bf964a520ebcb20e3","name":"Skimlinks HQ","stats":{"checkinsCount":1616,"usersCount":74,"tipCount":5},"categories":[{"id":"4bf58dd8d48988d1e5931735"}],"location":{"lat":51.525364920973566,"lng":-0.08771896362304688,"postalCode":"EC1Y 2BP"}},{"id":"4ac518c5f964a520c1a420e3","name":"The Good Ship","stats":{"checkinsCount":357,"usersCount":241,"tipCount":7},"categories":[{"id":"4bf58dd8d48988d1e9931735"}],"location":{"lat":51.543745,"lng":-0.200251,"postalCode":"NW6 7JR"}},{"id":"4ac518d3f964a5207ea720e3","name":"Museum of Brands, Packaging & Advertising","stats":{"checkinsCount":292,"usersCount":268,"tipCount":15},"categories":[{"id":"4bf58dd8d48988d181941735"}],"location":{"lat":51.515045,"lng":-0.201197,"postalCode":"W11 2AR"}},{"id":"4ac518eaf964a520f2ab20e3","name":"Hampstead Theatre","stats":{"checkinsCount":340,"usersCount":226,"tipCount":7},"categories":[{"id":"4bf58dd8d48988d137941735"}],"location":{"lat":51.543766230368064,"lng":-0.17365694046020508,"postalCode":"NW3 3EU"}},{"id":"4ac518e6f964a52012ab20e3","name":"Cecil Sharp House","stats":{"checkinsCount":478,"usersCount":220,"tipCount":7},"categories":[{"id":"4bf58dd8d48988d1e5931735"}],"location":{"lat":51.53812191929982,"lng":-0.14921533075230373,"postalCode":"NW1 7AY"}},{"id":"4ac518e7f964a52042ab20e3","name":"Comedy Theatre","stats":{"checkinsCount":357,"usersCount":324,"tipCount":6},"categories":[{"id":"4bf58dd8d48988d137941735"}],"location":{"lat":51.509533,"lng":-0.1317241,"postalCode":"SW1Y 4DN"}},{"id":"4ac518e7f964a52040ab20e3","name":"Barbican Theatre","stats":{"checkinsCount":391,"usersCount":259,"tipCount":4},"categories":[{"id":"4bf58dd8d48988d137941735"}],"location":{"lat":51.51949058490466,"lng":-0.09348522337614243,"postalCode":"EC2Y 8DS"}},{"id":"4ac518f8f964a520dfaf20e3","name":"The London Bridge Experience","stats":{"checkinsCount":302,"usersCount":252,"tipCount":5},"categories":[{"id":"4bf58dd8d48988d1f1931735"}],"location":{"lat":51.506377,"lng":-0.087917,"postalCode":"SE1 2PF"}},{"id":"4ac518eaf964a520f0ab20e3","name":"Southwark Playhouse","stats":{"checkinsCount":340,"usersCount":237,"tipCount":8},"categories":[{"id":"4bf58dd8d48988d1f2931735"}],"location":{"lat":51.504548,"lng":-0.083383,"postalCode":"SE1 2TF"}},{"id":"4ac518d2f964a5203fa720e3","name":"The Courtauld Gallery","stats":{"checkinsCount":382,"usersCount":304,"tipCount":13},"categories":[{"id":"4bf58dd8d48988d1e2931735"}],"location":{"lat":51.51142531877037,"lng":-0.11761001882494442,"postalCode":"WC2R ORN"}},{"id":"4ace3394f964a52007cf20e3","name":"Odeon","stats":{"checkinsCount":492,"usersCount":216,"tipCount":7},"categories":[{"id":"4bf58dd8d48988d17f941735"}],"location":{"lat":51.465267,"lng":-0.2143997,"postalCode":"SW15 1"}},{"id":"4ac518e7f964a52055ab20e3","name":"Phoenix Theatre","stats":{"checkinsCount":370,"usersCount":304,"tipCount":7},"categories":[{"id":"4bf58dd8d48988d137941735"}],"location":{"lat":51.51419103517786,"lng":-0.12926101684570312,"postalCode":"WC2H 0JP"}},{"id":"4ac518e8f964a5208aab20e3","name":"Ambassadors Theatre","stats":{"checkinsCount":316,"usersCount":295,"tipCount":5},"categories":[{"id":"4bf58dd8d48988d137941735"}],"location":{"lat":51.51282895217651,"lng":-0.127716064453125,"postalCode":"WC2H 9ND"}},{"id":"4ac518e7f964a5205dab20e3","name":"St Martin's Theatre","stats":{"checkinsCount":303,"usersCount":265,"tipCount":5},"categories":[{"id":"4bf58dd8d48988d137941735"}],"location":{"lat":51.512724,"lng":-0.127702,"postalCode":"WC2H 9NZ"}},{"id":"4ac518e7f964a52047ab20e3","name":"Duchess Theatre","stats":{"checkinsCount":407,"usersCount":275,"tipCount":6},"categories":[{"id":"4bf58dd8d48988d137941735"}],"location":{"lat":51.51226456992633,"lng":-0.11967382036093512,"postalCode":"WC2B 5LA"}},{"id":"4ad47eebf964a52005e820e3","name":"Tricycle Theatre","stats":{"checkinsCount":382,"usersCount":246,"tipCount":10},"categories":[{"id":"4bf58dd8d48988d137941735"}],"location":{"lat":51.543228862751654,"lng":-0.2000921038289495,"postalCode":"NW6 7JR"}},{"id":"4ad3618ef964a5200ee420e3","name":"Everyman Belsize Park","stats":{"checkinsCount":355,"usersCount":222,"tipCount":5},"categories":[{"id":"4bf58dd8d48988d17f941735"}],"location":{"lat":51.550727,"lng":-0.16586456666666666,"postalCode":"NW3 4QG"}},{"id":"4dee838c922efcbaf1e52593","name":"Hard Rock Calling","stats":{"checkinsCount":350,"usersCount":312,"tipCount":3},"categories":[{"id":"4bf58dd8d48988d1e5931735"}],"location":{"lat":51.50756719022885,"lng":-0.1590442657470703,"postalCode":"W1"}},{"id":"4be692cacf200f4701af143c","name":"Pleasance Theatre","stats":{"checkinsCount":350,"usersCount":257,"tipCount":4},"categories":[{"id":"4bf58dd8d48988d137941735"}],"location":{"lat":51.548799727545195,"lng":-0.12146853218913457}},{"id":"4bf44886706e20a13e29a998","name":"Vue Cinema","stats":{"checkinsCount":399,"usersCount":227,"tipCount":4},"categories":[{"id":"4bf58dd8d48988d17f941735"}],"location":{"lat":51.596993073266944,"lng":-0.10937349676081976,"postalCode":"N22 5JP"}},{"id":"4df90e0152b1e8ca02d0b1c4","name":"Shrek The Musical","stats":{"checkinsCount":321,"usersCount":282,"tipCount":1},"categories":[{"id":"4bf58dd8d48988d137941735"}],"location":{"lat":51.513017250000004,"lng":-0.12037,"postalCode":"WC2B"}},{"id":"4e0b7d23aeb7a4da430d0775","name":"Serpentine Summer Pavilion","stats":{"checkinsCount":241,"usersCount":206,"tipCount":3},"categories":[{"id":"4bf58dd8d48988d1e2931735"}],"location":{"lat":51.504519,"lng":-0.174241,"postalCode":"W2 3XA"}},{"id":"4f01f30f0aaffcf6f6635464","name":"The Royal Mews, Buckingham Palace","stats":{"checkinsCount":264,"usersCount":217,"tipCount":0},"categories":[{"id":"4deefb944765f83613cdba6e"}],"location":{"lat":51.49875502662218,"lng":-0.1435806339302284,"postalCode":"SW1A 1AA"}},{"id":"4d188962bb488cfaa46fb5d4","name":"London 2012 Olympic and Paralympic Village","stats":{"checkinsCount":368,"usersCount":177,"tipCount":2},"categories":[{"id":"4bf58dd8d48988d184941735"}],"location":{"lat":51.5475362368947,"lng":-0.00858282722483691}},{"id":"4b116167f964a520467b23e3","name":"Trafik","stats":{"checkinsCount":294,"usersCount":237,"tipCount":4},"categories":[{"id":"4bf58dd8d48988d1e1931735"}],"location":{"lat":51.52719070156088,"lng":-0.08041061098505438,"postalCode":"EC1V 9LE"}},{"id":"4b48898af964a520ea4e26e3","name":"White Cube","stats":{"checkinsCount":291,"usersCount":211,"tipCount":3},"categories":[{"id":"4bf58dd8d48988d1e2931735"}],"location":{"lat":51.507547156978994,"lng":-0.13746857643127441}},{"id":"4e89b9cf9adf3c00aedc03e8","name":"Penguin Beach","stats":{"checkinsCount":291,"usersCount":243,"tipCount":3},"categories":[{"id":"4bf58dd8d48988d17b941735"}],"location":{"lat":51.53573857492835,"lng":-0.1525425910949707,"postalCode":"NW1 4RY"}},{"id":"4b85d4aff964a520487531e3","name":"Spearmint Rhino","stats":{"checkinsCount":278,"usersCount":207,"tipCount":3},"categories":[{"id":"4bf58dd8d48988d183941735"}],"location":{"lat":51.523190442298336,"lng":-0.13647079467773438,"postalCode":"W1T 7NN"}},{"id":"4b852b3cf964a520194f31e3","name":"Getty Images Gallery","stats":{"checkinsCount":296,"usersCount":244,"tipCount":2},"categories":[{"id":"4bf58dd8d48988d1e2931735"}],"location":{"lat":51.516355022088206,"lng":-0.13943149283776837,"postalCode":"W1W 8DX"}},{"id":"4b6362f1f964a5202b762ae3","name":"Hollywood Bowl","stats":{"checkinsCount":310,"usersCount":188,"tipCount":3},"categories":[{"id":"4bf58dd8d48988d1e4931735"}],"location":{"lat":51.603865214105284,"lng":-0.17299175262451172,"postalCode":"N12 0GL"}},{"id":"4b6d9b2ef964a520b47f2ce3","name":"Odeon","stats":{"checkinsCount":308,"usersCount":179,"tipCount":9},"categories":[{"id":"4bf58dd8d48988d17f941735"}],"location":{"lat":51.589705,"lng":-0.145775,"postalCode":"N10 3"}},{"id":"4b60a94af964a520c6f229e3","name":"Piano Bar","stats":{"checkinsCount":267,"usersCount":236,"tipCount":8},"categories":[{"id":"4bf58dd8d48988d1e8931735"}],"location":{"lat":51.50120957851763,"lng":-0.1929169310985456,"postalCode":"W8 4SG"}},{"id":"4e74d848483b0cf5ec794bdf","name":"All Star Lanes","stats":{"checkinsCount":263,"usersCount":226,"tipCount":7},"categories":[{"id":"4bf58dd8d48988d1e4931735"}],"location":{"lat":51.54268403131938,"lng":-0.007296104760191787,"postalCode":"E20"}},{"id":"4e971ed0722eef174f65cd9c","name":"81 Leonard Street","stats":{"checkinsCount":782,"usersCount":67,"tipCount":1},"categories":[{"id":"4bf58dd8d48988d1e2931735"}],"location":{"lat":51.524731,"lng":-0.082557,"postalCode":"EC2A 4qs"}},{"id":"4ba7981df964a5208ca039e3","name":"Metropolis Studios","stats":{"checkinsCount":324,"usersCount":166,"tipCount":4},"categories":[{"id":"4bf58dd8d48988d1e5931735"}],"location":{"lat":51.4935951987024,"lng":-0.2501106262207031,"postalCode":"W4 1SY"}},{"id":"4bbdb641a8cf76b0bf0bb2fd","name":"Painted Hall","stats":{"checkinsCount":279,"usersCount":200,"tipCount":5},"categories":[{"id":"4bf58dd8d48988d1e2931735"}],"location":{"lat":51.48314027553882,"lng":-0.006336336676491928,"postalCode":"SE10 9HY"}},{"id":"4bb3d49e42959c74b583222c","name":"Almeida Theatre","stats":{"checkinsCount":315,"usersCount":211,"tipCount":5},"categories":[{"id":"4bf58dd8d48988d137941735"}],"location":{"lat":51.539644,"lng":-0.10301796}},{"id":"4ac518e9f964a520e4ab20e3","name":"Theatre Royal Stratford East","stats":{"checkinsCount":292,"usersCount":180,"tipCount":7},"categories":[{"id":"4bf58dd8d48988d135941735"}],"location":{"lat":51.54276642405916,"lng":0.0006736598783210269,"postalCode":"E15 1BN"}},{"id":"4ac518d3f964a5206aa720e3","name":"National Army Museum","stats":{"checkinsCount":339,"usersCount":209,"tipCount":9},"categories":[{"id":"4bf58dd8d48988d181941735"}],"location":{"lat":51.4864338949215,"lng":-0.16080379486083984,"postalCode":"SW3 4HT"}},{"id":"4ac518cdf964a520dba520e3","name":"Ginglik","stats":{"checkinsCount":347,"usersCount":189,"tipCount":4},"categories":[{"id":"4bf58dd8d48988d1e5931735"}],"location":{"lat":51.50420148069069,"lng":-0.2197265625,"postalCode":"W12 8PH"}},{"id":"4ac518e8f964a5208fab20e3","name":"Ciné Lumière (at the French Institute)","stats":{"checkinsCount":256,"usersCount":184,"tipCount":4},"categories":[{"id":"4bf58dd8d48988d17e941735"}],"location":{"lat":51.49460427945535,"lng":-0.17706113337342336,"postalCode":"SW7 2DT"}},{"id":"4ac518c4f964a5209fa420e3","name":"Nambucca","stats":{"checkinsCount":323,"usersCount":204,"tipCount":8},"categories":[{"id":"4bf58dd8d48988d1e5931735"}],"location":{"lat":51.56105,"lng":-0.123904,"postalCode":"N7 6LB"}},{"id":"4ac518e9f964a520beab20e3","name":"St. John's, Smith Square","stats":{"checkinsCount":296,"usersCount":177,"tipCount":2},"categories":[{"id":"4bf58dd8d48988d1f3931735"}],"location":{"lat":51.495951849551375,"lng":-0.12693195411066036,"postalCode":"SW1P 3HA"}},{"id":"4ac518e8f964a5207eab20e3","name":"Wigmore Hall","stats":{"checkinsCount":323,"usersCount":230,"tipCount":2},"categories":[{"id":"4bf58dd8d48988d1e6931735"}],"location":{"lat":51.51672894855882,"lng":-0.14825285265347105,"postalCode":"W1U 2BP"}},{"id":"4ac518cdf964a520e7a520e3","name":"Bank of England Museum","stats":{"checkinsCount":313,"usersCount":173,"tipCount":6},"categories":[{"id":"4bf58dd8d48988d181941735"}],"location":{"lat":51.514402878163374,"lng":-0.08704612812827286,"postalCode":"EC2R 8AH"}},{"id":"4acf9d40f964a520f7d420e3","name":"Buffalo Bar","stats":{"checkinsCount":316,"usersCount":225,"tipCount":10},"categories":[{"id":"4bf58dd8d48988d1e9931735"}],"location":{"lat":51.5458546567126,"lng":-0.10359764099121094,"postalCode":"N1"}},{"id":"4ac518caf964a520bda520e3","name":"The Elysee Restaurant and Roof Garden","stats":{"checkinsCount":315,"usersCount":225,"tipCount":6},"categories":[{"id":"4bf58dd8d48988d1e5931735"}],"location":{"lat":51.518323600460334,"lng":-0.13292659997022316,"postalCode":"W1T 1DT"}},{"id":"4ec28ecc30f82a2e145951b9","name":"Fountain Of Eros","stats":{"checkinsCount":244,"usersCount":199,"tipCount":0},"categories":[{"id":"4deefb944765f83613cdba6e"}],"location":{"lat":51.51005683914372,"lng":-0.13440945872841312}},{"id":"4cc2e1948062468891202c2f","name":"Covent Garden Magic Corner","stats":{"checkinsCount":239,"usersCount":206,"tipCount":0},"categories":[{"id":"4bf58dd8d48988d1f2931735"}],"location":{"lat":51.51293934467945,"lng":-0.12373566627502441,"postalCode":"Wc2"}},{"id":"4fdb464ce4b0f3760b4f4ffe","name":"Lovebox 2012","stats":{"checkinsCount":269,"usersCount":221,"tipCount":2},"categories":[{"id":"4bf58dd8d48988d1e5931735"}],"location":{"lat":51.5369330400724,"lng":-0.03720620089301902}},{"id":"4adca774f964a520552e21e3","name":"Soho Screening Rooms","stats":{"checkinsCount":430,"usersCount":143,"tipCount":1},"categories":[{"id":"4bf58dd8d48988d17f941735"}],"location":{"lat":51.514518,"lng":-0.1365211,"postalCode":"W1F 8DY"}},{"id":"4ae9dfa3f964a5202fb721e3","name":"SOAS Brunei Gallery","stats":{"checkinsCount":333,"usersCount":150,"tipCount":3},"categories":[{"id":"4bf58dd8d48988d18f941735"}],"location":{"lat":51.522034,"lng":-0.128372}},{"id":"4befef99d4e4d13accac15a7","name":"Clink Prison Museum","stats":{"checkinsCount":258,"usersCount":230,"tipCount":10},"categories":[{"id":"4bf58dd8d48988d181941735"}],"location":{"lat":51.50708504050233,"lng":-0.09196311422844272,"postalCode":"SE1 9DG"}},{"id":"4af581a7f964a52076f921e3","name":"Hunterian Museum","stats":{"checkinsCount":250,"usersCount":238,"tipCount":15},"categories":[{"id":"4bf58dd8d48988d181941735"}],"location":{"lat":51.51539902358127,"lng":-0.11620223105488728,"postalCode":"WC2A 3PE"}},{"id":"4b07ebe1f964a520250123e3","name":"Holywood Bowl","stats":{"checkinsCount":198,"usersCount":148,"tipCount":5},"categories":[{"id":"4bf58dd8d48988d1e4931735"}],"location":{"lat":51.49597314406712,"lng":-0.04317283630371094}},{"id":"4c0012cdf61ea5931546eb13","name":"Spring Studios","stats":{"checkinsCount":298,"usersCount":121,"tipCount":1},"categories":[{"id":"4bf58dd8d48988d1e2931735"}],"location":{"lat":51.54993782042673,"lng":-0.14797210693359375,"postalCode":"NW5 3BH"}},{"id":"4c07e61bbbc676b02dab45d5","name":"Hurricane Room","stats":{"checkinsCount":250,"usersCount":127,"tipCount":1},"categories":[{"id":"4bf58dd8d48988d1e3931735"}],"location":{"lat":51.530229,"lng":-0.123424,"postalCode":"WC1X 8BB"}},{"id":"4c02729d9a7920a18969ce79","name":"Apsley House","stats":{"checkinsCount":208,"usersCount":133,"tipCount":3},"categories":[{"id":"4bf58dd8d48988d190941735"}],"location":{"lat":51.50307952226442,"lng":-0.15170574188232422,"postalCode":"W1J 7NT"}},{"id":"4c1a6221b9f876b0bf917846","name":"Olympic Park North Plaza","stats":{"checkinsCount":370,"usersCount":92,"tipCount":1},"categories":[{"id":"4bf58dd8d48988d184941735"}],"location":{"lat":51.550945914519815,"lng":-0.020056406517283836,"postalCode":"E15"}},{"id":"4f1eff6fe4b0b73ef036d158","name":"Wicked: The Untold Story of the Witches of Oz","stats":{"checkinsCount":210,"usersCount":200,"tipCount":3},"categories":[{"id":"4bf58dd8d48988d137941735"}],"location":{"lat":51.495712577211975,"lng":-0.14284134543071328}},{"id":"4f4a6a6ee4b0b8ab487d6824","name":"Chelsea Stadium","stats":{"checkinsCount":215,"usersCount":188,"tipCount":0},"categories":[{"id":"4bf58dd8d48988d188941735"}],"location":{"lat":51.480643665522294,"lng":-0.19228159679716}},{"id":"4c36021404cbb71378f5ed0d","name":"LSO St Luke's","stats":{"checkinsCount":230,"usersCount":181,"tipCount":4},"categories":[{"id":"4bf58dd8d48988d1e6931735"}],"location":{"lat":51.52506538060955,"lng":-0.09392882273869312,"postalCode":"EC1V 9NG"}},{"id":"4c20f4214d4a20a15c8f9b70","name":"Caledonian Park","stats":{"checkinsCount":331,"usersCount":99,"tipCount":1},"categories":[{"id":"4bf58dd8d48988d188941735"}],"location":{"lat":51.54662506443701,"lng":-0.1221200411436726}},{"id":"4b2b8569f964a52021b724e3","name":"Old Operating Theatre Museum","stats":{"checkinsCount":188,"usersCount":142,"tipCount":12},"categories":[{"id":"4bf58dd8d48988d190941735"}],"location":{"lat":51.50500911229296,"lng":-0.08857799824082109,"postalCode":"SE1 1"}},{"id":"4c222b9d497cb713c9e46cd8","name":"Aldwych Disused Underground Station","stats":{"checkinsCount":221,"usersCount":154,"tipCount":6},"categories":[{"id":"4deefb944765f83613cdba6e"}],"location":{"lat":51.51217126516677,"lng":-0.11622011661529541,"postalCode":"WC2R 2LS"}},{"id":"4c26924b136d20a133a1e561","name":"Red Gallery","stats":{"checkinsCount":214,"usersCount":181,"tipCount":0},"categories":[{"id":"4bf58dd8d48988d1e2931735"}],"location":{"lat":51.52616188129872,"lng":-0.08330687625973665,"postalCode":"EC2A 3DT"}},{"id":"4b82d308f964a52062e730e3","name":"Ashburton Triangle and Arsenal Museum","stats":{"checkinsCount":315,"usersCount":103,"tipCount":2},"categories":[{"id":"4bf58dd8d48988d190941735"}],"location":{"lat":51.55626791,"lng":-0.1080712,"postalCode":"N5 1BU"}},{"id":"4b896c38f964a520d53432e3","name":"The Hansom Cab","stats":{"checkinsCount":446,"usersCount":95,"tipCount":8},"categories":[{"id":"4bf58dd8d48988d1e1931735"}],"location":{"lat":51.4966158,"lng":-0.19710493333333332,"postalCode":"W8 6EG"}},{"id":"4c66b5eac2ead13aa665b480","name":"Gagosian Gallery","stats":{"checkinsCount":179,"usersCount":152,"tipCount":1},"categories":[{"id":"4bf58dd8d48988d1e2931735"}],"location":{"lat":51.53003894763008,"lng":-0.11810302734375,"postalCode":"WC1X 9JD"}},{"id":"4b76cd6ef964a52040602ee3","name":"Camden Arts Centre","stats":{"checkinsCount":269,"usersCount":167,"tipCount":9},"categories":[{"id":"4bf58dd8d48988d1e2931735"}],"location":{"lat":51.551014,"lng":-0.183676,"postalCode":"NW3 6DG"}},{"id":"4f9e89ade4b0e5be4139d2d9","name":"Hackney House","stats":{"checkinsCount":231,"usersCount":159,"tipCount":3},"categories":[{"id":"4bf58dd8d48988d137941735"}],"location":{"lat":51.524178,"lng":-0.077865}},{"id":"4c9e38d346978cfaec6d9f7f","name":"Fox Poker Club","stats":{"checkinsCount":304,"usersCount":139,"tipCount":4},"categories":[{"id":"4bf58dd8d48988d17c941735"}],"location":{"lat":51.51275706516019,"lng":-0.13024698075936092,"postalCode":"W1D 5DY"}},{"id":"4ea063602c5b9f62fb2ec038","name":"Harold Pinter Theatre","stats":{"checkinsCount":206,"usersCount":186,"tipCount":3},"categories":[{"id":"4bf58dd8d48988d137941735"}],"location":{"lat":51.5094256,"lng":-0.131675,"postalCode":"SW1Y 4DN"}},{"id":"4ba77c2cf964a5206f9739e3","name":"BBC Maida Vale Studios","stats":{"checkinsCount":287,"usersCount":146,"tipCount":1},"categories":[{"id":"4bf58dd8d48988d1f1931735"}],"location":{"lat":51.52634941852735,"lng":-0.19123340703547012}},{"id":"4ba7c51cf964a520c7b139e3","name":"Leake Street Tunnel","stats":{"checkinsCount":291,"usersCount":112,"tipCount":5},"categories":[{"id":"4bf58dd8d48988d1e2931735"}],"location":{"lat":51.50133642491517,"lng":-0.11471271514892578,"postalCode":"SE1 7NQ"}},{"id":"4ba2b387f964a520a31138e3","name":"Les Ambassadeurs","stats":{"checkinsCount":468,"usersCount":66,"tipCount":1},"categories":[{"id":"4bf58dd8d48988d17c941735"}],"location":{"lat":51.5043768221968,"lng":-0.15078990766830117,"postalCode":"W1J 7ED"}},{"id":"4ba2558df964a52061ee37e3","name":"Toynbee Studios","stats":{"checkinsCount":457,"usersCount":68,"tipCount":0},"categories":[{"id":"4bf58dd8d48988d1f2931735"}],"location":{"lat":51.51655369556093,"lng":-0.07285131340382947,"postalCode":"E1 6AB"}},{"id":"4cb4b1891463a143d3e7bca9","name":"La Soiree","stats":{"checkinsCount":194,"usersCount":151,"tipCount":4},"categories":[{"id":"4bf58dd8d48988d137941735"}],"location":{"lat":51.506311,"lng":-0.112684,"postalCode":"SE1 8"}},{"id":"4ac518ebf964a5202aac20e3","name":"Roundwood Park","stats":{"checkinsCount":409,"usersCount":74,"tipCount":1},"categories":[{"id":"4bf58dd8d48988d1e6931735"}],"location":{"lat":51.54096568124857,"lng":-0.23935758222448786,"postalCode":"NW10 3UN"}},{"id":"4ac518f6f964a52070af20e3","name":"Mile End Stadium","stats":{"checkinsCount":281,"usersCount":97,"tipCount":1},"categories":[{"id":"4bf58dd8d48988d184941735"}],"location":{"lat":51.51922989733969,"lng":-0.03416866195946236,"postalCode":"E14 7TW"}},{"id":"4ac518d3f964a52066a720e3","name":"Hogarth's House","stats":{"checkinsCount":364,"usersCount":112,"tipCount":2},"categories":[{"id":"4bf58dd8d48988d18f941735"}],"location":{"lat":51.48833683185544,"lng":-0.2533683131501437,"postalCode":"W4 2QN"}},{"id":"4ac518c5f964a520bba420e3","name":"Up the Creek","stats":{"checkinsCount":228,"usersCount":165,"tipCount":3},"categories":[{"id":"4bf58dd8d48988d18e941735"}],"location":{"lat":51.481441,"lng":-0.0116311,"postalCode":"SE10 9SW"}},{"id":"4ac518e8f964a5209aab20e3","name":"Guildhall School of Music & Drama","stats":{"checkinsCount":331,"usersCount":84,"tipCount":2},"categories":[{"id":"4bf58dd8d48988d1f3931735"}],"location":{"lat":51.519471,"lng":-0.091728,"postalCode":"EC2Y 8DT"}},{"id":"4ac518d3f964a52070a720e3","name":"Freud Museum","stats":{"checkinsCount":190,"usersCount":158,"tipCount":5},"categories":[{"id":"4bf58dd8d48988d190941735"}],"location":{"lat":51.54815937186242,"lng":-0.17766676482662339,"postalCode":"NW3 5SX"}},{"id":"4ac518c6f964a52019a520e3","name":"Jamm Brixton","stats":{"checkinsCount":205,"usersCount":169,"tipCount":2},"categories":[{"id":"4bf58dd8d48988d1e5931735"}],"location":{"lat":51.470541,"lng":-0.112399,"postalCode":"SW9 6LH"}},{"id":"4ac518c8f964a52085a520e3","name":"606 Club","stats":{"checkinsCount":171,"usersCount":157,"tipCount":13},"categories":[{"id":"4bf58dd8d48988d1e7931735"}],"location":{"lat":51.478446,"lng":-0.181611,"postalCode":"SW10 0QD"}},{"id":"4ac518eaf964a52003ac20e3","name":"Camden Centre","stats":{"checkinsCount":238,"usersCount":161,"tipCount":2},"categories":[{"id":"4bf58dd8d48988d1f3931735"}],"location":{"lat":51.529301,"lng":-0.124968,"postalCode":"WC1H 9JE"}},{"id":"4ac518cdf964a520eba520e3","name":"London Canal Museum","stats":{"checkinsCount":265,"usersCount":119,"tipCount":32},"categories":[{"id":"4bf58dd8d48988d190941735"}],"location":{"lat":51.53397005737294,"lng":-0.11974315769755364,"postalCode":"N1 9RT"}},{"id":"4ac518d3f964a5205aa720e3","name":"Guildhall Art Gallery","stats":{"checkinsCount":205,"usersCount":165,"tipCount":3},"categories":[{"id":"4bf58dd8d48988d1e2931735"}],"location":{"lat":51.51554640087329,"lng":-0.09164571762084961,"postalCode":"EC2V 5AE"}},{"id":"4ac518e8f964a52080ab20e3","name":"Gate Cinema","stats":{"checkinsCount":217,"usersCount":164,"tipCount":2},"categories":[{"id":"4bf58dd8d48988d17f941735"}],"location":{"lat":51.5088572,"lng":-0.197309,"postalCode":"W11 3JZ"}},{"id":"4ac518e9f964a520cfab20e3","name":"Shaw Theatre","stats":{"checkinsCount":184,"usersCount":167,"tipCount":1},"categories":[{"id":"4bf58dd8d48988d1f3931735"}],"location":{"lat":51.528867,"lng":-0.127606,"postalCode":"NW1 2AJ"}},{"id":"4ac518d3f964a5208aa720e3","name":"The Cartoon Museum","stats":{"checkinsCount":207,"usersCount":169,"tipCount":10},"categories":[{"id":"4bf58dd8d48988d18f941735"}],"location":{"lat":51.51769420528668,"lng":-0.12588950555948997,"postalCode":"WC1A 2HH"}},{"id":"4ac518c5f964a520b1a420e3","name":"Arts Theatre London","stats":{"checkinsCount":255,"usersCount":158,"tipCount":8},"categories":[{"id":"4bf58dd8d48988d137941735"}],"location":{"lat":51.51165378901763,"lng":-0.12754440307617188,"postalCode":"WC2H 7JB"}},{"id":"4ac518e8f964a5209dab20e3","name":"The New Players Theatre","stats":{"checkinsCount":235,"usersCount":160,"tipCount":2},"categories":[{"id":"4bf58dd8d48988d1e8931735"}],"location":{"lat":51.5079070175009,"lng":-0.1240411720951054,"postalCode":"WC2N 6NG"}},{"id":"4bc480284cdfc9b67dad9821","name":"Christie's South Kensington","stats":{"checkinsCount":221,"usersCount":130,"tipCount":1},"categories":[{"id":"4bf58dd8d48988d1e2931735"}],"location":{"lat":51.492848,"lng":-0.176383,"postalCode":"SW7 3LD"}},{"id":"4ac518d4f964a5209ea720e3","name":"Haunch of Venison","stats":{"checkinsCount":192,"usersCount":140,"tipCount":4},"categories":[{"id":"4bf58dd8d48988d1e2931735"}],"location":{"lat":51.51011750298091,"lng":-0.14038775764249703,"postalCode":"W1S 3ET"}},{"id":"4bd6d02f6f649521e35671ec","name":"Tower Hill Memorial","stats":{"checkinsCount":232,"usersCount":135,"tipCount":0},"categories":[{"id":"4deefb944765f83613cdba6e"}],"location":{"lat":51.50960604970503,"lng":-0.07714318899703858}},{"id":"4ad60635f964a520930421e3","name":"Peckhamplex","stats":{"checkinsCount":261,"usersCount":143,"tipCount":8},"categories":[{"id":"4bf58dd8d48988d17f941735"}],"location":{"lat":51.47058417588218,"lng":-0.06840705871582031}},{"id":"4ad858aaf964a520131121e3","name":"The Union Theatre","stats":{"checkinsCount":313,"usersCount":108,"tipCount":2},"categories":[{"id":"4bf58dd8d48988d1f2931735"}],"location":{"lat":51.503647,"lng":-0.1016985,"postalCode":"SE1 0LX"}},{"id":"4bde79f0ea279c74bf61e22b","name":"Halcyon Gallery","stats":{"checkinsCount":200,"usersCount":181,"tipCount":2},"categories":[{"id":"4bf58dd8d48988d1e2931735"}],"location":{"lat":51.511319452647406,"lng":-0.1438522709444465,"postalCode":"W1S 2RL"}},{"id":"4ad75e3bf964a520db0921e3","name":"Blacks Club","stats":{"checkinsCount":269,"usersCount":145,"tipCount":4},"categories":[{"id":"4bf58dd8d48988d1f1931735"}],"location":{"lat":51.51335142265253,"lng":-0.13235360383987427,"postalCode":"W1D 4QH"}},{"id":"4cd43e34a76c594148ed6f05","name":"Mustard Bar","stats":{"checkinsCount":231,"usersCount":173,"tipCount":5},"categories":[{"id":"4bf58dd8d48988d1e1931735"}],"location":{"lat":51.51274709709666,"lng":-0.09732133458896945,"postalCode":"EC4M 8EN"}},{"id":"4cf789a7d3a8a1cd8746d743","name":"Tower Bridge, North Tower Lounge","stats":{"checkinsCount":178,"usersCount":164,"tipCount":1},"categories":[{"id":"4bf58dd8d48988d190941735"}],"location":{"lat":51.50543,"lng":-0.07567048072814941}},{"id":"4afc5834f964a520c22122e3","name":"The Future Gallery","stats":{"checkinsCount":187,"usersCount":157,"tipCount":3},"categories":[{"id":"4bf58dd8d48988d1e2931735"}],"location":{"lat":51.511841,"lng":-0.127393}},{"id":"4c03db5739d476b0769e30a7","name":"Peter Harrison Planetarium","stats":{"checkinsCount":158,"usersCount":144,"tipCount":1},"categories":[{"id":"4bf58dd8d48988d192941735"}],"location":{"lat":51.47685923845636,"lng":-0.0005364418029785156}},{"id":"4b09423df964a520011523e3","name":"Mike's Cafe","stats":{"checkinsCount":197,"usersCount":122,"tipCount":7},"categories":[{"id":"4bf58dd8d48988d1e1931735"}],"location":{"lat":51.515759458431454,"lng":-0.2056598809669454,"postalCode":"W11 1NN"}},{"id":"4c07f049ffb8c9b6ba746761","name":"Vyner Street","stats":{"checkinsCount":184,"usersCount":117,"tipCount":2},"categories":[{"id":"4bf58dd8d48988d1e2931735"}],"location":{"lat":51.5345424413681,"lng":-0.05603671073913574}},{"id":"4e0e5a9122711665f6144c93","name":"Pride London Parade","stats":{"checkinsCount":153,"usersCount":147,"tipCount":2},"categories":[{"id":"4bf58dd8d48988d1f1931735"}],"location":{"lat":51.51280224425956,"lng":-0.14059066772460938}},{"id":"4c1c7547b306c92896f963b7","name":"Barn Elmes","stats":{"checkinsCount":340,"usersCount":49,"tipCount":0},"categories":[{"id":"4bf58dd8d48988d1f4931735"}],"location":{"lat":51.47578467693925,"lng":-0.23235266071427518,"postalCode":"SW130DG"}},{"id":"4c1e1db2eac020a1982a49c2","name":"Deals Gateway","stats":{"checkinsCount":630,"usersCount":38,"tipCount":0},"categories":[{"id":"4bf58dd8d48988d1e1931735"}],"location":{"lat":51.47319591423138,"lng":-0.021224843808409923}},{"id":"4c19f69ed4d9c9289fb3f129","name":"The Grant Museum, UCL","stats":{"checkinsCount":145,"usersCount":109,"tipCount":5},"categories":[{"id":"4bf58dd8d48988d181941735"}],"location":{"lat":51.52374300435437,"lng":-0.13402076215807374,"postalCode":"WC1E 6DE"}},{"id":"4f491b3ce4b0bf728853573d","name":"Picasso @ Tate Britain","stats":{"checkinsCount":160,"usersCount":153,"tipCount":0},"categories":[{"id":"4bf58dd8d48988d18f941735"}],"location":{"lat":51.490720136009685,"lng":-0.12824460388752268}},{"id":"4e316c38c65b93ca1a444098","name":"Darwin Centre","stats":{"checkinsCount":183,"usersCount":110,"tipCount":2},"categories":[{"id":"4bf58dd8d48988d191941735"}],"location":{"lat":51.49705448339043,"lng":-0.1754550664505201,"postalCode":"SW7 5BD"}},{"id":"4b312c9bf964a520c30125e3","name":"Rileys","stats":{"checkinsCount":199,"usersCount":125,"tipCount":1},"categories":[{"id":"4bf58dd8d48988d1e3931735"}],"location":{"lat":51.492077,"lng":-0.149761,"postalCode":"SW1W 9QJ"}},{"id":"4c3f00c151dee21eef55eb6e","name":"Shoreditch Studios","stats":{"checkinsCount":180,"usersCount":143,"tipCount":1},"categories":[{"id":"4bf58dd8d48988d1e2931735"}],"location":{"lat":51.524972319602966,"lng":-0.078783,"postalCode":"EC2A 3HH"}},{"id":"4c29d970ed0ac9b6245262aa","name":"Lisson Gallery","stats":{"checkinsCount":219,"usersCount":76,"tipCount":4},"categories":[{"id":"4bf58dd8d48988d1e2931735"}],"location":{"lat":51.520994163502024,"lng":-0.16839981079101562,"postalCode":"NW1 5DA"}},{"id":"4b254576f964a520156f24e3","name":"The Cavendish Arms","stats":{"checkinsCount":195,"usersCount":123,"tipCount":4},"categories":[{"id":"4bf58dd8d48988d1e5931735"}],"location":{"lat":51.476441,"lng":-0.127575}},{"id":"4d21e4215c4ca1cd9c44ad3d","name":"Superbowl","stats":{"checkinsCount":150,"usersCount":114,"tipCount":2},"categories":[{"id":"4bf58dd8d48988d1e4931735"}],"location":{"lat":51.49388242902714,"lng":-0.09959042072296143,"postalCode":"SE1 6TE"}},{"id":"4d2df9975d4ca1cdcb47141b","name":"New Red Lion","stats":{"checkinsCount":166,"usersCount":125,"tipCount":2},"categories":[{"id":"4bf58dd8d48988d135941735"}],"location":{"lat":51.529916,"lng":-0.098123}},{"id":"4b5b01b6f964a5207bde28e3","name":"Bank of England Sports Club","stats":{"checkinsCount":213,"usersCount":88,"tipCount":0},"categories":[{"id":"4bf58dd8d48988d184941735"}],"location":{"lat":51.45961440732566,"lng":-0.25473559496150694}},{"id":"4b5ad4a8f964a52086d628e3","name":"Gambado","stats":{"checkinsCount":195,"usersCount":87,"tipCount":5},"categories":[{"id":"4bf58dd8d48988d1f1931735"}],"location":{"lat":51.474192943529474,"lng":-0.1833021640777588,"postalCode":"SW6 2PY"}},{"id":"4c555a6930f92d7f418ff8bb","name":"White Tower","stats":{"checkinsCount":156,"usersCount":143,"tipCount":2},"categories":[{"id":"4bf58dd8d48988d190941735"}],"location":{"lat":51.507998,"lng":-0.076224}},{"id":"4b83ac27f964a5206e0c31e3","name":"Magic Circle Headquarters","stats":{"checkinsCount":214,"usersCount":112,"tipCount":3},"categories":[{"id":"4bf58dd8d48988d1f1931735"}],"location":{"lat":51.526536,"lng":-0.135434,"postalCode":"NW1 2HD"}},{"id":"4e885f017ee664574cc93054","name":"Isambard Kingdom Brunel statue","stats":{"checkinsCount":305,"usersCount":62,"tipCount":0},"categories":[{"id":"4deefb944765f83613cdba6e"}],"location":{"lat":51.51681545083537,"lng":-0.17740269605439207}},{"id":"4d6d543fcb7a8cfac5c95d79","name":"Roundhouse Studio Theatre","stats":{"checkinsCount":149,"usersCount":138,"tipCount":1},"categories":[{"id":"4bf58dd8d48988d1e6931735"}],"location":{"lat":51.543327,"lng":-0.151686,"postalCode":"NW1 8EH"}},{"id":"4e60aaf7483bd9a97387fa3c","name":"Museum Of Everything #4","stats":{"checkinsCount":144,"usersCount":119,"tipCount":1},"categories":[{"id":"4bf58dd8d48988d1e2931735"}],"location":{"lat":51.514119,"lng":-0.152555,"postalCode":"W1A 1AB"}},{"id":"4d628a1c5c39b1f732db1b4a","name":"Earls Court Police Box","stats":{"checkinsCount":206,"usersCount":81,"tipCount":3},"categories":[{"id":"4bf58dd8d48988d1f1931735"}],"location":{"lat":51.492113,"lng":-0.193412}},{"id":"4d6ea5c638363704d1e4abd0","name":"Soho Hotel Screening Rooms","stats":{"checkinsCount":163,"usersCount":96,"tipCount":1},"categories":[{"id":"4bf58dd8d48988d17f941735"}],"location":{"lat":51.51423112439706,"lng":-0.13361957246758385}},{"id":"4d754b15d0c737042eaefc17","name":"TeamSport Karting","stats":{"checkinsCount":135,"usersCount":123,"tipCount":1},"categories":[{"id":"4bf58dd8d48988d1f4931735"}],"location":{"lat":51.49450364191158,"lng":-0.06463050842285156}},{"id":"4b7e9100f964a5200ff32fe3","name":"Jerwood Space","stats":{"checkinsCount":230,"usersCount":101,"tipCount":2},"categories":[{"id":"4bf58dd8d48988d1f2931735"}],"location":{"lat":51.50373,"lng":-0.09940803050994873,"postalCode":"SE1 0LN"}},