[{"id":"4c07d019c69aa593f3d19ba2","name":"Phoenix Bar","stats":{"checkinsCount":49,"usersCount":39,"tipCount":1},"categories":[{"id":"4bf58dd8d48988d11b941735"}],"location":{"lat":51.593244,"lng":-0.13154801333058624}},{"id":"4c02ab979a7920a197c6ce79","name":"Chapters","stats":{"checkinsCount":38,"usersCount":24,"tipCount":0},"categories":[{"id":"4bf58dd8d48988d157941735"}],"location":{"lat":51.46593402227213,"lng":0.005457666250896337,"postalCode":"Se3"}},{"id":"4e06057cb0fbba5eee12cc24","name":"Barnard Park Adventure Playground","stats":{"checkinsCount":74,"usersCount":14,"tipCount":1},"categories":[{"id":"4bf58dd8d48988d1e3931735"}],"location":{"lat":51.53678476810455,"lng":-0.11234164237976074,"postalCode":"N1 0WF"}},{"id":"4c0a517ca1b32d7f3d0f99f0","name":"Julian Hand Car Wash","stats":{"checkinsCount":67,"usersCount":16,"tipCount":1},"categories":[{"id":"4bf58dd8d48988d124951735"}],"location":{"lat":51.514176,"lng":-0.217009}},{"id":"4e05bc896284d9ee92ca4215","name":"Kappacasein","stats":{"checkinsCount":52,"usersCount":34,"tipCount":2},"categories":[{"id":"4bf58dd8d48988d1c5941735"}],"location":{"lat":51.496966,"lng":-0.068763}},{"id":"4d0a80edd8d78cfa242717be","name":"Slemani Restaurant","stats":{"checkinsCount":47,"usersCount":41,"tipCount":1},"categories":[{"id":"4bf58dd8d48988d115941735"}],"location":{"lat":51.51667248497908,"lng":-0.164678}},{"id":"4c01c3ae1747a5932f175eca","name":"No5 Cavendish Square Club","stats":{"checkinsCount":43,"usersCount":31,"tipCount":0},"categories":[{"id":"4bf58dd8d48988d11f941735"}],"location":{"lat":51.5155453974897,"lng":-0.14257980496741818}},{"id":"4f046ac929c2b9a3edffef0d","name":"Ground Control","stats":{"checkinsCount":55,"usersCount":21,"tipCount":3},"categories":[{"id":"4bf58dd8d48988d16d941735"}],"location":{"lat":51.529867,"lng":-0.110399,"postalCode":"EC1R 1UR"}},{"id":"4d0bcd69f2c1236a54a60357","name":"Tesco Extra Petrol Station","stats":{"checkinsCount":55,"usersCount":30,"tipCount":0},"categories":[{"id":"4bf58dd8d48988d113951735"}],"location":{"lat":51.554420872219076,"lng":-0.2584254741668701,"postalCode":"NW10 0TL"}},{"id":"4d0cb1b3257d6dcb7e219767","name":"Mischief Manor North","stats":{"checkinsCount":116,"usersCount":14,"tipCount":0},"categories":[{"id":"4bf58dd8d48988d11e941735"}],"location":{"lat":51.487831,"lng":-0.145767}},{"id":"4c0b6746ffb8c9b6773e6d61","name":"BMF","stats":{"checkinsCount":110,"usersCount":18,"tipCount":1},"categories":[{"id":"4bf58dd8d48988d175941735"}],"location":{"lat":51.4578843907271,"lng":-0.14363765716552734}},{"id":"4d04f0fd7d9ba35db8a36823","name":"Nyborgs","stats":{"checkinsCount":55,"usersCount":29,"tipCount":4},"categories":[{"id":"4bf58dd8d48988d16d941735"}],"location":{"lat":51.589951,"lng":-0.14606,"postalCode":"N10"}},{"id":"4c015167b0702d7f60056378","name":"Paradise Fish Bar","stats":{"checkinsCount":50,"usersCount":28,"tipCount":0},"categories":[{"id":"4bf58dd8d48988d1ce941735"}],"location":{"lat":51.55088036210662,"lng":-0.08624589290670563,"postalCode":"N1 4RA"}},{"id":"4d02110418ff8cfab971c257","name":"Moreti Coffee Shop","stats":{"checkinsCount":51,"usersCount":23,"tipCount":1},"categories":[{"id":"4bf58dd8d48988d16d941735"}],"location":{"lat":51.530808071692014,"lng":-0.07647762092391346}},{"id":"4b0117baf964a520b54122e3","name":"Plum Duff Patisserie","stats":{"checkinsCount":76,"usersCount":23,"tipCount":2},"categories":[{"id":"4bf58dd8d48988d16a941735"}],"location":{"lat":51.501191,"lng":-0.256819,"postalCode":"W4"}},{"id":"4c04126f0d0e0f474474039a","name":"Pizaza","stats":{"checkinsCount":61,"usersCount":31,"tipCount":5},"categories":[{"id":"4bf58dd8d48988d1ca941735"}],"location":{"lat":51.58577,"lng":-0.219914}},{"id":"4f01f98ee5faf2869dbda72c","name":"Brockley's Rock","stats":{"checkinsCount":41,"usersCount":24,"tipCount":0},"categories":[{"id":"4edd64a0c7ddd24ca188df1a"}],"location":{"lat":51.45940483614309,"lng":-0.03387785519272814,"postalCode":"SE4"}},{"id":"4c0fb2912466a59326057b21","name":"Argos","stats":{"checkinsCount":43,"usersCount":26,"tipCount":1},"categories":[{"id":"4bf58dd8d48988d1f6941735"}],"location":{"lat":51.58413659834415,"lng":-0.02330303192138672,"postalCode":"E17 7BH"}},{"id":"4e00d91f483bd352f71f934b","name":"Regents Park Bandstand","stats":{"checkinsCount":41,"usersCount":35,"tipCount":1},"categories":[{"id":"4bf58dd8d48988d1f1931735"}],"location":{"lat":51.52663227,"lng":-0.157311,"postalCode":"NW1 4"}},{"id":"4e0220fcfa764068a36eb3bb","name":"Sir Cowasjee Jenhagir Fountain - Regents Park","stats":{"checkinsCount":53,"usersCount":24,"tipCount":0},"categories":[{"id":"4deefb944765f83613cdba6e"}],"location":{"lat":51.532819,"lng":-0.15048567205667496}},{"id":"4e09e98fc65b5bf277a0382a","name":"7th Floor Restaurant, Waterside House","stats":{"checkinsCount":91,"usersCount":13,"tipCount":0},"categories":[{"id":"4bf58dd8d48988d1c4941735"}],"location":{"lat":51.51933764994813,"lng":-0.17453896214466974,"postalCode":"W2 1NW"}},{"id":"4c0f855e1281c9b680a21e1d","name":"La Vigna","stats":{"checkinsCount":42,"usersCount":37,"tipCount":4},"categories":[{"id":"4bf58dd8d48988d110941735"}],"location":{"lat":51.519339,"lng":-0.142508}},{"id":"4e0879f6d1640223a4a2cdf7","name":"Candybar Soho","stats":{"checkinsCount":44,"usersCount":32,"tipCount":0},"categories":[{"id":"4bf58dd8d48988d117951735"}],"location":{"lat":51.51499610764011,"lng":-0.13350262187375828,"postalCode":"United Kingd"}},{"id":"4b02e17ef964a520a24a22e3","name":"The Soho Salon","stats":{"checkinsCount":49,"usersCount":26,"tipCount":1},"categories":[{"id":"4bf58dd8d48988d110951735"}],"location":{"lat":51.514955172166204,"lng":-0.1333875570180752,"postalCode":"London,"}},{"id":"4e0f4c99aeb7a5b33ef27591","name":"CCK Buffet","stats":{"checkinsCount":37,"usersCount":25,"tipCount":1},"categories":[{"id":"4bf58dd8d48988d142941735"}],"location":{"lat":51.51083481277331,"lng":-0.132064679056082,"postalCode":"W1D 6DF"}},{"id":"4c080c50bbc676b045ed45d5","name":"Electric Hotel","stats":{"checkinsCount":38,"usersCount":33,"tipCount":2},"categories":[{"id":"4bf58dd8d48988d137941735"}],"location":{"lat":51.534441,"lng":-0.125178}},{"id":"4c002c2df61ea5932373eb13","name":"Rasa Maricham","stats":{"checkinsCount":35,"usersCount":26,"tipCount":0},"categories":[{"id":"4bf58dd8d48988d10f941735"}],"location":{"lat":51.52626482888383,"lng":-0.11314074920828346,"postalCode":"WC1X 9HX"}},{"id":"4e00fc8dd1647696f12207fd","name":"Brasserie on St John Street","stats":{"checkinsCount":46,"usersCount":38,"tipCount":4},"categories":[{"id":"4bf58dd8d48988d1c4941735"}],"location":{"lat":51.529852,"lng":-0.104866,"postalCode":"EC1V 4NR"}},{"id":"4c0a27367e3fc9281921f382","name":"Macs","stats":{"checkinsCount":59,"usersCount":31,"tipCount":3},"categories":[{"id":"4bf58dd8d48988d110951735"}],"location":{"lat":51.536743,"lng":-0.192421}},{"id":"4c0a8d5cffb8c9b613be6b61","name":"Newtons Restaurant and Bar","stats":{"checkinsCount":37,"usersCount":25,"tipCount":2},"categories":[{"id":"4bf58dd8d48988d10c941735"}],"location":{"lat":51.454076,"lng":-0.140104}},{"id":"4c0a74b5ffb8c9b6c2896b61","name":"Tesco Express","stats":{"checkinsCount":62,"usersCount":24,"tipCount":4},"categories":[{"id":"4bf58dd8d48988d118951735"}],"location":{"lat":51.468783,"lng":-0.11261,"postalCode":"SW9 7AA"}},{"id":"4c0105cfde3376b07823f9a4","name":"Ginas Bakery","stats":{"checkinsCount":64,"usersCount":20,"tipCount":1},"categories":[{"id":"4bf58dd8d48988d143941735"}],"location":{"lat":51.616205886370906,"lng":-0.1351060913521518}},{"id":"4c06b8ffb4aa0f47648e6462","name":"yogahome","stats":{"checkinsCount":84,"usersCount":13,"tipCount":0},"categories":[{"id":"4bf58dd8d48988d102941735"}],"location":{"lat":51.554464610212364,"lng":-0.07944732299589541,"postalCode":"N16 8SB"}},{"id":"4c0a6f6c35ac9c74919d85f7","name":"www.single-speed.co.uk","stats":{"checkinsCount":113,"usersCount":16,"tipCount":0},"categories":[{"id":"4bf58dd8d48988d115951735"}],"location":{"lat":51.55241956440354,"lng":-0.07106781005859375,"postalCode":"E8 2EB"}},{"id":"4c0c507b009a0f474987ecbf","name":"Lumiere","stats":{"checkinsCount":54,"usersCount":29,"tipCount":1},"categories":[{"id":"4bf58dd8d48988d1dc931735"}],"location":{"lat":51.5543185396543,"lng":-0.04522099781449298,"postalCode":"E5"}},{"id":"4d0dfad8eea9b60c3e6c613f","name":"Dino Deli","stats":{"checkinsCount":39,"usersCount":30,"tipCount":1},"categories":[{"id":"4bf58dd8d48988d146941735"}],"location":{"lat":51.536056,"lng":-0.062038,"postalCode":"E8 4PH"}},{"id":"4c0e84af336220a12f58cc77","name":"Ocean Blue","stats":{"checkinsCount":65,"usersCount":28,"tipCount":0},"categories":[{"id":"4bf58dd8d48988d16e941735"}],"location":{"lat":51.51168465614319,"lng":-0.05584895610809326}},{"id":"4d00f34a1ebe6dcb255f8a91","name":"Wheelers Garden Centre","stats":{"checkinsCount":62,"usersCount":28,"tipCount":0},"categories":[{"id":"4bf58dd8d48988d11b951735"}],"location":{"lat":51.49530012171444,"lng":-0.25459371719380075}},{"id":"4d0d03d97d28721edd6af620","name":"Sainsbury's Local","stats":{"checkinsCount":77,"usersCount":25,"tipCount":1},"categories":[{"id":"4bf58dd8d48988d118951735"}],"location":{"lat":51.501562,"lng":-0.240933,"postalCode":"W12 9AX"}},{"id":"4c03864839d476b04f3630a7","name":"Beehive","stats":{"checkinsCount":64,"usersCount":20,"tipCount":3},"categories":[{"id":"4bf58dd8d48988d16d941735"}],"location":{"lat":51.491609,"lng":-0.255803}},{"id":"4c0abb79bbc676b08d654ad5","name":"Buddha Kitchen","stats":{"checkinsCount":38,"usersCount":32,"tipCount":1},"categories":[{"id":"4bf58dd8d48988d145941735"}],"location":{"lat":51.492546162016744,"lng":-0.230824,"postalCode":"W6 9JG"}},{"id":"4b0d7f99f964a520a54923e3","name":"Mango and Silk","stats":{"checkinsCount":53,"usersCount":23,"tipCount":1},"categories":[{"id":"4bf58dd8d48988d10f941735"}],"location":{"lat":51.465156,"lng":-0.26111,"postalCode":"SW14 8QT"}},{"id":"4c02b7d8f56c2d7faad61b66","name":"Mudmee","stats":{"checkinsCount":59,"usersCount":28,"tipCount":1},"categories":[{"id":"4bf58dd8d48988d149941735"}],"location":{"lat":51.47928,"lng":-0.211839}},{"id":"4c0949876071a593a2a6dd32","name":"El Bazaar","stats":{"checkinsCount":37,"usersCount":25,"tipCount":0},"categories":[{"id":"4bf58dd8d48988d119941735"}],"location":{"lat":51.60263909046416,"lng":-0.19234657287597656}},{"id":"4c07ff16340720a1516f8293","name":"St. James Supermarket","stats":{"checkinsCount":97,"usersCount":14,"tipCount":2},"categories":[{"id":"4bf58dd8d48988d118951735"}],"location":{"lat":51.491193572619636,"lng":-0.06613200970745521}},{"id":"4b0d5997f964a520c34623e3","name":"Aladdin's Cave","stats":{"checkinsCount":46,"usersCount":32,"tipCount":0},"categories":[{"id":"4bf58dd8d48988d101951735"}],"location":{"lat":51.4663073,"lng":-0.018529,"postalCode":"SE13 7SX"}},{"id":"4d09eaf1c370a35d0dcf0d22","name":"Supreme Pet Foods","stats":{"checkinsCount":67,"usersCount":15,"tipCount":0},"categories":[{"id":"4bf58dd8d48988d100951735"}],"location":{"lat":51.45720899105072,"lng":-0.014987694793548141,"postalCode":"SE13 6JZ"}},{"id":"4c065c6b761ac9b66ecb2074","name":"Iceland","stats":{"checkinsCount":110,"usersCount":15,"tipCount":0},"categories":[{"id":"4bf58dd8d48988d118951735"}],"location":{"lat":51.594483,"lng":-0.069249}},{"id":"4e0a44f052b14bd098cf02c8","name":"Chicken Cottage","stats":{"checkinsCount":88,"usersCount":15,"tipCount":1},"categories":[{"id":"4d4ae6fc7a7b7dea34424761"}],"location":{"lat":51.58204659613645,"lng":-0.07495701313018799,"postalCode":"N15 4LA"}},{"id":"4c0ba828bbc676b013ce4bd5","name":"Halfords","stats":{"checkinsCount":48,"usersCount":31,"tipCount":1},"categories":[{"id":"4bf58dd8d48988d115951735"}],"location":{"lat":51.586791,"lng":-0.062467,"postalCode":"N15 4QD"}},{"id":"4c07cac3c69aa59379c89ba2","name":"Daisy's","stats":{"checkinsCount":82,"usersCount":22,"tipCount":3},"categories":[{"id":"4bf58dd8d48988d16d941735"}],"location":{"lat":51.58642,"lng":-0.020058,"postalCode":"E17 4QH"}},{"id":"4b006949f964a520e83d22e3","name":"Dhaka Tandoori","stats":{"checkinsCount":49,"usersCount":24,"tipCount":0},"categories":[{"id":"4bf58dd8d48988d10f941735"}],"location":{"lat":51.58650981762426,"lng":-0.019741058349609375,"postalCode":"E17 4SA"}},{"id":"4d07f8d543b36ea8b38b2aef","name":"Central Food and Wine","stats":{"checkinsCount":119,"usersCount":10,"tipCount":2},"categories":[{"id":"4bf58dd8d48988d186941735"}],"location":{"lat":51.58082920169731,"lng":-0.0183375527576453}},{"id":"4d03c6838620224bf103a540","name":"La Pasta","stats":{"checkinsCount":45,"usersCount":33,"tipCount":2},"categories":[{"id":"4bf58dd8d48988d110941735"}],"location":{"lat":51.546505551497745,"lng":-0.10380960822231282,"postalCode":"N5 1RA"}},{"id":"4c07b3c68a81c9b658972790","name":"Alfies Rooftop Cafe & Restaurant","stats":{"checkinsCount":39,"usersCount":32,"tipCount":3},"categories":[{"id":"4bf58dd8d48988d16d941735"}],"location":{"lat":51.52417302131653,"lng":-0.168585,"postalCode":"NW8 8DT"}},{"id":"4f0cc594e4b0c67b45425795","name":"Oasis Cafe","stats":{"checkinsCount":82,"usersCount":23,"tipCount":1},"categories":[{"id":"4bf58dd8d48988d119941735"}],"location":{"lat":51.51911388385703,"lng":-0.16884555484846916}},{"id":"4c077db9cf8c76b0e80d3c65","name":"Bagel Factory","stats":{"checkinsCount":39,"usersCount":27,"tipCount":0},"categories":[{"id":"4bf58dd8d48988d179941735"}],"location":{"lat":51.520534552418724,"lng":-0.15574871108824936}},{"id":"4c0770f6cf8c76b000023c65","name":"Crussh Marble Arch","stats":{"checkinsCount":60,"usersCount":26,"tipCount":1},"categories":[{"id":"4bf58dd8d48988d112941735"}],"location":{"lat":51.51413762092547,"lng":-0.16044974327087402,"postalCode":"W1H 7EF"}},{"id":"4b0e9d1df964a520f25823e3","name":"Eleven Hair","stats":{"checkinsCount":45,"usersCount":24,"tipCount":6},"categories":[{"id":"4bf58dd8d48988d110951735"}],"location":{"lat":51.514196,"lng":-0.14655590057372622,"postalCode":"W1"}},{"id":"4c069c1cb4aa0f472e606462","name":"Fat Face","stats":{"checkinsCount":44,"usersCount":27,"tipCount":1},"categories":[{"id":"4bf58dd8d48988d103951735"}],"location":{"lat":51.530775,"lng":-0.126043}},{"id":"4c00cdfc34ccc928d42ce2cd","name":"Costa's Cafe","stats":{"checkinsCount":49,"usersCount":39,"tipCount":1},"categories":[{"id":"4bf58dd8d48988d16d941735"}],"location":{"lat":51.53004981,"lng":-0.116465,"postalCode":"Wc1x 9ds"}},{"id":"4c0e63b1336220a1a017cc77","name":"Jack's Newsagents","stats":{"checkinsCount":101,"usersCount":11,"tipCount":0},"categories":[{"id":"4bf58dd8d48988d117951735"}],"location":{"lat":51.522567,"lng":-0.10374,"postalCode":"EC1"}},{"id":"4f02d15330f89923350ec24b","name":"Friendlondon","stats":{"checkinsCount":112,"usersCount":9,"tipCount":1},"categories":[{"id":"4bf58dd8d48988d183941735"}],"location":{"lat":51.52344441724175,"lng":-0.09851531611753606,"postalCode":"Ec1m 5pa"}},{"id":"4b0839a9f964a520b60623e3","name":"Giotto Ristorante Italiano","stats":{"checkinsCount":32,"usersCount":31,"tipCount":2},"categories":[{"id":"4bf58dd8d48988d110941735"}],"location":{"lat":51.516907,"lng":-0.126613}},{"id":"4e0e3b0ea8099e152606fbec","name":"Icon Bar","stats":{"checkinsCount":33,"usersCount":31,"tipCount":1},"categories":[{"id":"4bf58dd8d48988d116941735"}],"location":{"lat":51.510662552533795,"lng":-0.13006458531437995}},{"id":"4c08fb65ffb8c9b6ef0b6961","name":"Robert Dyas","stats":{"checkinsCount":56,"usersCount":32,"tipCount":0},"categories":[{"id":"4bf58dd8d48988d112951735"}],"location":{"lat":51.51056885719299,"lng":-0.12697,"postalCode":"WC2N 4AS"}},{"id":"4e0cbdb68877c535e470ee21","name":"Grey Bar @ Grey London","stats":{"checkinsCount":52,"usersCount":20,"tipCount":0},"categories":[{"id":"4bf58dd8d48988d116941735"}],"location":{"lat":51.52024775652783,"lng":-0.10834433782274974}},{"id":"4c0e0f6098102d7fe607e306","name":"O2","stats":{"checkinsCount":36,"usersCount":31,"tipCount":0},"categories":[{"id":"4f04afc02fb6e1c99f3db0bc"}],"location":{"lat":51.513873887136164,"lng":-0.09337842464447021,"postalCode":"EC2V 6AU"}},{"id":"4c0e0f91b1b676b0de71e186","name":"Cutting Crew","stats":{"checkinsCount":48,"usersCount":28,"tipCount":1},"categories":[{"id":"4bf58dd8d48988d10c951735"}],"location":{"lat":51.548789,"lng":-0.221752}},{"id":"4c0ff2c96b7e2d7f65d82635","name":"La Gaffe","stats":{"checkinsCount":40,"usersCount":29,"tipCount":4},"categories":[{"id":"4bf58dd8d48988d10c941735"}],"location":{"lat":51.559296,"lng":-0.178517,"postalCode":"NW3 6SS"}},{"id":"4f07701be4b05f830c767fb8","name":"Me Love Sushi","stats":{"checkinsCount":33,"usersCount":30,"tipCount":0},"categories":[{"id":"4bf58dd8d48988d1d2941735"}],"location":{"lat":51.55132029887449,"lng":-0.19181868340098734,"postalCode":"NW6 1RD"}},{"id":"4c0556f239d476b068bc32a7","name":"Pentameters","stats":{"checkinsCount":61,"usersCount":20,"tipCount":0},"categories":[{"id":"4bf58dd8d48988d137941735"}],"location":{"lat":51.556104,"lng":-0.178445,"postalCode":"NW3 6TE"}},{"id":"4c0107f89a950f47e66c08c6","name":"happycoat","stats":{"checkinsCount":140,"usersCount":9,"tipCount":0},"categories":[{"id":"4bf58dd8d48988d108951735"}],"location":{"lat":51.513074,"lng":-0.203914,"postalCode":"W11 2PW"}},{"id":"4c03b436f56c2d7f24301d66","name":"Maplin Electronics","stats":{"checkinsCount":44,"usersCount":33,"tipCount":2},"categories":[{"id":"4bf58dd8d48988d122951735"}],"location":{"lat":51.515607,"lng":-0.18889820000000002,"postalCode":"W2 6LY"}},{"id":"4e0f13cd091acd6746d9a398","name":"Nordic Balance @ the In and Out","stats":{"checkinsCount":49,"usersCount":23,"tipCount":0},"categories":[{"id":"4bf58dd8d48988d1ed941735"}],"location":{"lat":51.50796117568576,"lng":-0.1347649097442627,"postalCode":"SW1Y 4JU"}},{"id":"4c0e3d03adcd9c74f8aa02f6","name":"Vodafone","stats":{"checkinsCount":62,"usersCount":30,"tipCount":2},"categories":[{"id":"4bf58dd8d48988d122951735"}],"location":{"lat":51.49038155,"lng":-0.161627,"postalCode":"SW3 4TZ"}},{"id":"4c0b8f01a1b32d7f2d299bf0","name":"Office Shoes","stats":{"checkinsCount":42,"usersCount":42,"tipCount":0},"categories":[{"id":"4bf58dd8d48988d107951735"}],"location":{"lat":51.491405,"lng":-0.160139}},{"id":"4c0be8a5db369c743ddf91ea","name":"Artisan du Chocolat","stats":{"checkinsCount":36,"usersCount":27,"tipCount":4},"categories":[{"id":"4bf58dd8d48988d117951735"}],"location":{"lat":51.48987867210706,"lng":-0.15620112419128418,"postalCode":"SW1W 8DA"}},{"id":"4e0f2eee62e1d5a30d085c34","name":"Equus Bar","stats":{"checkinsCount":68,"usersCount":17,"tipCount":2},"categories":[{"id":"4bf58dd8d48988d11e941735"}],"location":{"lat":51.50581310027107,"lng":-0.12440533843409568}},{"id":"4d08f02305216dcbdbe81db6","name":"South Bank Centre Shop","stats":{"checkinsCount":48,"usersCount":40,"tipCount":0},"categories":[{"id":"4bf58dd8d48988d1f4941735"}],"location":{"lat":51.505471,"lng":-0.117111}},{"id":"4c0f805dc6cf76b0ad548251","name":"Monsoon","stats":{"checkinsCount":51,"usersCount":29,"tipCount":3},"categories":[{"id":"4bf58dd8d48988d108951735"}],"location":{"lat":51.503053792251485,"lng":-0.11237451792446722,"postalCode":"SE1 8SW"}},{"id":"4c0cd7a1c700c9b6446aa1dd","name":"Rosie Grocery and Newsagents","stats":{"checkinsCount":76,"usersCount":16,"tipCount":0},"categories":[{"id":"4bf58dd8d48988d1ff941735"}],"location":{"lat":51.50536347993968,"lng":-0.09727835655212402}},{"id":"4c0ffe2fb93cc9b6630956e0","name":"Waterloo Film Studios","stats":{"checkinsCount":38,"usersCount":34,"tipCount":0},"categories":[{"id":"4bf58dd8d48988d17f941735"}],"location":{"lat":51.500934143406866,"lng":-0.10583731177785964}},{"id":"4d090e4343b36ea81a2b30ef","name":"Anesis","stats":{"checkinsCount":55,"usersCount":25,"tipCount":1},"categories":[{"id":"4bf58dd8d48988d10c951735"}],"location":{"lat":51.46169495,"lng":-0.139327}},{"id":"4c0f967dc6cf76b02e7e8251","name":"Sports Direct","stats":{"checkinsCount":38,"usersCount":24,"tipCount":0},"categories":[{"id":"4bf58dd8d48988d1f2941735"}],"location":{"lat":51.59358209714577,"lng":-0.10734689708043735,"postalCode":"N22 6YA"}},{"id":"4e0df326d4c0f6d6b3f4d5ed","name":"Broadway Fruiterers","stats":{"checkinsCount":128,"usersCount":13,"tipCount":1},"categories":[{"id":"4bf58dd8d48988d1fa941735"}],"location":{"lat":51.57885140695661,"lng":-0.12402266263961792,"postalCode":"N8"}},{"id":"4c08ec936071a593b4f1dc32","name":"The Castle Sandwich Bar","stats":{"checkinsCount":69,"usersCount":15,"tipCount":2},"categories":[{"id":"4bf58dd8d48988d16d941735"}],"location":{"lat":51.524044,"lng":-0.084343,"postalCode":"EC2A 4LN"}},{"id":"4d034b3b0e49721e7f166a7f","name":"Foster London Hair & Beauty","stats":{"checkinsCount":70,"usersCount":21,"tipCount":2},"categories":[{"id":"4bf58dd8d48988d110951735"}],"location":{"lat":51.523995,"lng":-0.074335,"postalCode":"E16HZ"}},{"id":"4c0e379598102d7fe33be306","name":"Toms newsagents","stats":{"checkinsCount":91,"usersCount":15,"tipCount":4},"categories":[{"id":"4bf58dd8d48988d118951735"}],"location":{"lat":51.522335975598324,"lng":-0.08694648742675781}},{"id":"4d027b94f832a35d6072f637","name":"Oliver Conquest","stats":{"checkinsCount":51,"usersCount":33,"tipCount":2},"categories":[{"id":"4bf58dd8d48988d11b941735"}],"location":{"lat":51.51314149401675,"lng":-0.07010929028353506,"postalCode":"E1 8EU"}},{"id":"4c083961d1329c74d9e1fc07","name":"Elias","stats":{"checkinsCount":60,"usersCount":30,"tipCount":3},"categories":[{"id":"4bf58dd8d48988d115941735"}],"location":{"lat":51.49361677,"lng":-0.255386,"postalCode":"W4 1RG"}},{"id":"4c040248f56c2d7fd6a61d66","name":"Haweli","stats":{"checkinsCount":46,"usersCount":21,"tipCount":2},"categories":[{"id":"4bf58dd8d48988d10f941735"}],"location":{"lat":51.493479,"lng":-0.242576,"postalCode":"W6 9NH"}},{"id":"4c0e36af2466a593f6a07821","name":"Top Shop","stats":{"checkinsCount":50,"usersCount":38,"tipCount":0},"categories":[{"id":"4bf58dd8d48988d108951735"}],"location":{"lat":51.505443,"lng":-0.218199}},{"id":"4c0e3569336220a126c6cb77","name":"Kurt Geiger","stats":{"checkinsCount":52,"usersCount":37,"tipCount":0},"categories":[{"id":"4bf58dd8d48988d107951735"}],"location":{"lat":51.505947,"lng":-0.218244}},{"id":"4d037eaf8620224bf033a340","name":"CeX","stats":{"checkinsCount":53,"usersCount":24,"tipCount":0},"categories":[{"id":"4bf58dd8d48988d122951735"}],"location":{"lat":51.50408398628485,"lng":-0.21959360975624911,"postalCode":"W12 8PP"}},{"id":"4c0ff930f1b6a59311267b27","name":"KFC","stats":{"checkinsCount":44,"usersCount":28,"tipCount":1},"categories":[{"id":"4d4ae6fc7a7b7dea34424761"}],"location":{"lat":51.482365078577175,"lng":-0.2000284194946289}},{"id":"4c0fd1713ce120a19712071c","name":"Rush Earl's Court","stats":{"checkinsCount":38,"usersCount":25,"tipCount":1},"categories":[{"id":"4bf58dd8d48988d110951735"}],"location":{"lat":51.492665,"lng":-0.193682,"postalCode":"SW5 9QF"}},{"id":"4c0a99f8340720a1e3b68693","name":"Bistro K","stats":{"checkinsCount":44,"usersCount":32,"tipCount":0},"categories":[{"id":"4bf58dd8d48988d10c941735"}],"location":{"lat":51.49113028732591,"lng":-0.18034100532531738,"postalCode":"SW7 3RN"}},{"id":"4e0ae319b3ad75925d66ae32","name":"Under The Bridge","stats":{"checkinsCount":47,"usersCount":33,"tipCount":2},"categories":[{"id":"4bf58dd8d48988d1e5931735"}],"location":{"lat":51.480206921910444,"lng":-0.190887451171875,"postalCode":"SW6 1HS"}},{"id":"4b0084aef964a5201e3f22e3","name":"St Johns House","stats":{"checkinsCount":40,"usersCount":28,"tipCount":0},"categories":[{"id":"4bf58dd8d48988d1e9931735"}],"location":{"lat":51.460273,"lng":-0.177292,"postalCode":"SW11 1TQ"}},{"id":"4c0a16adffb8c9b619056b61","name":"Paul","stats":{"checkinsCount":47,"usersCount":26,"tipCount":0},"categories":[{"id":"4bf58dd8d48988d16a941735"}],"location":{"lat":51.50606,"lng":-0.086057,"postalCode":"SE1 9SP"}},{"id":"4d0a639782aaa093a48dd5c2","name":"Delfinas","stats":{"checkinsCount":38,"usersCount":34,"tipCount":0},"categories":[{"id":"4bf58dd8d48988d116941735"}],"location":{"lat":51.501978,"lng":-0.082633}},{"id":"4f01b70e775bec6b452f1a4a","name":"Coffee In Camden","stats":{"checkinsCount":59,"usersCount":30,"tipCount":1},"categories":[{"id":"4bf58dd8d48988d1e0931735"}],"location":{"lat":51.537941225745136,"lng":-0.1417423362320814,"postalCode":"Nw1"}},{"id":"4c0256ea0d0e0f4767f6009a","name":"Gill Wing Gifts","stats":{"checkinsCount":41,"usersCount":30,"tipCount":1},"categories":[{"id":"4bf58dd8d48988d128951735"}],"location":{"lat":51.542428689915106,"lng":-0.1029550990515274}},{"id":"4c08c5076071a59369c1dc32","name":"Etsu","stats":{"checkinsCount":38,"usersCount":24,"tipCount":2},"categories":[{"id":"4bf58dd8d48988d16d941735"}],"location":{"lat":51.522643,"lng":-0.163183}},{"id":"4c0a5d327e3fc9285e69f382","name":"Cath Kidston","stats":{"checkinsCount":41,"usersCount":38,"tipCount":3},"categories":[{"id":"4bf58dd8d48988d1f8941735"}],"location":{"lat":51.521456,"lng":-0.15179}},{"id":"4b0a6463f964a520b72323e3","name":"Lucky Voice HQ","stats":{"checkinsCount":86,"usersCount":20,"tipCount":0},"categories":[{"id":"4bf58dd8d48988d120941735"}],"location":{"lat":51.51648,"lng":-0.138373,"postalCode":"W1W 8DH"}},{"id":"4c0a3592bbc676b0646c49d5","name":"Jeff De Bruges","stats":{"checkinsCount":38,"usersCount":29,"tipCount":2},"categories":[{"id":"4bf58dd8d48988d117951735"}],"location":{"lat":51.51369094848633,"lng":-0.147619,"postalCode":"W1K 5QW"}},{"id":"4c092301009a0f47a32ee7bf","name":"Cest Ici","stats":{"checkinsCount":31,"usersCount":30,"tipCount":1},"categories":[{"id":"4bf58dd8d48988d1c4941735"}],"location":{"lat":51.512537,"lng":-0.13872854,"postalCode":"Kingly St 6"}},{"id":"4c0ba35f340720a1655c8893","name":"Taste of Spain","stats":{"checkinsCount":35,"usersCount":35,"tipCount":1},"categories":[{"id":"4bf58dd8d48988d1f1931735"}],"location":{"lat":51.512031,"lng":-0.139528}},{"id":"4c03f4e4f56c2d7f33901d66","name":"Russell & Bromley","stats":{"checkinsCount":34,"usersCount":32,"tipCount":0},"categories":[{"id":"4bf58dd8d48988d107951735"}],"location":{"lat":51.51107770670428,"lng":-0.13919942364199872}},{"id":"4c0a496f6071a593593edf32","name":"West End Metro","stats":{"checkinsCount":66,"usersCount":15,"tipCount":0},"categories":[{"id":"4bf58dd8d48988d117951735"}],"location":{"lat":51.511189,"lng":-0.134253}},{"id":"4c0a1b776071a593130adf32","name":"Costwold Outdoor","stats":{"checkinsCount":44,"usersCount":36,"tipCount":2},"categories":[{"id":"4bf58dd8d48988d1f2941735"}],"location":{"lat":51.50920487861058,"lng":-0.1366075873374939,"postalCode":"W1J 0DJ"}},{"id":"4d0cbc3b7d28721e3977f420","name":"Robert Dyas","stats":{"checkinsCount":47,"usersCount":32,"tipCount":1},"categories":[{"id":"4bf58dd8d48988d112951735"}],"location":{"lat":51.52455221546295,"lng":-0.1234889030456543,"postalCode":"WC1N 1BS"}},{"id":"4b0c3550f964a520ed3823e3","name":"Emni","stats":{"checkinsCount":37,"usersCount":33,"tipCount":2},"categories":[{"id":"4bf58dd8d48988d10f941735"}],"location":{"lat":51.53477882999999,"lng":-0.104591,"postalCode":"n1 0pd"}},{"id":"4b0fcbc4f964a520fe6423e3","name":"54","stats":{"checkinsCount":46,"usersCount":35,"tipCount":4},"categories":[{"id":"4bf58dd8d48988d156941735"}],"location":{"lat":51.523197,"lng":-0.10798187499999999,"postalCode":"Ec1"}},{"id":"4d0a67159de0b1f7aed98253","name":"Cosmoba","stats":{"checkinsCount":33,"usersCount":30,"tipCount":1},"categories":[{"id":"4bf58dd8d48988d110941735"}],"location":{"lat":51.5211,"lng":-0.122551}},{"id":"4d0f96be7177b1f7c9494c22","name":"Samsung","stats":{"checkinsCount":37,"usersCount":29,"tipCount":0},"categories":[{"id":"4bf58dd8d48988d122951735"}],"location":{"lat":51.51765754626361,"lng":-0.13147767290322412,"postalCode":"W1T 1BW"}},{"id":"4b041b37f964a520665122e3","name":"Pinapple Studios","stats":{"checkinsCount":32,"usersCount":29,"tipCount":1},"categories":[{"id":"4bf58dd8d48988d134941735"}],"location":{"lat":51.513247,"lng":-0.12545,"postalCode":"WC2H 9JA"}},{"id":"4e0ce1927d8bfe35bbc61945","name":"Royal Opera House - Linbury Theatre","stats":{"checkinsCount":41,"usersCount":27,"tipCount":1},"categories":[{"id":"4bf58dd8d48988d134941735"}],"location":{"lat":51.51235886099474,"lng":-0.12269901943831604}},{"id":"4c0d09b4336220a15911ca77","name":"The Old Curiosity Shop","stats":{"checkinsCount":44,"usersCount":36,"tipCount":1},"categories":[{"id":"4bf58dd8d48988d107951735"}],"location":{"lat":51.514928,"lng":-0.117277}},{"id":"4f0d7ee9e4b040d481d2b34a","name":"Soya","stats":{"checkinsCount":47,"usersCount":22,"tipCount":0},"categories":[{"id":"4bf58dd8d48988d1d2941735"}],"location":{"lat":51.519338022963275,"lng":-0.10929940157921862,"postalCode":"EC1N 7SU"}},{"id":"4b0bd8bbf964a5201a3423e3","name":"EAT.","stats":{"checkinsCount":50,"usersCount":28,"tipCount":2},"categories":[{"id":"4bf58dd8d48988d1c5941735"}],"location":{"lat":51.51718880968854,"lng":-0.09502530097961426,"postalCode":"EC2V 7AJ"}},{"id":"4f0edcbee4b09cff01333b3a","name":"Caffè Nero","stats":{"checkinsCount":40,"usersCount":26,"tipCount":1},"categories":[{"id":"4bf58dd8d48988d1e0931735"}],"location":{"lat":51.51326509916253,"lng":-0.10412727426709992,"postalCode":"EC4V 6JA"}},{"id":"4d0cf8ed1f6bf04d55ae7a31","name":"Hotel Chocolat","stats":{"checkinsCount":34,"usersCount":27,"tipCount":0},"categories":[{"id":"4bf58dd8d48988d117951735"}],"location":{"lat":51.514414,"lng":-0.094917}},{"id":"4c0a2992ffb8c9b642186b61","name":"Souper Douper","stats":{"checkinsCount":56,"usersCount":17,"tipCount":1},"categories":[{"id":"4bf58dd8d48988d1dd931735"}],"location":{"lat":51.516504530808014,"lng":-0.17669729510725923}},{"id":"4c09829dffb8c9b6fb0e6a61","name":"Beity","stats":{"checkinsCount":43,"usersCount":34,"tipCount":1},"categories":[{"id":"4bf58dd8d48988d1c4941735"}],"location":{"lat":51.513055,"lng":-0.187573}},{"id":"4d02335b18ff8cfaae50c357","name":"El Rancho De Lalo","stats":{"checkinsCount":48,"usersCount":29,"tipCount":3},"categories":[{"id":"4bf58dd8d48988d1be941735"}],"location":{"lat":51.46221,"lng":-0.1117234,"postalCode":"SW9 8ps"}},{"id":"4c094255009a0f47b472e7bf","name":"Istanbul","stats":{"checkinsCount":40,"usersCount":33,"tipCount":3},"categories":[{"id":"4bf58dd8d48988d115941735"}],"location":{"lat":51.55091828589196,"lng":-0.07525815664525498,"postalCode":"N16 8BH"}},{"id":"4c0af457009a0f479e66eabf","name":"Kebab Zero","stats":{"checkinsCount":45,"usersCount":39,"tipCount":1},"categories":[{"id":"4bf58dd8d48988d16c941735"}],"location":{"lat":51.527207,"lng":-0.077918}},{"id":"4d0261efb82d721eb0487834","name":"The Refectory","stats":{"checkinsCount":81,"usersCount":13,"tipCount":1},"categories":[{"id":"4bf58dd8d48988d121941735"}],"location":{"lat":51.52554014305343,"lng":-0.08122801780700684,"postalCode":"EC2A 3PB"}},{"id":"4c07ffaa6071a593f98fdb32","name":"Dil Chad","stats":{"checkinsCount":41,"usersCount":25,"tipCount":4},"categories":[{"id":"4bf58dd8d48988d10f941735"}],"location":{"lat":51.51807932786162,"lng":-0.07917965877545138,"postalCode":"E1 7HP"}},{"id":"4c0e1f47adcd9c7470a402f6","name":"Vodafone","stats":{"checkinsCount":53,"usersCount":31,"tipCount":0},"categories":[{"id":"4bf58dd8d48988d122951735"}],"location":{"lat":51.501025,"lng":-0.193169,"postalCode":"W8 6BD"}},{"id":"4e0b0d607d8bc5cb43564484","name":"The Gourmet Hotdog Company","stats":{"checkinsCount":46,"usersCount":30,"tipCount":0},"categories":[{"id":"4bf58dd8d48988d16f941735"}],"location":{"lat":51.50407569126006,"lng":-0.020005776825180892}},{"id":"4e078641aeb74c399110fcac","name":"Bianco 43","stats":{"checkinsCount":44,"usersCount":28,"tipCount":2},"categories":[{"id":"4bf58dd8d48988d110941735"}],"location":{"lat":51.481403,"lng":-0.009907}},{"id":"4c0d4d1a98102d7f3df9e106","name":"Tandoori Nights","stats":{"checkinsCount":35,"usersCount":27,"tipCount":1},"categories":[{"id":"4bf58dd8d48988d10f941735"}],"location":{"lat":51.458489,"lng":-0.075013}},{"id":"4d0e50333bbaa1439b1542da","name":"Verru","stats":{"checkinsCount":46,"usersCount":42,"tipCount":4},"categories":[{"id":"4bf58dd8d48988d10c941735"}],"location":{"lat":51.51789,"lng":-0.150729}},{"id":"4c00f2419a950f47175408c6","name":"Diamond Jacks Tattoos","stats":{"checkinsCount":48,"usersCount":27,"tipCount":1},"categories":[{"id":"4bf58dd8d48988d1de931735"}],"location":{"lat":51.51264447206577,"lng":-0.1336766269558084}},{"id":"4c0cf6bbb4c6d13ae0860c30","name":"Dean St Studios","stats":{"checkinsCount":52,"usersCount":19,"tipCount":1},"categories":[{"id":"4bf58dd8d48988d1f1931735"}],"location":{"lat":51.512854,"lng":-0.131935,"postalCode":"W1D"}},{"id":"4c08f896009a0f47a9e0e6bf","name":"New Forest Cider","stats":{"checkinsCount":47,"usersCount":27,"tipCount":1},"categories":[{"id":"4bf58dd8d48988d186941735"}],"location":{"lat":51.505724,"lng":-0.09097764}},{"id":"4c07db2bc6529521d6ceae0a","name":"The Tramshed","stats":{"checkinsCount":43,"usersCount":42,"tipCount":0},"categories":[{"id":"4bf58dd8d48988d1e2931735"}],"location":{"lat":51.525816,"lng":-0.081663}},{"id":"4c0d60187189c928b3e7d6b6","name":"Rama Thai","stats":{"checkinsCount":86,"usersCount":21,"tipCount":3},"categories":[{"id":"4bf58dd8d48988d149941735"}],"location":{"lat":51.52216241009077,"lng":-0.04566192626953125,"postalCode":"E1 4LJ"}},{"id":"4c0148db6f422d7f85fe401e","name":"Currys PC World","stats":{"checkinsCount":38,"usersCount":31,"tipCount":0},"categories":[{"id":"4bf58dd8d48988d122951735"}],"location":{"lat":51.504956,"lng":-0.020471,"postalCode":"E14 5AB"}},{"id":"4c14e792a1010f47b3134d18","name":"BP Petrol Station","stats":{"checkinsCount":36,"usersCount":26,"tipCount":1},"categories":[{"id":"4bf58dd8d48988d113951735"}],"location":{"lat":51.494201,"lng":-0.09138822555541992}},{"id":"4b1b9f73f964a52045fc23e3","name":"Shine on the Green","stats":{"checkinsCount":65,"usersCount":23,"tipCount":3},"categories":[{"id":"4bf58dd8d48988d110951735"}],"location":{"lat":51.55129,"lng":-0.084718,"postalCode":"N16 9pu"}},{"id":"4c1a834b55e4c9b637de4723","name":"Som Tam House Thai Restaurant","stats":{"checkinsCount":40,"usersCount":24,"tipCount":4},"categories":[{"id":"4bf58dd8d48988d149941735"}],"location":{"lat":51.5021962944881,"lng":-0.24233490228652954,"postalCode":"W12 9AU"}},{"id":"4c146f8f7f7f2d7f6afde068","name":"Fat Boys Cafe","stats":{"checkinsCount":63,"usersCount":26,"tipCount":2},"categories":[{"id":"4bf58dd8d48988d149941735"}],"location":{"lat":51.482073,"lng":-0.256153,"postalCode":"W4 2RG"}},{"id":"4e15512f18384368edcecf14","name":"Lush, Brent Cross","stats":{"checkinsCount":59,"usersCount":30,"tipCount":1},"categories":[{"id":"4bf58dd8d48988d10c951735"}],"location":{"lat":51.576859,"lng":-0.21963536739349365}},{"id":"4c1f5429b306c928503968b7","name":"O2","stats":{"checkinsCount":35,"usersCount":27,"tipCount":1},"categories":[{"id":"4bf58dd8d48988d122951735"}],"location":{"lat":51.538407944183675,"lng":-0.1426076889038086,"postalCode":"NW1 7JY"}},{"id":"4e16d824b0fb42f98735e687","name":"University Of London Stewart House","stats":{"checkinsCount":55,"usersCount":24,"tipCount":0},"categories":[{"id":"4bf58dd8d48988d117941735"}],"location":{"lat":51.52150151000819,"lng":-0.12768527459284384,"postalCode":"WC1B 5"}},{"id":"4c1b656e8b3aa593b610975f","name":"Gap Notting Hill","stats":{"checkinsCount":65,"usersCount":25,"tipCount":1},"categories":[{"id":"4bf58dd8d48988d103951735"}],"location":{"lat":51.508618474874105,"lng":-0.1998338175920364}},{"id":"4c12a0c87f7f2d7f3ea8dd68","name":"Pizza Hut","stats":{"checkinsCount":58,"usersCount":24,"tipCount":2},"categories":[{"id":"4bf58dd8d48988d1ca941735"}],"location":{"lat":51.487770394330546,"lng":-0.14251475369977157,"postalCode":"SW1V 3JD"}},{"id":"4d12757b80f6721e3aba17eb","name":"Millenium Fried Chicken","stats":{"checkinsCount":57,"usersCount":23,"tipCount":1},"categories":[{"id":"4d4ae6fc7a7b7dea34424761"}],"location":{"lat":51.468397,"lng":-0.127269,"postalCode":"SW9 9AR"}},{"id":"4e181c282271b0e971f8c422","name":"Barracuda","stats":{"checkinsCount":44,"usersCount":21,"tipCount":3},"categories":[{"id":"4bf58dd8d48988d16d941735"}],"location":{"lat":51.59026,"lng":-0.164195,"postalCode":"N2 0"}},{"id":"4f12e0b2e4b0d3f8a6e1ba20","name":"Carlton Cafe","stats":{"checkinsCount":39,"usersCount":27,"tipCount":2},"categories":[{"id":"4bf58dd8d48988d16d941735"}],"location":{"lat":51.54033660888672,"lng":-0.02142648957669735}},{"id":"4b115b12f964a520d17a23e3","name":"Bridge Tavern","stats":{"checkinsCount":33,"usersCount":29,"tipCount":0},"categories":[{"id":"4bf58dd8d48988d1e0931735"}],"location":{"lat":51.503241,"lng":-0.076798}},{"id":"4d19f660302da1cd4c03ce93","name":"Rudolphs","stats":{"checkinsCount":44,"usersCount":24,"tipCount":1},"categories":[{"id":"4bf58dd8d48988d116941735"}],"location":{"lat":51.60321235656738,"lng":-0.0671088695526123,"postalCode":"N17 0AL"}},{"id":"4c1c9acbeac020a169c846c2","name":"Wood Street Indoor Market","stats":{"checkinsCount":60,"usersCount":27,"tipCount":2},"categories":[{"id":"4bf58dd8d48988d101951735"}],"location":{"lat":51.58831243295004,"lng":-0.004298582215595635,"postalCode":"E17 3HX"}},{"id":"4b1baf60f964a520a3fc23e3","name":"Violette Cafe","stats":{"checkinsCount":51,"usersCount":36,"tipCount":2},"categories":[{"id":"4bf58dd8d48988d143941735"}],"location":{"lat":51.546668,"lng":-0.161066}},{"id":"4c1ba282624b9c7475a51204","name":"quix","stats":{"checkinsCount":117,"usersCount":12,"tipCount":0},"categories":[{"id":"4bf58dd8d48988d11f951735"}],"location":{"lat":51.54372861122775,"lng":-0.13307166863141695,"postalCode":"nw1 9rh"}},{"id":"4c137ffba5eb76b081fbbfb7","name":"Iberia","stats":{"checkinsCount":57,"usersCount":29,"tipCount":1},"categories":[{"id":"4bf58dd8d48988d109941735"}],"location":{"lat":51.53957612687943,"lng":-0.11694682875442129}},{"id":"4b11a58cf964a520548123e3","name":"The Make Lounge","stats":{"checkinsCount":51,"usersCount":39,"tipCount":1},"categories":[{"id":"4bf58dd8d48988d1f1931735"}],"location":{"lat":51.540759801864624,"lng":-0.10544836521148682}},{"id":"4f17353de4b0f1e7ba234c20","name":"Tierra Peru","stats":{"checkinsCount":37,"usersCount":36,"tipCount":3},"categories":[{"id":"4eb1bfa43b7b52c0e1adc2e8"}],"location":{"lat":51.54006136390064,"lng":-0.09710326337423927,"postalCode":"N1 8LY"}},{"id":"4c1ceb408b3aa5931a9a995f","name":"Maison Blanc","stats":{"checkinsCount":48,"usersCount":36,"tipCount":1},"categories":[{"id":"4bf58dd8d48988d16d941735"}],"location":{"lat":51.533004,"lng":-0.169945}},{"id":"4b12cfa9f964a520978e23e3","name":"Cinnamon Spice","stats":{"checkinsCount":38,"usersCount":32,"tipCount":1},"categories":[{"id":"4bf58dd8d48988d10f941735"}],"location":{"lat":51.5226548910141,"lng":-0.15910863876342773,"postalCode":"NW1 5PG"}},{"id":"4c10f0436b7e2d7fb55e2835","name":"The Square Tavern","stats":{"checkinsCount":40,"usersCount":29,"tipCount":4},"categories":[{"id":"4bf58dd8d48988d11b941735"}],"location":{"lat":51.52591061837552,"lng":-0.137663506359748}},{"id":"4b1ec87ff964a5207a1f24e3","name":"Old Middlesex Hospital","stats":{"checkinsCount":158,"usersCount":10,"tipCount":0},"categories":[{"id":"4deefb944765f83613cdba6e"}],"location":{"lat":51.51898072822251,"lng":-0.13746694899659834,"postalCode":"W1"}},{"id":"4c1a78be63750f470a5ab367","name":"Soho Comedy Club","stats":{"checkinsCount":35,"usersCount":35,"tipCount":0},"categories":[{"id":"4bf58dd8d48988d18e941735"}],"location":{"lat":51.509783,"lng":-0.131662}},{"id":"4b1ab83af964a52037f023e3","name":"Addis Restaurant","stats":{"checkinsCount":39,"usersCount":37,"tipCount":0},"categories":[{"id":"4bf58dd8d48988d10a941735"}],"location":{"lat":51.532108,"lng":-0.120519}},{"id":"4f12e5d8e4b0253d4e32610c","name":"Grayson Perry: The Tomb of the Unknow Craftsman","stats":{"checkinsCount":40,"usersCount":38,"tipCount":0},"categories":[{"id":"4bf58dd8d48988d18f941735"}],"location":{"lat":51.519484928639784,"lng":-0.1267812345747982}},{"id":"4c12519d583c9c74a03b3fa4","name":"Bruno's Deli","stats":{"checkinsCount":64,"usersCount":28,"tipCount":2},"categories":[{"id":"4bf58dd8d48988d146941735"}],"location":{"lat":51.53685996723254,"lng":-0.183449,"postalCode":"NW8"}},{"id":"4c1c09808b3aa5935440985f","name":"Bar Hemia - Marriott Maida Vale","stats":{"checkinsCount":57,"usersCount":31,"tipCount":0},"categories":[{"id":"4bf58dd8d48988d1d5941735"}],"location":{"lat":51.53563179690179,"lng":-0.19037246704101562}},{"id":"4b1e1adcf964a5206f1724e3","name":"Le Petit Venice","stats":{"checkinsCount":114,"usersCount":15,"tipCount":0},"categories":[{"id":"4bf58dd8d48988d1e0931735"}],"location":{"lat":51.52648504,"lng":-0.19333822,"postalCode":"W9  2EP"}},{"id":"4f1efb6ce4b0fb1c973a9d8a","name":"L'eto Caffe","stats":{"checkinsCount":61,"usersCount":32,"tipCount":1},"categories":[{"id":"4bf58dd8d48988d1dc931735"}],"location":{"lat":51.49253974163369,"lng":-0.17059629074166024}},{"id":"4d120932957fa1cdc5006b9f","name":"The Book Warehouse","stats":{"checkinsCount":60,"usersCount":31,"tipCount":1},"categories":[{"id":"4bf58dd8d48988d114951735"}],"location":{"lat":51.502202,"lng":-0.1102096,"postalCode":"SE1 8SB"}},{"id":"4c1b2d508b3aa593c6cd965f","name":"My Tea Shop","stats":{"checkinsCount":56,"usersCount":21,"tipCount":1},"categories":[{"id":"4bf58dd8d48988d16d941735"}],"location":{"lat":51.506071350015446,"lng":-0.0872039794921875,"postalCode":"SE1 2SW"}},{"id":"4b1edff6f964a520e62024e3","name":"Mama Thai","stats":{"checkinsCount":54,"usersCount":30,"tipCount":3},"categories":[{"id":"4bf58dd8d48988d149941735"}],"location":{"lat":51.488647,"lng":-0.09610891342162807,"postalCode":"SE17 1R"}},{"id":"4f12e398e4b0044a24aef858","name":"La Gondola al Parco","stats":{"checkinsCount":48,"usersCount":37,"tipCount":1},"categories":[{"id":"4bf58dd8d48988d16d941735"}],"location":{"lat":51.47960545780074,"lng":-0.1514402900049808}},{"id":"4b19834df964a520a8de23e3","name":"Khan's","stats":{"checkinsCount":56,"usersCount":34,"tipCount":2},"categories":[{"id":"4bf58dd8d48988d10f941735"}],"location":{"lat":51.455281,"lng":-0.11376934999999999}},{"id":"4c165afc7fd00f475914fab6","name":"McDonald's","stats":{"checkinsCount":73,"usersCount":27,"tipCount":0},"categories":[{"id":"4bf58dd8d48988d16e941735"}],"location":{"lat":51.618356,"lng":-0.107829}},{"id":"4b1fb6cdf964a520512824e3","name":"YCN","stats":{"checkinsCount":48,"usersCount":32,"tipCount":0},"categories":[{"id":"4bf58dd8d48988d1e2931735"}],"location":{"lat":51.52612805,"lng":-0.07931,"postalCode":"EC2A 3AY"}},{"id":"4c10bc495a43d13aaecb174b","name":"The Nunnery","stats":{"checkinsCount":52,"usersCount":26,"tipCount":1},"categories":[{"id":"4bf58dd8d48988d1e2931735"}],"location":{"lat":51.5290807667595,"lng":-0.01719740661866407,"postalCode":"E3 2SJ"}},{"id":"4c19c1b74ff90f47647b1049","name":"Soleil","stats":{"checkinsCount":115,"usersCount":15,"tipCount":0},"categories":[{"id":"4bf58dd8d48988d1fc941735"}],"location":{"lat":51.51065092395457,"lng":-0.03958437545575933}},{"id":"4c1f5b51a34cd13a93ff7c74","name":"Iceland","stats":{"checkinsCount":61,"usersCount":19,"tipCount":0},"categories":[{"id":"4bf58dd8d48988d118951735"}],"location":{"lat":51.51170823,"lng":-0.01443425,"postalCode":"E14 6BT"}},{"id":"4c1bbfecb9f876b05bc57a46","name":"Nepalese Tandoori","stats":{"checkinsCount":61,"usersCount":30,"tipCount":2},"categories":[{"id":"4bf58dd8d48988d10f941735"}],"location":{"lat":51.506406633945296,"lng":-0.23462837740408238,"postalCode":"W12 8NL"}},{"id":"4b1a5421f964a520f5e823e3","name":"Cafe Gingko","stats":{"checkinsCount":37,"usersCount":27,"tipCount":2},"categories":[{"id":"4bf58dd8d48988d1e0931735"}],"location":{"lat":51.49418592453003,"lng":-0.237774,"postalCode":"W6 0"}},{"id":"4e182789483b5cfa49c77789","name":"Melograno Alimentari","stats":{"checkinsCount":54,"usersCount":23,"tipCount":1},"categories":[{"id":"4bf58dd8d48988d146941735"}],"location":{"lat":51.507233301581444,"lng":-0.20692706108093262,"postalCode":"W11 3AA"}},{"id":"4e19f89588777e96477f2e8a","name":"Cote Brasserie","stats":{"checkinsCount":34,"usersCount":28,"tipCount":2},"categories":[{"id":"4bf58dd8d48988d10c941735"}],"location":{"lat":51.5020210315724,"lng":-0.1887037659083391,"postalCode":"W8 5DA"}},{"id":"4c16241aa9c220a1141a5a9d","name":"Londis","stats":{"checkinsCount":86,"usersCount":13,"tipCount":0},"categories":[{"id":"4bf58dd8d48988d118951735"}],"location":{"lat":51.48700844400211,"lng":-0.19701898097991943,"postalCode":"SW6 1TU"}},{"id":"4c112ea981e976b0e85e10eb","name":"Maloca","stats":{"checkinsCount":75,"usersCount":19,"tipCount":3},"categories":[{"id":"4bf58dd8d48988d175941735"}],"location":{"lat":51.463629,"lng":-0.211868,"postalCode":"SW15"}},{"id":"4c13c86f77cea593bb6acf60","name":"Il Mirto","stats":{"checkinsCount":55,"usersCount":29,"tipCount":4},"categories":[{"id":"4bf58dd8d48988d110941735"}],"location":{"lat":51.460999,"lng":-0.07980509999999999,"postalCode":"SE22 8"}},{"id":"4c157beab7b9c928f015ad37","name":"Booty Wine","stats":{"checkinsCount":49,"usersCount":21,"tipCount":0},"categories":[{"id":"4bf58dd8d48988d186941735"}],"location":{"lat":51.540934,"lng":-0.141428}},{"id":"4e12296ac65b4a49f313b2c8","name":"Sussex Fish Bar","stats":{"checkinsCount":32,"usersCount":29,"tipCount":1},"categories":[{"id":"4edd64a0c7ddd24ca188df1a"}],"location":{"lat":51.515085,"lng":-0.17279}},{"id":"4f19ebdbe4b0065cb9346e78","name":"Nido Fitness Centre","stats":{"checkinsCount":90,"usersCount":12,"tipCount":0},"categories":[{"id":"4bf58dd8d48988d175941735"}],"location":{"lat":51.53126753225381,"lng":-0.11734840829382491,"postalCode":"N1 9JP"}},{"id":"4e11d662c65b4a49f31058c8","name":"Kipferl Garden Kiosk","stats":{"checkinsCount":52,"usersCount":19,"tipCount":1},"categories":[{"id":"4bf58dd8d48988d10d941735"}],"location":{"lat":51.52394652112107,"lng":-0.1302587498501985,"postalCode":"WC1H 0AR"}},{"id":"4f104553e4b067f66e4db250","name":"youmesushi","stats":{"checkinsCount":43,"usersCount":23,"tipCount":1},"categories":[{"id":"4bf58dd8d48988d1d2941735"}],"location":{"lat":51.523101022169556,"lng":-0.11463862074389038}},{"id":"4c19f3c2838020a14a71e661","name":"The Legends Barber Shop","stats":{"checkinsCount":70,"usersCount":24,"tipCount":3},"categories":[{"id":"4bf58dd8d48988d10c951735"}],"location":{"lat":51.51976580333915,"lng":-0.11813521385192871,"postalCode":"WC1R 4RH"}},{"id":"4d14b7048312236a2d8f4cba","name":"Blacks","stats":{"checkinsCount":40,"usersCount":27,"tipCount":0},"categories":[{"id":"4bf58dd8d48988d1f2941735"}],"location":{"lat":51.518054,"lng":-0.109953,"postalCode":"EC1N 2LE"}},{"id":"4c1a3332d4d9c9282910f229","name":"La Chandelle","stats":{"checkinsCount":36,"usersCount":34,"tipCount":1},"categories":[{"id":"4bf58dd8d48988d116941735"}],"location":{"lat":51.509971,"lng":-0.129179}},{"id":"4f1ff6cee4b0aabf5277ee5f","name":"Pret A Manger","stats":{"checkinsCount":41,"usersCount":23,"tipCount":0},"categories":[{"id":"4bf58dd8d48988d1c5941735"}],"location":{"lat":51.51574002125193,"lng":-0.10934829711914062,"postalCode":"EC4A 1ES"}},{"id":"4f13f497e4b0fd2950e64d01","name":"Cafe 200","stats":{"checkinsCount":94,"usersCount":13,"tipCount":1},"categories":[{"id":"4bf58dd8d48988d16d941735"}],"location":{"lat":51.517418180150145,"lng":-0.09775421521479961,"postalCode":"EC1A 4HD"}},{"id":"4c14dbc777cea5935b31d160","name":"Marks And Spencer","stats":{"checkinsCount":40,"usersCount":25,"tipCount":1},"categories":[{"id":"4bf58dd8d48988d118951735"}],"location":{"lat":51.496867,"lng":-0.16394,"postalCode":"SW3 1NF"}},{"id":"4c18b872fe5a76b0c3620215","name":"GAME","stats":{"checkinsCount":48,"usersCount":32,"tipCount":0},"categories":[{"id":"4bf58dd8d48988d10b951735"}],"location":{"lat":51.494668,"lng":-0.145545}},{"id":"4e13812ecc3f2ee5189898dc","name":"The Northall","stats":{"checkinsCount":46,"usersCount":41,"tipCount":1},"categories":[{"id":"4bf58dd8d48988d1c4941735"}],"location":{"lat":51.50114942200583,"lng":-0.12816131114959717,"postalCode":"WC2N 5AE"}},{"id":"4b1f9c1ef964a520562724e3","name":"Little Dorrit","stats":{"checkinsCount":50,"usersCount":21,"tipCount":1},"categories":[{"id":"4bf58dd8d48988d1c5941735"}],"location":{"lat":51.505365630128026,"lng":-0.09199124264843707,"postalCode":"SE1 9AB"}},{"id":"4e1c46bbd22de289c0c0b4b7","name":"Chelsea Café","stats":{"checkinsCount":73,"usersCount":25,"tipCount":2},"categories":[{"id":"4bf58dd8d48988d16d941735"}],"location":{"lat":51.49015482576322,"lng":-0.1293732531293005}},{"id":"4c1cbf5fb4e62d7fd97bdb93","name":"Ossie's jerk chicken","stats":{"checkinsCount":65,"usersCount":20,"tipCount":0},"categories":[{"id":"4bf58dd8d48988d144941735"}],"location":{"lat":51.489427,"lng":-0.09644150733947754}},{"id":"4b112fc9f964a520ae7823e3","name":"Hamish Johnston","stats":{"checkinsCount":71,"usersCount":19,"tipCount":4},"categories":[{"id":"4bf58dd8d48988d1c4941735"}],"location":{"lat":51.459241,"lng":-0.166363,"postalCode":"SW11 1PA"}},{"id":"4c1e2c94eac020a1af3f49c2","name":"Cake Boutique","stats":{"checkinsCount":50,"usersCount":30,"tipCount":4},"categories":[{"id":"4bf58dd8d48988d16a941735"}],"location":{"lat":51.466183,"lng":-0.152175}},{"id":"4b1c59e8f964a5206e0624e3","name":"San Marco","stats":{"checkinsCount":37,"usersCount":31,"tipCount":3},"categories":[{"id":"4bf58dd8d48988d110941735"}],"location":{"lat":51.46277,"lng":-0.135163,"postalCode":"SW4 7UH"}},{"id":"4b130dc9f964a5206a9323e3","name":"Taste More","stats":{"checkinsCount":39,"usersCount":25,"tipCount":0},"categories":[{"id":"4bf58dd8d48988d16e941735"}],"location":{"lat":51.4726881039572,"lng":-0.12229826785633048,"postalCode":"SW8 1UQ"}},{"id":"4c1f6f948b3aa593916e9d5f","name":"Archway Station Cafe","stats":{"checkinsCount":51,"usersCount":32,"tipCount":1},"categories":[{"id":"4bf58dd8d48988d16d941735"}],"location":{"lat":51.565398,"lng":-0.134759}},{"id":"4b113fe6f964a5204c7923e3","name":"Baldwins","stats":{"checkinsCount":71,"usersCount":18,"tipCount":2},"categories":[{"id":"4bf58dd8d48988d11f951735"}],"location":{"lat":51.58017967704828,"lng":-0.09946374595165253,"postalCode":"N4 1AJ"}},{"id":"4b1fd1f8f964a520652924e3","name":"Molen's","stats":{"checkinsCount":54,"usersCount":21,"tipCount":2},"categories":[{"id":"4bf58dd8d48988d16d941735"}],"location":{"lat":51.566604,"lng":-0.107555}},{"id":"4b1cfc27f964a520f30a24e3","name":"Simply Coffee","stats":{"checkinsCount":46,"usersCount":24,"tipCount":0},"categories":[{"id":"4bf58dd8d48988d1e0931735"}],"location":{"lat":51.561937041285184,"lng":-0.08058607594382114,"postalCode":"N16"}},{"id":"4f1eae18e4b07f86b53a47fb","name":"The Barrel","stats":{"checkinsCount":70,"usersCount":25,"tipCount":2},"categories":[{"id":"4bf58dd8d48988d16d941735"}],"location":{"lat":51.531347,"lng":-0.080146}},{"id":"4b1120f6f964a5203d7823e3","name":"Campania","stats":{"checkinsCount":40,"usersCount":34,"tipCount":0},"categories":[{"id":"4bf58dd8d48988d110941735"}],"location":{"lat":51.529692,"lng":-0.068664}},{"id":"4f1e850a108131bfa69462ad","name":"BOOM! Cycle","stats":{"checkinsCount":84,"usersCount":16,"tipCount":2},"categories":[{"id":"4bf58dd8d48988d175941735"}],"location":{"lat":51.52327054772943,"lng":-0.08411407470703125,"postalCode":"EC2A 4RT"}},{"id":"4e1c30ac814ddecf2da9ec5c","name":"Sheraz Bangla Lounge","stats":{"checkinsCount":36,"usersCount":34,"tipCount":1},"categories":[{"id":"4bf58dd8d48988d10f941735"}],"location":{"lat":51.51780636678788,"lng":-0.07113754749298096,"postalCode":"E1 6PU"}},{"id":"4b152183f964a52091a823e3","name":"So Deli","stats":{"checkinsCount":48,"usersCount":23,"tipCount":1},"categories":[{"id":"4bf58dd8d48988d1c5941735"}],"location":{"lat":51.51535277967165,"lng":-0.08417844772338867,"postalCode":"EC2N"}},{"id":"4b13c229f964a520ee9823e3","name":"The City Coffee Lounge","stats":{"checkinsCount":70,"usersCount":25,"tipCount":1},"categories":[{"id":"4bf58dd8d48988d16d941735"}],"location":{"lat":51.510780519378486,"lng":-0.0849246585149085,"postalCode":"EC3M 1BBQ'D"}},{"id":"4e1019517d8b4d5613cf3755","name":"City Cafe @ The Mint Hotel","stats":{"checkinsCount":60,"usersCount":30,"tipCount":0},"categories":[{"id":"4bf58dd8d48988d16d941735"}],"location":{"lat":51.510992,"lng":-0.07814,"postalCode":"EC3N 4AF"}},{"id":"4c1ce267fcf8c9b627baaa0b","name":"Thai Smile Supermarket","stats":{"checkinsCount":55,"usersCount":34,"tipCount":2},"categories":[{"id":"4bf58dd8d48988d118951735"}],"location":{"lat":51.493533074805704,"lng":-0.23946451396780014,"postalCode":"W6 9NH"}},{"id":"4e18458f88777e96476e6f11","name":"Tacuba","stats":{"checkinsCount":44,"usersCount":23,"tipCount":2},"categories":[{"id":"4bf58dd8d48988d1c1941735"}],"location":{"lat":51.461136,"lng":-0.218315}},{"id":"4c1bba7a8b3aa59303b0975f","name":"Hing Lee","stats":{"checkinsCount":98,"usersCount":18,"tipCount":2},"categories":[{"id":"4bf58dd8d48988d145941735"}],"location":{"lat":51.50241835525635,"lng":-0.07414162158966064}},{"id":"4c10e6816b7e2d7f2c4c2835","name":"SMBS Foods","stats":{"checkinsCount":59,"usersCount":29,"tipCount":1},"categories":[{"id":"4bf58dd8d48988d118951735"}],"location":{"lat":51.458461,"lng":-0.075083}},{"id":"4c10ab14ce57c928e23482d2","name":"Vintage Pretty's","stats":{"checkinsCount":36,"usersCount":26,"tipCount":2},"categories":[{"id":"4bf58dd8d48988d16d941735"}],"location":{"lat":51.457762,"lng":-0.073524}},{"id":"4c1612138aedd13ad6ef5137","name":"Alchemy The Centre","stats":{"checkinsCount":74,"usersCount":26,"tipCount":7},"categories":[{"id":"4bf58dd8d48988d102941735"}],"location":{"lat":51.541817440504396,"lng":-0.1466312094227996,"postalCode":"NW1 8AH"}},{"id":"4c10d984b93cc9b6cd4f57e0","name":"Camden Coffee Shop","stats":{"checkinsCount":47,"usersCount":31,"tipCount":2},"categories":[{"id":"4bf58dd8d48988d1e0931735"}],"location":{"lat":51.53686,"lng":-0.142105,"postalCode":"NW1 7"}},{"id":"4f187258e4b0aa56093e03b2","name":"Prague","stats":{"checkinsCount":36,"usersCount":32,"tipCount":0},"categories":[{"id":"4bf58dd8d48988d116941735"}],"location":{"lat":51.53726461529142,"lng":-0.10070706437578394}},{"id":"4c123fbd82a3c9b6a251f9f8","name":"Mickey's Fish Bar","stats":{"checkinsCount":49,"usersCount":38,"tipCount":0},"categories":[{"id":"4edd64a0c7ddd24ca188df1a"}],"location":{"lat":51.516722,"lng":-0.172665,"postalCode":"W2"}},{"id":"4c1e3c58e9c4ef3bc21946aa","name":"Designers Guild Marylebone","stats":{"checkinsCount":61,"usersCount":15,"tipCount":2},"categories":[{"id":"4bf58dd8d48988d1f8941735"}],"location":{"lat":51.521304,"lng":-0.151845,"postalCode":"W1U 5JU"}},{"id":"4c1f9550b306c928dfa468b7","name":"Margaret Howell","stats":{"checkinsCount":49,"usersCount":36,"tipCount":0},"categories":[{"id":"4bf58dd8d48988d103951735"}],"location":{"lat":51.516517,"lng":-0.148093}},{"id":"4b19847ff964a520bade23e3","name":"Nettie Horn Gallery","stats":{"checkinsCount":39,"usersCount":27,"tipCount":0},"categories":[{"id":"4bf58dd8d48988d1e2931735"}],"location":{"lat":51.51807675401733,"lng":-0.14142751693725586,"postalCode":"W1W 7DS"}},{"id":"4b1d9ad8f964a520f31224e3","name":"Bar Troy","stats":{"checkinsCount":41,"usersCount":32,"tipCount":3},"categories":[{"id":"4bf58dd8d48988d116941735"}],"location":{"lat":51.516875,"lng":-0.131954}},{"id":"4c1ca6feb306c928ce2c64b7","name":"The Bar","stats":{"checkinsCount":44,"usersCount":39,"tipCount":3},"categories":[{"id":"4bf58dd8d48988d1d5941735"}],"location":{"lat":51.514419,"lng":-0.139407,"postalCode":"W1F 7HL"}},{"id":"4e1b37187d8b8db6125a171b","name":"Pompidou Parisserie Cafe","stats":{"checkinsCount":44,"usersCount":21,"tipCount":1},"categories":[{"id":"4bf58dd8d48988d110941735"}],"location":{"lat":51.53084106857499,"lng":-0.12182190886344402}},{"id":"4e180d8aa8097d08b2334af6","name":"Bootcamp Pilates","stats":{"checkinsCount":88,"usersCount":20,"tipCount":5},"categories":[{"id":"4bf58dd8d48988d102941735"}],"location":{"lat":51.527066267183116,"lng":-0.08813694251159539,"postalCode":"EC1V 2"}},{"id":"4f17d71ae4b02d2c5a94e1e9","name":"Abokado","stats":{"checkinsCount":51,"usersCount":24,"tipCount":2},"categories":[{"id":"4bf58dd8d48988d146941735"}],"location":{"lat":51.5182780860309,"lng":-0.11210888950016108}},{"id":"4c1e3ece63750f477a64b967","name":"China Buffet","stats":{"checkinsCount":45,"usersCount":39,"tipCount":0},"categories":[{"id":"4bf58dd8d48988d145941735"}],"location":{"lat":51.51198235833658,"lng":-0.12949702160112772}},{"id":"4c11612b72caa593b6695da4","name":"Maharaja of india","stats":{"checkinsCount":34,"usersCount":34,"tipCount":2},"categories":[{"id":"4bf58dd8d48988d10f941735"}],"location":{"lat":51.51021553333334,"lng":-0.128345,"postalCode":"Wc2h"}},{"id":"4f19a7b3e4b088d4a00fcc4f","name":"The Marquis","stats":{"checkinsCount":38,"usersCount":35,"tipCount":2},"categories":[{"id":"4bf58dd8d48988d11b941735"}],"location":{"lat":51.509645894748196,"lng":-0.12561637392747704}},{"id":"4e105b61fa769d21e9e37307","name":"Tutti Frutti","stats":{"checkinsCount":39,"usersCount":29,"tipCount":0},"categories":[{"id":"4bf58dd8d48988d1d0941735"}],"location":{"lat":51.5099252384834,"lng":-0.1234007422974882}},{"id":"4c1663a87f7f2d7ffbe7e368","name":"Nero Express","stats":{"checkinsCount":64,"usersCount":21,"tipCount":0},"categories":[{"id":"4bf58dd8d48988d1e0931735"}],"location":{"lat":51.520112,"lng":-0.104206}},{"id":"4c1e0fc5b4e62d7fb0a3dd93","name":"Garden & Grill Cafe","stats":{"checkinsCount":45,"usersCount":37,"tipCount":0},"categories":[{"id":"4bf58dd8d48988d1df931735"}],"location":{"lat":51.51753257,"lng":-0.206502,"postalCode":"W11 1LR"}},{"id":"4e1830aefa761946458e708c","name":"Stumper & Fielding","stats":{"checkinsCount":40,"usersCount":31,"tipCount":0},"categories":[{"id":"4bf58dd8d48988d104951735"}],"location":{"lat":51.51328094318333,"lng":-0.20257979166387774}},{"id":"4c188109fe5a76b0e22a0215","name":"Monsoon","stats":{"checkinsCount":53,"usersCount":25,"tipCount":1},"categories":[{"id":"4bf58dd8d48988d108951735"}],"location":{"lat":51.51686166794058,"lng":-0.177154541015625,"postalCode":"W2 1HQ"}},{"id":"4b1eb35df964a520161e24e3","name":"Harlem Soul Food","stats":{"checkinsCount":46,"usersCount":32,"tipCount":3},"categories":[{"id":"4bf58dd8d48988d17a941735"}],"location":{"lat":51.51525,"lng":-0.192949}},{"id":"4c1c90f8b306c9281a1664b7","name":"Errol douglas","stats":{"checkinsCount":84,"usersCount":14,"tipCount":1},"categories":[{"id":"4bf58dd8d48988d110951735"}],"location":{"lat":51.499322,"lng":-0.15716}},{"id":"4c18b57f4ff90f47b3b70e49","name":"Lola's","stats":{"checkinsCount":50,"usersCount":29,"tipCount":1},"categories":[{"id":"4bf58dd8d48988d1bc941735"}],"location":{"lat":51.50828603333334,"lng":-0.144753}},{"id":"4c12320fb2510f47df26c498","name":"Il Posto","stats":{"checkinsCount":36,"usersCount":32,"tipCount":3},"categories":[{"id":"4bf58dd8d48988d110941735"}],"location":{"lat":51.495737,"lng":-0.141983,"postalCode":"SW1V 1AA"}},{"id":"4f1875ade4b038fa35f7241f","name":"Galante","stats":{"checkinsCount":46,"usersCount":37,"tipCount":6},"categories":[{"id":"4bf58dd8d48988d1d4941735"}],"location":{"lat":51.492827305707344,"lng":-0.1672103840465962,"postalCode":"SW3"}},{"id":"4c18a1994ff90f4742a00e49","name":"National Theatre Box Office","stats":{"checkinsCount":42,"usersCount":25,"tipCount":1},"categories":[{"id":"4bf58dd8d48988d137941735"}],"location":{"lat":51.507536040000005,"lng":-0.114972}},{"id":"4d1eb10a756e8cfabfc15c54","name":"Great Suffolk Street Warehouse","stats":{"checkinsCount":47,"usersCount":32,"tipCount":2},"categories":[{"id":"4bf58dd8d48988d1e5931735"}],"location":{"lat":51.50406791565989,"lng":-0.10085105895996094,"postalCode":"SE1 0NR"}},{"id":"4c1663b2a9c220a1e98e5a9d","name":"Evans Cycles","stats":{"checkinsCount":53,"usersCount":37,"tipCount":1},"categories":[{"id":"4bf58dd8d48988d115951735"}],"location":{"lat":51.46333274,"lng":-0.1336,"postalCode":"SW4 7TG"}},{"id":"4e1c445dfa769b7ee689532b","name":"Brick lane coffee","stats":{"checkinsCount":39,"usersCount":31,"tipCount":0},"categories":[{"id":"4bf58dd8d48988d1e0931735"}],"location":{"lat":51.52476754794527,"lng":-0.08031243902549794}},{"id":"4c1530821b5cef3b1941eec4","name":"Dray Walk Gallery","stats":{"checkinsCount":37,"usersCount":31,"tipCount":0},"categories":[{"id":"4bf58dd8d48988d1e2931735"}],"location":{"lat":51.520974136156376,"lng":-0.07272005081176758,"postalCode":"E1 6QL"}},{"id":"4c1ce198eac020a1a72c47c2","name":"Oscar Milo","stats":{"checkinsCount":58,"usersCount":16,"tipCount":0},"categories":[{"id":"4bf58dd8d48988d103951735"}],"location":{"lat":51.519233,"lng":-0.076511}},{"id":"4c1b78d9b4e62d7f0762d993","name":"Chez Gérard","stats":{"checkinsCount":47,"usersCount":38,"tipCount":1},"categories":[{"id":"4bf58dd8d48988d10c941735"}],"location":{"lat":51.5098519,"lng":-0.0782262,"postalCode":"EC3N 4AA"}},{"id":"4c1615e2a1010f4732e34e18","name":"Kellys Food Emporium","stats":{"checkinsCount":45,"usersCount":27,"tipCount":2},"categories":[{"id":"4bf58dd8d48988d147941735"}],"location":{"lat":51.514021088694676,"lng":-0.07576223176329833}},{"id":"4e11b2511495c8d31bc895af","name":"T.M. Lewin","stats":{"checkinsCount":42,"usersCount":29,"tipCount":1},"categories":[{"id":"4bf58dd8d48988d106951735"}],"location":{"lat":51.50783429938509,"lng":-0.22148609161376953,"postalCode":"W12 7GD"}},{"id":"4c14bf20b7b9c928caccab37","name":"Ellis Brigham","stats":{"checkinsCount":43,"usersCount":34,"tipCount":0},"categories":[{"id":"4bf58dd8d48988d1f2941735"}],"location":{"lat":51.507827621675276,"lng":-0.2208423614501953,"postalCode":"W12 7GF"}},{"id":"4b113960f964a520087923e3","name":"Top Hat Dry Cleaners","stats":{"checkinsCount":126,"usersCount":15,"tipCount":2},"categories":[{"id":"4bf58dd8d48988d1fc941735"}],"location":{"lat":51.49188513884279,"lng":-0.25577545166015625,"postalCode":"W4 2HD"}},{"id":"4c1a8b4963750f47d275b367","name":"Burger King","stats":{"checkinsCount":37,"usersCount":25,"tipCount":2},"categories":[{"id":"4bf58dd8d48988d16e941735"}],"location":{"lat":51.50496,"lng":-0.021114,"postalCode":"E14 4"}},{"id":"4c1502c77f7f2d7f99b1e168","name":"Wardour News","stats":{"checkinsCount":65,"usersCount":23,"tipCount":2},"categories":[{"id":"4bf58dd8d48988d1ff941735"}],"location":{"lat":51.513971,"lng":-0.1345}},{"id":"4b1139eef964a5200e7923e3","name":"Next","stats":{"checkinsCount":38,"usersCount":28,"tipCount":0},"categories":[{"id":"4bf58dd8d48988d103951735"}],"location":{"lat":51.534076,"lng":-0.106457,"postalCode":"N1 0PS"}},{"id":"4e16f90e1f6eb653a5eb3eb9","name":"Barbour","stats":{"checkinsCount":47,"usersCount":42,"tipCount":2},"categories":[{"id":"4bf58dd8d48988d103951735"}],"location":{"lat":51.512365893108104,"lng":-0.12599540997638659,"postalCode":"WC2"}},{"id":"4e146a05d4c023f7053e9ea7","name":"St. Martins Gallery","stats":{"checkinsCount":40,"usersCount":36,"tipCount":0},"categories":[{"id":"4bf58dd8d48988d1e2931735"}],"location":{"lat":51.507446955388346,"lng":-0.1275871561974121,"postalCode":"6 Saint Mart"}},{"id":"4e15fc0618384368edd51577","name":"Hoxton Art Gallery","stats":{"checkinsCount":36,"usersCount":26,"tipCount":0},"categories":[{"id":"4bf58dd8d48988d1e2931735"}],"location":{"lat":51.52705156955812,"lng":-0.0812194814812582}},{"id":"4c1a1f21834e2d7f9b5a2b80","name":"Gows","stats":{"checkinsCount":39,"usersCount":32,"tipCount":1},"categories":[{"id":"4bf58dd8d48988d14b941735"}],"location":{"lat":51.517051,"lng":-0.0832393,"postalCode":"EC2M 1PR"}},{"id":"4d14f2801356a09336fdcc82","name":"Tiffany & Co.","stats":{"checkinsCount":44,"usersCount":35,"tipCount":0},"categories":[{"id":"4bf58dd8d48988d111951735"}],"location":{"lat":51.5050562876173,"lng":-0.0199127197265625,"postalCode":"E14 4QT"}},{"id":"4c4c554f9c8d2d7f6fd9446c","name":"Cafe Toulouse","stats":{"checkinsCount":56,"usersCount":28,"tipCount":1},"categories":[{"id":"4bf58dd8d48988d143941735"}],"location":{"lat":51.585507,"lng":-0.183558}},{"id":"4c4aa0d846240f47b06d29f2","name":"Sherards","stats":{"checkinsCount":68,"usersCount":24,"tipCount":2},"categories":[{"id":"4bf58dd8d48988d16a941735"}],"location":{"lat":51.585917,"lng":-0.183289}},{"id":"4c4f11c092b6a5931a56f970","name":"Hollywood Bowl","stats":{"checkinsCount":54,"usersCount":33,"tipCount":0},"categories":[{"id":"4bf58dd8d48988d1e4931735"}],"location":{"lat":51.48112999760551,"lng":-0.04523243901983059}},{"id":"4e4fbb6cfa7626401ead3569","name":"Team Sport","stats":{"checkinsCount":49,"usersCount":40,"tipCount":0},"categories":[{"id":"4bf58dd8d48988d1f4931735"}],"location":{"lat":51.618265567837874,"lng":-0.0449853214118716}},{"id":"4e494e1c45dd2955e5bc5e96","name":"Indaba","stats":{"checkinsCount":57,"usersCount":16,"tipCount":2},"categories":[{"id":"4bf58dd8d48988d102941735"}],"location":{"lat":51.52266125345326,"lng":-0.1649790119488722}},{"id":"4c40c182a5c5ef3bf912b06f","name":"Hyde Park Tennis Centre Cafe","stats":{"checkinsCount":45,"usersCount":32,"tipCount":0},"categories":[{"id":"4bf58dd8d48988d16d941735"}],"location":{"lat":51.50234489166332,"lng":-0.17320632934570312,"postalCode":"W2 2UH"}},{"id":"4c41e279d691c9b6b1688d0a","name":"Sports Direct","stats":{"checkinsCount":44,"usersCount":26,"tipCount":1},"categories":[{"id":"4bf58dd8d48988d1f2941735"}],"location":{"lat":51.611385,"lng":-0.144277,"postalCode":"N11 3PW"}},{"id":"4c4b47de9c8d2d7f3e83c06a","name":"The minstrel boy","stats":{"checkinsCount":47,"usersCount":22,"tipCount":0},"categories":[{"id":"4bf58dd8d48988d116941735"}],"location":{"lat":51.600081,"lng":-0.147187}},{"id":"4c4d2917e906c9285269853b","name":"The Occasional Half","stats":{"checkinsCount":46,"usersCount":28,"tipCount":1},"categories":[{"id":"4bf58dd8d48988d11b941735"}],"location":{"lat":51.610377837136944,"lng":-0.11015340293977473,"postalCode":"N13"}},{"id":"4b4acc63f964a5206e8e26e3","name":"Polsmak Delicatessen","stats":{"checkinsCount":56,"usersCount":26,"tipCount":3},"categories":[{"id":"4bf58dd8d48988d146941735"}],"location":{"lat":51.546197,"lng":-0.07772420000000001,"postalCode":"N1 4BW"}},{"id":"4c48099076d72d7f02103f4d","name":"Queensbridge Sports and Community Centre","stats":{"checkinsCount":51,"usersCount":23,"tipCount":1},"categories":[{"id":"4bf58dd8d48988d175941735"}],"location":{"lat":51.54254044464335,"lng":-0.07167027202509875,"postalCode":"E8 3XW"}},{"id":"4c4c52a09c8d2d7f2ea5406c","name":"The King Harold","stats":{"checkinsCount":50,"usersCount":19,"tipCount":0},"categories":[{"id":"4bf58dd8d48988d11b941735"}],"location":{"lat":51.55414736548822,"lng":-0.004562572606165679}},{"id":"4e43d218315130a66d37e0fd","name":"My Redcliffe Gardens","stats":{"checkinsCount":94,"usersCount":10,"tipCount":0},"categories":[{"id":"4bf58dd8d48988d120941735"}],"location":{"lat":51.4872756736659,"lng":-0.1878190040588379,"postalCode":"SW10 9JJ"}},{"id":"4e45384352b1bac0d964f444","name":"Dolce Crema","stats":{"checkinsCount":50,"usersCount":22,"tipCount":0},"categories":[{"id":"4bf58dd8d48988d1e0931735"}],"location":{"lat":51.470471,"lng":-0.255904}},{"id":"4b4b73d5f964a520399c26e3","name":"Zizzi","stats":{"checkinsCount":32,"usersCount":30,"tipCount":1},"categories":[{"id":"4bf58dd8d48988d110941735"}],"location":{"lat":51.59610159332862,"lng":-0.198403363924393,"postalCode":"N3 3HP"}},{"id":"4e4e62ea1495fc2ca3ef4a37","name":"Wonderful Patisserie","stats":{"checkinsCount":55,"usersCount":28,"tipCount":1},"categories":[{"id":"4bf58dd8d48988d142941735"}],"location":{"lat":51.58424233891227,"lng":-0.24827317509164412}},{"id":"4e45755918a8f9804cbae1f8","name":"Old Haberdasher","stats":{"checkinsCount":54,"usersCount":32,"tipCount":2},"categories":[{"id":"4bf58dd8d48988d11b941735"}],"location":{"lat":51.47386014461517,"lng":-0.034418925}},{"id":"4b4e366df964a52079e526e3","name":"The Winchester Project","stats":{"checkinsCount":84,"usersCount":12,"tipCount":0},"categories":[{"id":"4bf58dd8d48988d1e1931735"}],"location":{"lat":51.543330430000005,"lng":-0.17272889614105225,"postalCode":"NW3"}},{"id":"4d4024cecb84b60ce36683ab","name":"Out On The Floor Records","stats":{"checkinsCount":42,"usersCount":32,"tipCount":0},"categories":[{"id":"4bf58dd8d48988d10d951735"}],"location":{"lat":51.53952903258656,"lng":-0.1439380645751953,"postalCode":"NW1 7HJ"}},{"id":"4c48a4f9c047be9a5c863479","name":"BBC Club West One","stats":{"checkinsCount":50,"usersCount":36,"tipCount":2},"categories":[{"id":"4bf58dd8d48988d116941735"}],"location":{"lat":51.51931851179036,"lng":-0.1425647735595703,"postalCode":"W1A 1AA"}},{"id":"4e45b5efae60fa7232ea1a0e","name":"CLASHBAR @ Clink78","stats":{"checkinsCount":46,"usersCount":35,"tipCount":0},"categories":[{"id":"4bf58dd8d48988d1d5941735"}],"location":{"lat":51.52885437011719,"lng":-0.1155863031744957}},{"id":"4b4f1c82f964a52087fa26e3","name":"Bacco","stats":{"checkinsCount":47,"usersCount":40,"tipCount":1},"categories":[{"id":"4bf58dd8d48988d110941735"}],"location":{"lat":51.519423,"lng":-0.117098,"postalCode":"WC1R 4PS"}},{"id":"4c4592d0da2176b01132637a","name":"Superdrug","stats":{"checkinsCount":40,"usersCount":35,"tipCount":1},"categories":[{"id":"4bf58dd8d48988d10f951735"}],"location":{"lat":51.51517980298902,"lng":-0.12996527204782365,"postalCode":"WC2H 0EW"}},{"id":"4c4226bbaf052d7fc6857e79","name":"Trinidad Roti Shop","stats":{"checkinsCount":99,"usersCount":15,"tipCount":0},"categories":[{"id":"4bf58dd8d48988d144941735"}],"location":{"lat":51.53985182779158,"lng":-0.24960042681415673,"postalCode":"NW10 9AS"}},{"id":"4b4ddb7cf964a52084d926e3","name":"The Pumpkin Cafe","stats":{"checkinsCount":65,"usersCount":25,"tipCount":2},"categories":[{"id":"4bf58dd8d48988d16d941735"}],"location":{"lat":51.555164,"lng":-0.196589,"postalCode":"NW6 1DH"}},{"id":"4c41f2016c1a952143b3b96a","name":"Costa Coffee","stats":{"checkinsCount":54,"usersCount":22,"tipCount":2},"categories":[{"id":"4bf58dd8d48988d1e0931735"}],"location":{"lat":51.543433,"lng":-0.199626,"postalCode":"NW6 6HY"}},{"id":"4b4f39e6f964a520f2fd26e3","name":"Blagclub","stats":{"checkinsCount":62,"usersCount":23,"tipCount":0},"categories":[{"id":"4bf58dd8d48988d121941735"}],"location":{"lat":51.526253,"lng":-0.208813,"postalCode":"W10 5BN"}},{"id":"4c45ee9ff5aee21eb7df1658","name":"George's Fish Bar","stats":{"checkinsCount":48,"usersCount":27,"tipCount":1},"categories":[{"id":"4bf58dd8d48988d16e941735"}],"location":{"lat":51.52760957201219,"lng":-0.1978142507387505,"postalCode":"W9 2EX"}},{"id":"4e42ea2abd41fc094d38f2b0","name":"The Spa at Mandarin Oriental Hyde Park, London","stats":{"checkinsCount":78,"usersCount":17,"tipCount":2},"categories":[{"id":"4bf58dd8d48988d1ed941735"}],"location":{"lat":51.501967377042355,"lng":-0.15973481848136475}},{"id":"4b4a1c1ef964a520ec7a26e3","name":"Kitfo House Restaurant","stats":{"checkinsCount":77,"usersCount":19,"tipCount":3},"categories":[{"id":"4bf58dd8d48988d10a941735"}],"location":{"lat":51.482396,"lng":-0.124261}},{"id":"4f44fb71e4b0c24ce30c97e1","name":"Diyarbakır Restaurant","stats":{"checkinsCount":40,"usersCount":30,"tipCount":4},"categories":[{"id":"4f04af1f2fb6e1c99f3db0bb"}],"location":{"lat":51.57786963704701,"lng":-0.0986623764038086,"postalCode":"N4 1DU"}},{"id":"4b43e41ff964a52056ed25e3","name":"Anglo-Asian Tandoori","stats":{"checkinsCount":39,"usersCount":34,"tipCount":1},"categories":[{"id":"4bf58dd8d48988d10f941735"}],"location":{"lat":51.56218168,"lng":-0.076567,"postalCode":"N16 0NB"}},{"id":"4b45e87bf964a520161226e3","name":"The Gate","stats":{"checkinsCount":42,"usersCount":27,"tipCount":2},"categories":[{"id":"4bf58dd8d48988d16d941735"}],"location":{"lat":51.55232658,"lng":-0.08543695}},{"id":"4c4b19d542b4d13a30d8337e","name":"Iceland","stats":{"checkinsCount":45,"usersCount":21,"tipCount":0},"categories":[{"id":"4bf58dd8d48988d118951735"}],"location":{"lat":51.5390886082932,"lng":-0.05624055862426758,"postalCode":"E8 3SG"}},{"id":"4d4ac6865129a35d573a47ac","name":"Pepe's Piri Piri","stats":{"checkinsCount":54,"usersCount":28,"tipCount":3},"categories":[{"id":"4d4ae6fc7a7b7dea34424761"}],"location":{"lat":51.51919254180488,"lng":-0.07173049837728984,"postalCode":"E1 6RL"}},{"id":"4e4e0efdc65bb313ba728a07","name":"Blanche Eatery (Kensington Church St)","stats":{"checkinsCount":60,"usersCount":32,"tipCount":1},"categories":[{"id":"4bf58dd8d48988d16d941735"}],"location":{"lat":51.504081272180606,"lng":-0.19208908081054688,"postalCode":"W8 4EZ"}},{"id":"4b4a5996f964a520d38426e3","name":"Lahore Restaurant","stats":{"checkinsCount":65,"usersCount":22,"tipCount":2},"categories":[{"id":"4bf58dd8d48988d10f941735"}],"location":{"lat":51.587642,"lng":-0.220889,"postalCode":"NW4 2DR"}},{"id":"4b487d40f964a520234e26e3","name":"Comet","stats":{"checkinsCount":43,"usersCount":31,"tipCount":0},"categories":[{"id":"4bf58dd8d48988d122951735"}],"location":{"lat":51.48391039,"lng":-0.06788482,"postalCode":"SE1 5BA"}},{"id":"4c4c539146240f47156ba1f4","name":"Creekside Studios","stats":{"checkinsCount":54,"usersCount":36,"tipCount":0},"categories":[{"id":"4bf58dd8d48988d1f1931735"}],"location":{"lat":51.47737,"lng":-0.020316}},{"id":"4c4733e376d72d7f446a3c4d","name":"Sir Robert Peel","stats":{"checkinsCount":43,"usersCount":22,"tipCount":2},"categories":[{"id":"4bf58dd8d48988d11b941735"}],"location":{"lat":51.5491505722787,"lng":-0.15277862548828125,"postalCode":"NW5"}},{"id":"4c4f469b92ce2d7f5e1f892f","name":"Peking Seoul","stats":{"checkinsCount":43,"usersCount":37,"tipCount":1},"categories":[{"id":"4bf58dd8d48988d145941735"}],"location":{"lat":51.51708999,"lng":-0.17309327}},{"id":"4d4b00de9526b60c210388ee","name":"P3","stats":{"checkinsCount":39,"usersCount":31,"tipCount":1},"categories":[{"id":"4bf58dd8d48988d1f1931735"}],"location":{"lat":51.522644,"lng":-0.15587697500000003}},{"id":"4b44a736f964a520a7f825e3","name":"New London Architecture","stats":{"checkinsCount":39,"usersCount":27,"tipCount":1},"categories":[{"id":"4bf58dd8d48988d1f1931735"}],"location":{"lat":51.519427,"lng":-0.132356}},{"id":"4c4edbbaf53d0f47b05a35a7","name":"Pizza Hut","stats":{"checkinsCount":35,"usersCount":34,"tipCount":1},"categories":[{"id":"4bf58dd8d48988d1ca941735"}],"location":{"lat":51.513926,"lng":-0.151135}},{"id":"4d4edfa720d3236acf02a028","name":"Ifuku","stats":{"checkinsCount":36,"usersCount":33,"tipCount":0},"categories":[{"id":"4bf58dd8d48988d104951735"}],"location":{"lat":51.513624,"lng":-0.139547,"postalCode":"W1F 7QD"}},{"id":"4c49da2c6f1420a1937f2f56","name":"The Brill","stats":{"checkinsCount":46,"usersCount":31,"tipCount":2},"categories":[{"id":"4bf58dd8d48988d11e941735"}],"location":{"lat":51.53113603591919,"lng":-0.120938}},{"id":"4e4eb8e552b1e893ad50cda6","name":"Museum of broken relationship","stats":{"checkinsCount":37,"usersCount":33,"tipCount":1},"categories":[{"id":"4bf58dd8d48988d18f941735"}],"location":{"lat":51.51369094848633,"lng":-0.127976}},{"id":"4d4e8793a0b0a09368b34e83","name":"Mani's","stats":{"checkinsCount":49,"usersCount":39,"tipCount":2},"categories":[{"id":"4bf58dd8d48988d16d941735"}],"location":{"lat":51.555595,"lng":-0.177694}},{"id":"4b479c0ff964a520433726e3","name":"Sushi Gen","stats":{"checkinsCount":50,"usersCount":33,"tipCount":4},"categories":[{"id":"4bf58dd8d48988d1d2941735"}],"location":{"lat":51.549451,"lng":-0.191489,"postalCode":"NW6 1XN"}},{"id":"4b4ce361f964a5200cc326e3","name":"Heartcore Pilates","stats":{"checkinsCount":76,"usersCount":18,"tipCount":0},"categories":[{"id":"4bf58dd8d48988d102941735"}],"location":{"lat":51.508732,"lng":-0.197435,"postalCode":"W8 7TN"}},{"id":"4d41f09189c3a1436a13f383","name":"Aura Mayfair","stats":{"checkinsCount":51,"usersCount":38,"tipCount":0},"categories":[{"id":"4bf58dd8d48988d11a941735"}],"location":{"lat":51.50696806449225,"lng":-0.14041559135129683}},{"id":"4b43b26df964a520bce625e3","name":"Spice of India","stats":{"checkinsCount":43,"usersCount":38,"tipCount":0},"categories":[{"id":"4bf58dd8d48988d10f941735"}],"location":{"lat":51.50298,"lng":-0.108018}},{"id":"4d4d618d869cf04db1b2dcae","name":"Le Block","stats":{"checkinsCount":177,"usersCount":8,"tipCount":1},"categories":[{"id":"4bf58dd8d48988d1d4941735"}],"location":{"lat":51.502732762499996,"lng":-0.10217021000000001,"postalCode":"SE1 0BZ"}},{"id":"4d488019753aa0936b47d0e0","name":"Bottle and Basket","stats":{"checkinsCount":94,"usersCount":14,"tipCount":2},"categories":[{"id":"4bf58dd8d48988d186941735"}],"location":{"lat":51.50040472441325,"lng":-0.10695076770498865,"postalCode":"SE1 7"}},{"id":"4d4c61c81ae437048714f460","name":"Vodka Revolution","stats":{"checkinsCount":41,"usersCount":36,"tipCount":0},"categories":[{"id":"4bf58dd8d48988d116941735"}],"location":{"lat":51.4638485242217,"lng":-0.16830741453317158}},{"id":"4c49e1279f2ad13ad1b6e553","name":"Kasbah","stats":{"checkinsCount":37,"usersCount":35,"tipCount":0},"categories":[{"id":"4bf58dd8d48988d1c3941735"}],"location":{"lat":51.462524,"lng":-0.13792455196380615}},{"id":"4b4f52c2f964a5204c0127e3","name":"Eroma","stats":{"checkinsCount":115,"usersCount":11,"tipCount":0},"categories":[{"id":"4bf58dd8d48988d1e0931735"}],"location":{"lat":51.473391019833585,"lng":-0.0935983657836914,"postalCode":"SE5 8RZ"}},{"id":"4c474d961ddec9280fec9c32","name":"Park Tavern","stats":{"checkinsCount":80,"usersCount":17,"tipCount":2},"categories":[{"id":"4bf58dd8d48988d117941735"}],"location":{"lat":51.56819221250001,"lng":-0.111164,"postalCode":"N4 3AD"}},{"id":"4c4ca23bf5afa5935aa049d6","name":"Costcutter","stats":{"checkinsCount":62,"usersCount":32,"tipCount":3},"categories":[{"id":"4bf58dd8d48988d118951735"}],"location":{"lat":51.53109976776235,"lng":-0.06988961494411855}},{"id":"4d4eb983deabf04dd34fc524","name":"Spa London @ York Hall","stats":{"checkinsCount":40,"usersCount":31,"tipCount":3},"categories":[{"id":"4bf58dd8d48988d1ed941735"}],"location":{"lat":51.5294900445667,"lng":-0.055684505615031236,"postalCode":"E2 9"}},{"id":"4c406c3fce54e21ee372091a","name":"Fred Perry Spitalfields","stats":{"checkinsCount":41,"usersCount":27,"tipCount":0},"categories":[{"id":"4bf58dd8d48988d103951735"}],"location":{"lat":51.519471,"lng":-0.074645}},{"id":"4c435e0174ffc928be1774cc","name":"Askew Wines","stats":{"checkinsCount":75,"usersCount":21,"tipCount":3},"categories":[{"id":"4bf58dd8d48988d119951735"}],"location":{"lat":51.50362046995422,"lng":-0.24358749389648438,"postalCode":"W12 9BJ"}},{"id":"4c4ebd370d90b713c298d878","name":"Tabio","stats":{"checkinsCount":51,"usersCount":23,"tipCount":0},"categories":[{"id":"4bf58dd8d48988d109951735"}],"location":{"lat":51.500465791334854,"lng":-0.1950501474314432,"postalCode":"W8 6SU"}},{"id":"4e4f86ad2271a1bdc3df554e","name":"The Kooples","stats":{"checkinsCount":48,"usersCount":23,"tipCount":0},"categories":[{"id":"4bf58dd8d48988d104951735"}],"location":{"lat":51.500681,"lng":-0.194199,"postalCode":"W8 6SU"}},{"id":"4c4f3f2ea7351b8dede1cb92","name":"Chicken Cottage","stats":{"checkinsCount":52,"usersCount":38,"tipCount":0},"categories":[{"id":"4d4ae6fc7a7b7dea34424761"}],"location":{"lat":51.490175014834904,"lng":-0.20676612854003906}},{"id":"4c44bc3b429a0f479329491e","name":"Bistro Benito","stats":{"checkinsCount":41,"usersCount":36,"tipCount":6},"categories":[{"id":"4bf58dd8d48988d110941735"}],"location":{"lat":51.493878,"lng":-0.194991}},{"id":"4c4781b376d72d7f61733d4d","name":"AP Food 24/7","stats":{"checkinsCount":67,"usersCount":18,"tipCount":0},"categories":[{"id":"4bf58dd8d48988d118951735"}],"location":{"lat":51.49447,"lng":-0.178515}},{"id":"4f47e6cbe4b0bf7286f63334","name":"Greggs Kitchen","stats":{"checkinsCount":42,"usersCount":32,"tipCount":0},"categories":[{"id":"4bf58dd8d48988d155941735"}],"location":{"lat":51.49756248751639,"lng":-0.08095038882830868,"postalCode":"SE1 3UN"}},{"id":"4b473f7ef964a520872d26e3","name":"Fat Face","stats":{"checkinsCount":55,"usersCount":31,"tipCount":0},"categories":[{"id":"4bf58dd8d48988d103951735"}],"location":{"lat":51.52788316380853,"lng":-0.1330696977946211,"postalCode":"NW1"}},{"id":"4c44e1e8dcd61b8d7dfe7b56","name":"Vault","stats":{"checkinsCount":48,"usersCount":24,"tipCount":2},"categories":[{"id":"4bf58dd8d48988d1d8941735"}],"location":{"lat":51.523749,"lng":-0.138501,"postalCode":"W1T 5EN"}},{"id":"4d406f4aaae1b1f7bcf086f5","name":"La Ratatouille Paddington Street","stats":{"checkinsCount":38,"usersCount":26,"tipCount":1},"categories":[{"id":"4bf58dd8d48988d10c941735"}],"location":{"lat":51.520421,"lng":-0.155431}},{"id":"4f49405be4b0cf7a073a91e3","name":"Cotidie","stats":{"checkinsCount":51,"usersCount":35,"tipCount":1},"categories":[{"id":"4bf58dd8d48988d110941735"}],"location":{"lat":51.5216064453125,"lng":-0.15153129398822784,"postalCode":"W1U 5HN"}},{"id":"4d46bb6a3616b60c126afac2","name":"Pita Gourmet","stats":{"checkinsCount":53,"usersCount":31,"tipCount":0},"categories":[{"id":"4bf58dd8d48988d115941735"}],"location":{"lat":51.518432,"lng":-0.1375597,"postalCode":"W1T 3LT"}},{"id":"4e48286f14959d51c17a21de","name":"Josephine's Restaurant (Philippine Cuisine)","stats":{"checkinsCount":35,"usersCount":31,"tipCount":0},"categories":[{"id":"4bf58dd8d48988d1c4941735"}],"location":{"lat":51.5181980744975,"lng":-0.13442534737738804}},{"id":"4e4fdd2418383eb2af271ff6","name":"Porsche Design","stats":{"checkinsCount":61,"usersCount":30,"tipCount":1},"categories":[{"id":"4bf58dd8d48988d128951735"}],"location":{"lat":51.513901353058074,"lng":-0.14754740314018963}},{"id":"4e4826a8aeb70e74f4ab8055","name":"Rolls Royce Motor Cars London","stats":{"checkinsCount":52,"usersCount":26,"tipCount":0},"categories":[{"id":"4bf58dd8d48988d124951735"}],"location":{"lat":51.509706959999995,"lng":-0.145273}},{"id":"4c4717745438b713de38b67b","name":"The Great Frog","stats":{"checkinsCount":66,"usersCount":30,"tipCount":2},"categories":[{"id":"4bf58dd8d48988d111951735"}],"location":{"lat":51.513236,"lng":-0.138374,"postalCode":"W1F 7QR"}},{"id":"4c46e604972c0f4784f82121","name":"Sweaty Betty","stats":{"checkinsCount":45,"usersCount":21,"tipCount":1},"categories":[{"id":"4bf58dd8d48988d108951735"}],"location":{"lat":51.512143,"lng":-0.138162}},{"id":"4b484a94f964a520324b26e3","name":"Aquila Cafe","stats":{"checkinsCount":63,"usersCount":17,"tipCount":1},"categories":[{"id":"4bf58dd8d48988d1c5941735"}],"location":{"lat":51.52826350812216,"lng":-0.09226799011230469,"postalCode":"EC1V 2PN"}},{"id":"4b4e043bf964a52042de26e3","name":"Aperture Photographic","stats":{"checkinsCount":46,"usersCount":22,"tipCount":1},"categories":[{"id":"4eb1bdf03b7b55596b4a7491"}],"location":{"lat":51.517583,"lng":-0.125367,"postalCode":"WC1A 1LY"}},{"id":"4c443f3c2d3ec9b6bf8a2eae","name":"Wendell's","stats":{"checkinsCount":70,"usersCount":19,"tipCount":4},"categories":[{"id":"4bf58dd8d48988d146941735"}],"location":{"lat":51.51796993456295,"lng":-0.11333942413330078,"postalCode":"WC"}},{"id":"4c44b24474ffc92867ec75cc","name":"Le Deuxieme","stats":{"checkinsCount":33,"usersCount":31,"tipCount":0},"categories":[{"id":"4bf58dd8d48988d10c941735"}],"location":{"lat":51.5139457,"lng":-0.122999,"postalCode":"WC2E 9JD"}},{"id":"4c4456008c1f20a1ed383c99","name":"Bistro1 - Covent Garden","stats":{"checkinsCount":31,"usersCount":30,"tipCount":2},"categories":[{"id":"4bf58dd8d48988d1c0941735"}],"location":{"lat":51.51106835,"lng":-0.122125,"postalCode":"Wc2e 7he"}},{"id":"4b49a9edf964a520477226e3","name":"Crussh Juice Bar","stats":{"checkinsCount":74,"usersCount":25,"tipCount":1},"categories":[{"id":"4bf58dd8d48988d112941735"}],"location":{"lat":51.51472754927107,"lng":-0.10469524531748302,"postalCode":"EC4M7LH"}},{"id":"4c4995c46b26ef3be3c70638","name":"Burro Burrito","stats":{"checkinsCount":64,"usersCount":30,"tipCount":5},"categories":[{"id":"4bf58dd8d48988d153941735"}],"location":{"lat":51.513416522387836,"lng":-0.10295391082763672}},{"id":"4c405336e26920a12dab5ce7","name":"Chapters","stats":{"checkinsCount":74,"usersCount":24,"tipCount":0},"categories":[{"id":"4bf58dd8d48988d146941735"}],"location":{"lat":51.513333,"lng":-0.090833,"postalCode":"EC2R 8JR"}},{"id":"4b462fa4f964a520721926e3","name":"Artisan du Chocolat","stats":{"checkinsCount":50,"usersCount":35,"tipCount":7},"categories":[{"id":"4bf58dd8d48988d117951735"}],"location":{"lat":51.515342,"lng":-0.192468,"postalCode":"W2 4UL"}},{"id":"4b4ac3ebf964a5201e8e26e3","name":"Kalinka Russian Shop","stats":{"checkinsCount":52,"usersCount":36,"tipCount":1},"categories":[{"id":"4bf58dd8d48988d109941735"}],"location":{"lat":51.511221940713355,"lng":-0.18698327839243162,"postalCode":"W2 4QP"}},{"id":"4d4a6e2e11a36ea88551311c","name":"Terracafè","stats":{"checkinsCount":32,"usersCount":31,"tipCount":1},"categories":[{"id":"4bf58dd8d48988d16d941735"}],"location":{"lat":51.493108,"lng":-0.14646}},{"id":"4c432530520fa593692accac","name":"Terrace on the Strand","stats":{"checkinsCount":38,"usersCount":34,"tipCount":1},"categories":[{"id":"4bf58dd8d48988d1dc931735"}],"location":{"lat":51.50856884149056,"lng":-0.1251840591430664,"postalCode":"WC2N 5HX"}},{"id":"4c4c211a712ac9288952e06d","name":"The Church","stats":{"checkinsCount":37,"usersCount":29,"tipCount":2},"categories":[{"id":"4bf58dd8d48988d116941735"}],"location":{"lat":51.463073412051536,"lng":-0.16959742786079943,"postalCode":"SW11 1"}},{"id":"4c4c21bbf7b49c744aeb77c2","name":"La Bota","stats":{"checkinsCount":57,"usersCount":24,"tipCount":5},"categories":[{"id":"4bf58dd8d48988d1db931735"}],"location":{"lat":51.581318239446624,"lng":-0.12148797512054443,"postalCode":"N8 9DB"}},{"id":"4b40b859f964a5204aba25e3","name":"Columbia Road Market Coffee Cart","stats":{"checkinsCount":48,"usersCount":19,"tipCount":3},"categories":[{"id":"4bf58dd8d48988d1e0931735"}],"location":{"lat":51.52963836666667,"lng":-0.06993828333333332,"postalCode":"E2 7"}},{"id":"4b47b070f964a520aa3a26e3","name":"Curry Capital","stats":{"checkinsCount":31,"usersCount":30,"tipCount":1},"categories":[{"id":"4bf58dd8d48988d10f941735"}],"location":{"lat":51.52418277978318,"lng":-0.07154819370839263,"postalCode":"E1 6SA"}},{"id":"4c41db73ce54e21ebcad0b1a","name":"Delice de France","stats":{"checkinsCount":65,"usersCount":26,"tipCount":1},"categories":[{"id":"4bf58dd8d48988d1c4941735"}],"location":{"lat":51.518159172221615,"lng":-0.08210659649555102}},{"id":"4c4ade6abad7a59367a107ab","name":"Runners Need","stats":{"checkinsCount":35,"usersCount":26,"tipCount":1},"categories":[{"id":"4bf58dd8d48988d1f2941735"}],"location":{"lat":51.517265,"lng":-0.075404,"postalCode":"E1 7LQ"}},{"id":"4c4063e9a48d9c743d410c40","name":"Light Of India","stats":{"checkinsCount":50,"usersCount":39,"tipCount":2},"categories":[{"id":"4bf58dd8d48988d10f941735"}],"location":{"lat":51.494983534108314,"lng":-0.18284908205349265,"postalCode":"SW7 4PG"}},{"id":"4b4722f1f964a520d42b26e3","name":"Reiss, Jubilee Place","stats":{"checkinsCount":34,"usersCount":28,"tipCount":0},"categories":[{"id":"4bf58dd8d48988d103951735"}],"location":{"lat":51.5039373006612,"lng":-0.018774023211516094}},{"id":"4c448037f0bdd13a0fa4c9cc","name":"Melito","stats":{"checkinsCount":51,"usersCount":33,"tipCount":5},"categories":[{"id":"4bf58dd8d48988d1ca941735"}],"location":{"lat":51.515684,"lng":-0.141751}},{"id":"4c430e49e26920a11de160e7","name":"Crest of London","stats":{"checkinsCount":43,"usersCount":35,"tipCount":0},"categories":[{"id":"4bf58dd8d48988d128951735"}],"location":{"lat":51.51409569688883,"lng":-0.15134753237651125}},{"id":"4e4a5446b61c68864858862a","name":"Shouty Fruit Guy","stats":{"checkinsCount":72,"usersCount":18,"tipCount":1},"categories":[{"id":"4bf58dd8d48988d118951735"}],"location":{"lat":51.51764279842542,"lng":-0.11984243988990784}},{"id":"4c42febdcc410f47fc8aad61","name":"Rose Morris","stats":{"checkinsCount":50,"usersCount":39,"tipCount":0},"categories":[{"id":"4bf58dd8d48988d1fe941735"}],"location":{"lat":51.515106,"lng":-0.129729}},{"id":"4b4ce4fef964a52047c326e3","name":"pheonix bar","stats":{"checkinsCount":46,"usersCount":37,"tipCount":0},"categories":[{"id":"4bf58dd8d48988d116941735"}],"location":{"lat":51.514342,"lng":-0.129631}},{"id":"4b4ca70af964a520feb826e3","name":"Son of a Stag","stats":{"checkinsCount":52,"usersCount":37,"tipCount":4},"categories":[{"id":"4bf58dd8d48988d103951735"}],"location":{"lat":51.521091,"lng":-0.072508,"postalCode":"E1 6QL"}},{"id":"4d4d879e80cb6dcb854c1101","name":"Topshop","stats":{"checkinsCount":47,"usersCount":26,"tipCount":0},"categories":[{"id":"4bf58dd8d48988d103951735"}],"location":{"lat":51.504861171872435,"lng":-0.01954759031502853,"postalCode":"E14 5AB"}},{"id":"4d3aa0e0039eb60ca24ced9c","name":"Arts & Crusts","stats":{"checkinsCount":83,"usersCount":12,"tipCount":1},"categories":[{"id":"4bf58dd8d48988d16d941735"}],"location":{"lat":51.594589,"lng":-0.006477,"postalCode":"E17"}},{"id":"4d32120bc75a6ea8c5980aae","name":"Garip Supermaket","stats":{"checkinsCount":126,"usersCount":8,"tipCount":1},"categories":[{"id":"4bf58dd8d48988d118951735"}],"location":{"lat":51.60637832046244,"lng":-0.14750073669726307,"postalCode":"N10 2"}},{"id":"4f3a4b13a17c224158ea5216","name":"London 2012 Eton Manor","stats":{"checkinsCount":38,"usersCount":28,"tipCount":0},"categories":[{"id":"4bf58dd8d48988d184941735"}],"location":{"lat":51.55382048911971,"lng":-0.01609325408935547,"postalCode":"E14"}},{"id":"4e33e10681304e5c10615ab6","name":"Rosie's Cafe","stats":{"checkinsCount":65,"usersCount":16,"tipCount":2},"categories":[{"id":"4bf58dd8d48988d16d941735"}],"location":{"lat":51.4983509653836,"lng":-0.06611377000808716,"postalCode":"SE16 4SH"}},{"id":"4d355a1b6c7c721eed16ca56","name":"Darwin's Deli","stats":{"checkinsCount":136,"usersCount":12,"tipCount":0},"categories":[{"id":"4bf58dd8d48988d1c5941735"}],"location":{"lat":51.52831172352145,"lng":-0.14288454735710127}},{"id":"4f352418e4b0e4d04f1d683d","name":"Orchard: Vegetarian Kitchen and Grocer","stats":{"checkinsCount":39,"usersCount":28,"tipCount":1},"categories":[{"id":"4bf58dd8d48988d1d3941735"}],"location":{"lat":51.51840248413977,"lng":-0.12111907454086236}},{"id":"4d34e91feefa8cfac19e4fb3","name":"Nisa Local","stats":{"checkinsCount":141,"usersCount":14,"tipCount":1},"categories":[{"id":"4bf58dd8d48988d117951735"}],"location":{"lat":51.45418345928192,"lng":-0.120071,"postalCode":"SW2 1"}},{"id":"4e39a9a645dd9ef03f194272","name":"Trangallan","stats":{"checkinsCount":47,"usersCount":36,"tipCount":7},"categories":[{"id":"4bf58dd8d48988d155941735"}],"location":{"lat":51.551162,"lng":-0.08614480000000001}},{"id":"4c3ed5f00e0d0f476b11167f","name":"Crystal Cafe","stats":{"checkinsCount":54,"usersCount":19,"tipCount":2},"categories":[{"id":"4bf58dd8d48988d16d941735"}],"location":{"lat":51.55034390306201,"lng":-0.04317707631977696}},{"id":"4c34c083452620a1d2a4250f","name":"The Parson's Nose","stats":{"checkinsCount":79,"usersCount":20,"tipCount":1},"categories":[{"id":"4bf58dd8d48988d11d951735"}],"location":{"lat":51.467577319467374,"lng":-0.2215371810500886,"postalCode":"SW15 1LL"}},{"id":"4e33ebef62e1733d7aa6d57d","name":"WH Smith Mill Hill","stats":{"checkinsCount":119,"usersCount":10,"tipCount":0},"categories":[{"id":"4bf58dd8d48988d114951735"}],"location":{"lat":51.614383352703285,"lng":-0.24826901221598527}},{"id":"4c38b1ad93db0f47b6062292","name":"Shell garage","stats":{"checkinsCount":39,"usersCount":24,"tipCount":0},"categories":[{"id":"4bf58dd8d48988d113951735"}],"location":{"lat":51.596488873150584,"lng":-0.26295955817429817}},{"id":"4c33a6cf16adc928dbf8c39c","name":"Charlie's","stats":{"checkinsCount":51,"usersCount":33,"tipCount":2},"categories":[{"id":"4bf58dd8d48988d110941735"}],"location":{"lat":51.57125505545671,"lng":-0.1932692527770996}},{"id":"4c38989518e72d7f769118f5","name":"Greggs","stats":{"checkinsCount":103,"usersCount":12,"tipCount":0},"categories":[{"id":"4bf58dd8d48988d16a941735"}],"location":{"lat":51.614152,"lng":-0.064174}},{"id":"4c3c9741b36ac928f24a0486","name":"Obelisk","stats":{"checkinsCount":59,"usersCount":27,"tipCount":0},"categories":[{"id":"4bf58dd8d48988d116941735"}],"location":{"lat":51.617031,"lng":-0.017699,"postalCode":"E4 8DD"}},{"id":"4e32ebed18a846d7ed0d3c61","name":"Iceland","stats":{"checkinsCount":76,"usersCount":23,"tipCount":0},"categories":[{"id":"4bf58dd8d48988d118951735"}],"location":{"lat":51.53950234032649,"lng":-0.11703014373779297,"postalCode":"N1 1EE"}},{"id":"4f35712de4b064bef38d8eca","name":"Briciole","stats":{"checkinsCount":37,"usersCount":31,"tipCount":0},"categories":[{"id":"4bf58dd8d48988d110941735"}],"location":{"lat":51.51908986659269,"lng":-0.16404545527657688}},{"id":"4e369b3fd4c0634348396f24","name":"John Lewis Official London 2012 Olympics Shop","stats":{"checkinsCount":32,"usersCount":30,"tipCount":1},"categories":[{"id":"4bf58dd8d48988d128951735"}],"location":{"lat":51.51577708149908,"lng":-0.14541731436769814}},{"id":"4b35bdb2f964a520c72e25e3","name":"The Co-operative Food","stats":{"checkinsCount":60,"usersCount":22,"tipCount":2},"categories":[{"id":"4bf58dd8d48988d118951735"}],"location":{"lat":51.5293314499587,"lng":-0.09492874145507812,"postalCode":"EC1V 1JQ"}},{"id":"4b3cbf3bf964a520c78625e3","name":"Neal's Corner Sandwich Shop","stats":{"checkinsCount":54,"usersCount":24,"tipCount":0},"categories":[{"id":"4bf58dd8d48988d146941735"}],"location":{"lat":51.515127,"lng":-0.126821}},{"id":"4d320da32c76a1439d886cc7","name":"Top Secret Comedy","stats":{"checkinsCount":41,"usersCount":37,"tipCount":1},"categories":[{"id":"4bf58dd8d48988d18e941735"}],"location":{"lat":51.51183945730856,"lng":-0.12458814257259673,"postalCode":"Wc2e 8jt"}},{"id":"4e3fbeb47d8b0e961086913a","name":"Edith Cavel Statue","stats":{"checkinsCount":49,"usersCount":31,"tipCount":0},"categories":[{"id":"4deefb944765f83613cdba6e"}],"location":{"lat":51.509394,"lng":-0.12699}},{"id":"4b3cfb83f964a520188b25e3","name":"The Khas Tandoori","stats":{"checkinsCount":47,"usersCount":25,"tipCount":3},"categories":[{"id":"4bf58dd8d48988d10f941735"}],"location":{"lat":51.531941,"lng":-0.21737,"postalCode":"NW10 3NB"}},{"id":"4c3f254a51dee21e738feb6e","name":"Abbey Road Studios Penthouse","stats":{"checkinsCount":50,"usersCount":37,"tipCount":1},"categories":[{"id":"4bf58dd8d48988d1e5931735"}],"location":{"lat":51.53215766,"lng":-0.177535}},{"id":"4e3ebc3c52b1a04aff28cb2f","name":"Islamic Middle East Gallery, V&A Museum","stats":{"checkinsCount":36,"usersCount":32,"tipCount":0},"categories":[{"id":"4bf58dd8d48988d18f941735"}],"location":{"lat":51.49653018442172,"lng":-0.1715591467953631}},{"id":"4d39e480cc48224b16fc374f","name":"Amaranto Restaurant at Four Seasons Hotel London at Park Lane","stats":{"checkinsCount":49,"usersCount":32,"tipCount":2},"categories":[{"id":"4bf58dd8d48988d110941735"}],"location":{"lat":51.50454874793857,"lng":-0.14964580535888672,"postalCode":"W1J 7DR"}},{"id":"4c39c2882c8020a113248d00","name":"Memories Of China","stats":{"checkinsCount":39,"usersCount":28,"tipCount":2},"categories":[{"id":"4bf58dd8d48988d142941735"}],"location":{"lat":51.49417181336259,"lng":-0.14889404835486314,"postalCode":"SW1W 9"}},{"id":"4f3727e8e4b0a67fec0343b0","name":"Пандочка Флэт","stats":{"checkinsCount":98,"usersCount":15,"tipCount":1},"categories":[{"id":"4bf58dd8d48988d1d6941735"}],"location":{"lat":51.482324,"lng":-0.148011,"postalCode":"Sw8 4nl"}},{"id":"4c331c7a7cc0c9b6ef35f19a","name":"CBB @ MediaEdge CIA","stats":{"checkinsCount":82,"usersCount":12,"tipCount":2},"categories":[{"id":"4bf58dd8d48988d16d941735"}],"location":{"lat":51.505669,"lng":-0.106338}},{"id":"4b3c6638f964a5203d8425e3","name":"Tumnan Thai","stats":{"checkinsCount":36,"usersCount":28,"tipCount":3},"categories":[{"id":"4bf58dd8d48988d149941735"}],"location":{"lat":51.464947,"lng":-0.159081,"postalCode":"Sw11 5QH"}},{"id":"4c30d19ea0ced13a3eb6126e","name":"Tokyo Jo Cafe","stats":{"checkinsCount":37,"usersCount":27,"tipCount":3},"categories":[{"id":"4bf58dd8d48988d111941735"}],"location":{"lat":51.46536432358393,"lng":-0.1561582088470459,"postalCode":"SW11 5QJ"}},{"id":"4f36cda5e4b00af1794f9e73","name":"Bistro Union","stats":{"checkinsCount":46,"usersCount":30,"tipCount":2},"categories":[{"id":"4bf58dd8d48988d1c4941735"}],"location":{"lat":51.45437741730273,"lng":-0.13986148127643608,"postalCode":"SW4 6NG"}},{"id":"4e3181ac62e1b4089fc87524","name":"Fruit Garden","stats":{"checkinsCount":59,"usersCount":22,"tipCount":0},"categories":[{"id":"4bf58dd8d48988d1fa941735"}],"location":{"lat":51.45395905707506,"lng":-0.10252111763143573}},{"id":"4c38b9850a71c9b6d82d41c9","name":"Crystal Restaurant","stats":{"checkinsCount":44,"usersCount":25,"tipCount":3},"categories":[{"id":"4bf58dd8d48988d1c0941735"}],"location":{"lat":51.596213,"lng":-0.1091952}},{"id":"4c32eb8dac0ab713db981c1e","name":"Maqsood News","stats":{"checkinsCount":93,"usersCount":11,"tipCount":2},"categories":[{"id":"4d954b0ea243a5684a65b473"}],"location":{"lat":51.58122223299623,"lng":-0.09964881837368011,"postalCode":"N4 1AL"}},{"id":"4c39c8f93849c928e7c7c1b1","name":"Coffee8","stats":{"checkinsCount":76,"usersCount":20,"tipCount":4},"categories":[{"id":"4bf58dd8d48988d1e0931735"}],"location":{"lat":51.547606058578054,"lng":-0.0546795129776001,"postalCode":"E8 1HR"}},{"id":"4e371e95fa7606f143f817c7","name":"Golden Grill","stats":{"checkinsCount":65,"usersCount":23,"tipCount":1},"categories":[{"id":"4bf58dd8d48988d115941735"}],"location":{"lat":51.530777,"lng":-0.072545,"postalCode":"E2 7QL"}},{"id":"4b3095a4f964a5204dfa24e3","name":"Aran","stats":{"checkinsCount":70,"usersCount":16,"tipCount":0},"categories":[{"id":"4bf58dd8d48988d16d941735"}],"location":{"lat":51.516216,"lng":-0.082403}},{"id":"4b38d20bf964a520b85025e3","name":"Scribbler","stats":{"checkinsCount":46,"usersCount":20,"tipCount":0},"categories":[{"id":"4bf58dd8d48988d128951735"}],"location":{"lat":51.517877,"lng":-0.082312,"postalCode":"EC2M 7QA"}},{"id":"4e3ab76845dd8baba0019791","name":"Mappin & Webb","stats":{"checkinsCount":103,"usersCount":11,"tipCount":0},"categories":[{"id":"4bf58dd8d48988d111951735"}],"location":{"lat":51.51189416576637,"lng":-0.08106708526611328}},{"id":"4e343a5181304e5c106193b7","name":"Subway","stats":{"checkinsCount":46,"usersCount":23,"tipCount":0},"categories":[{"id":"4bf58dd8d48988d1c5941735"}],"location":{"lat":51.51196093686036,"lng":-0.08094638586044312,"postalCode":"EC3M 5BP"}},{"id":"4e3fe4e6d164b52911cbc6c8","name":"Papa Johns Docklands","stats":{"checkinsCount":69,"usersCount":22,"tipCount":0},"categories":[{"id":"4bf58dd8d48988d1ca941735"}],"location":{"lat":51.51149370158582,"lng":-0.008989238192252927,"postalCode":"E14 0EG"}},{"id":"4b332b1ef964a520ee1725e3","name":"Macken Bros Butchers","stats":{"checkinsCount":44,"usersCount":23,"tipCount":1},"categories":[{"id":"4bf58dd8d48988d11d951735"}],"location":{"lat":51.493772864341736,"lng":-0.2553516626358032,"postalCode":"W4 1QP"}},{"id":"4d322e2472a8b1f705c39bd0","name":"Karaoke jungle","stats":{"checkinsCount":45,"usersCount":31,"tipCount":0},"categories":[{"id":"4bf58dd8d48988d120941735"}],"location":{"lat":51.489720752362466,"lng":-0.21225929260253906,"postalCode":"W14 9DT"}},{"id":"4c361d602c8020a10dc58600","name":"Pagliaccio","stats":{"checkinsCount":46,"usersCount":26,"tipCount":4},"categories":[{"id":"4bf58dd8d48988d110941735"}],"location":{"lat":51.47073584136077,"lng":-0.1911555366407514}},{"id":"4b36113df964a520f12f25e3","name":"Bagel Factory","stats":{"checkinsCount":54,"usersCount":35,"tipCount":3},"categories":[{"id":"4bf58dd8d48988d179941735"}],"location":{"lat":51.5061217546463,"lng":-0.083353}},{"id":"4c35c12d3896e21e549eed90","name":"Costcutter","stats":{"checkinsCount":79,"usersCount":18,"tipCount":0},"categories":[{"id":"4bf58dd8d48988d118951735"}],"location":{"lat":51.50236171407687,"lng":-0.08091192887808533,"postalCode":"SE1 2TU"}},{"id":"4c30a7ddac0ab713e60a1c1e","name":"Castello","stats":{"checkinsCount":44,"usersCount":33,"tipCount":1},"categories":[{"id":"4bf58dd8d48988d110941735"}],"location":{"lat":51.49842917919159,"lng":-0.061411,"postalCode":"SE16 4RT"}},{"id":"4e332c2a88772aabd8a9938d","name":"McDonald's","stats":{"checkinsCount":40,"usersCount":31,"tipCount":1},"categories":[{"id":"4bf58dd8d48988d16e941735"}],"location":{"lat":51.470674,"lng":-0.069141}},{"id":"4e35993db61cddd1cd3f2805","name":"Brayards Road Shop","stats":{"checkinsCount":125,"usersCount":10,"tipCount":1},"categories":[{"id":"4d954b0ea243a5684a65b473"}],"location":{"lat":51.469489,"lng":-0.056012,"postalCode":"SE15 2BX"}},{"id":"4e3ad3b7d164c429b72f5d9d","name":"Mo Pho","stats":{"checkinsCount":45,"usersCount":29,"tipCount":1},"categories":[{"id":"4bf58dd8d48988d14a941735"}],"location":{"lat":51.463836,"lng":-0.036308}},{"id":"4e3d1d03e4cdab9b933e6409","name":"Chewie's","stats":{"checkinsCount":78,"usersCount":17,"tipCount":4},"categories":[{"id":"4bf58dd8d48988d16a941735"}],"location":{"lat":51.546571,"lng":-0.15722}},