[{"id":"4c0cee5ed64c0f479dde255d","name":"Belsize Kitchen","stats":{"checkinsCount":113,"usersCount":54,"tipCount":2},"categories":[{"id":"4bf58dd8d48988d16a941735"}],"location":{"lat":51.5489504222725,"lng":-0.17174720764160156,"postalCode":"NW3"}},{"id":"4b0e428af964a5206d5623e3","name":"Jin Kichi","stats":{"checkinsCount":82,"usersCount":64,"tipCount":4},"categories":[{"id":"4bf58dd8d48988d111941735"}],"location":{"lat":51.557179,"lng":-0.178302,"postalCode":"NW3"}},{"id":"4e0c4c1cd22d9e3b2fc0d77d","name":"Franks Sandwich Bar","stats":{"checkinsCount":174,"usersCount":41,"tipCount":1},"categories":[{"id":"4bf58dd8d48988d1c5941735"}],"location":{"lat":51.49592638791004,"lng":-0.20778536796569824,"postalCode":"W14 8XP"}},{"id":"4c02a6a8f56c2d7fa9b71b66","name":"Costcutter","stats":{"checkinsCount":174,"usersCount":42,"tipCount":1},"categories":[{"id":"4bf58dd8d48988d118951735"}],"location":{"lat":51.57104703112449,"lng":-0.09591825745962979,"postalCode":"N4 1BX"}},{"id":"4c00caa7ad46c9b620139066","name":"Tesco Express","stats":{"checkinsCount":100,"usersCount":45,"tipCount":1},"categories":[{"id":"4bf58dd8d48988d118951735"}],"location":{"lat":51.5618116059672,"lng":-0.010342597961425781,"postalCode":"E105NA"}},{"id":"4c0a225dffb8c9b6c9106b61","name":"Costa Coffee","stats":{"checkinsCount":106,"usersCount":48,"tipCount":2},"categories":[{"id":"4bf58dd8d48988d16d941735"}],"location":{"lat":51.51606665680139,"lng":-0.061980249606390383}},{"id":"4c0d34a7336220a1e65fca77","name":"Opera Holland Park","stats":{"checkinsCount":103,"usersCount":74,"tipCount":0},"categories":[{"id":"4bf58dd8d48988d136941735"}],"location":{"lat":51.50220036506653,"lng":-0.202295}},{"id":"4b0ad159f964a520572823e3","name":"Colton Arms","stats":{"checkinsCount":109,"usersCount":42,"tipCount":5},"categories":[{"id":"4bf58dd8d48988d11b941735"}],"location":{"lat":51.486416,"lng":-0.210751,"postalCode":"W14 9SD"}},{"id":"4e072de5483b98d4170ebca7","name":"The Rylston","stats":{"checkinsCount":139,"usersCount":43,"tipCount":2},"categories":[{"id":"4bf58dd8d48988d116941735"}],"location":{"lat":51.4836884,"lng":-0.20693}},{"id":"4c0a288b340720a1d3f48593","name":"Lakeland","stats":{"checkinsCount":84,"usersCount":54,"tipCount":0},"categories":[{"id":"4bf58dd8d48988d1f8941735"}],"location":{"lat":51.57248202636849,"lng":-0.22436141967773438}},{"id":"4c0a80ffa1b32d7f086799f0","name":"Sports Direct","stats":{"checkinsCount":92,"usersCount":58,"tipCount":0},"categories":[{"id":"4bf58dd8d48988d1f2941735"}],"location":{"lat":51.53722226327054,"lng":-0.14148,"postalCode":"NW1 7JS"}},{"id":"4b0325e0f964a520084d22e3","name":"String Ray Cafe","stats":{"checkinsCount":103,"usersCount":65,"tipCount":8},"categories":[{"id":"4bf58dd8d48988d1ca941735"}],"location":{"lat":51.554434,"lng":-0.098188}},{"id":"4b091714f964a520361423e3","name":"Kika","stats":{"checkinsCount":95,"usersCount":51,"tipCount":3},"categories":[{"id":"4bf58dd8d48988d16d941735"}],"location":{"lat":51.546827,"lng":-0.098645,"postalCode":"N1 2JL"}},{"id":"4c0bb1b8a1b32d7f94549bf0","name":"Mori","stats":{"checkinsCount":100,"usersCount":43,"tipCount":3},"categories":[{"id":"4bf58dd8d48988d111941735"}],"location":{"lat":51.532999479662735,"lng":-0.1698952691122457,"postalCode":"NW8 7SH"}},{"id":"4c0b9465340720a17e4a8893","name":"Cucina Express","stats":{"checkinsCount":253,"usersCount":29,"tipCount":5},"categories":[{"id":"4bf58dd8d48988d149941735"}],"location":{"lat":51.509098,"lng":-0.142972,"postalCode":"W1S 4NB"}},{"id":"4b0d285df964a5202a4423e3","name":"Embankment Cafe","stats":{"checkinsCount":80,"usersCount":58,"tipCount":6},"categories":[{"id":"4bf58dd8d48988d16d941735"}],"location":{"lat":51.50846465048162,"lng":-0.12111178176345391,"postalCode":"WC2R 2PN"}},{"id":"4b0982b5f964a520801823e3","name":"Ziani","stats":{"checkinsCount":116,"usersCount":46,"tipCount":0},"categories":[{"id":"4bf58dd8d48988d110941735"}],"location":{"lat":51.49022698402405,"lng":-0.164584}},{"id":"4b02a6d5f964a5203d4922e3","name":"Caffè Quattro","stats":{"checkinsCount":131,"usersCount":37,"tipCount":1},"categories":[{"id":"4bf58dd8d48988d1c5941735"}],"location":{"lat":51.50340975195683,"lng":-0.11556261319657225,"postalCode":"SE1 7"}},{"id":"4e05e0f618a8382643a99e2b","name":"Waterloo Theatre","stats":{"checkinsCount":93,"usersCount":62,"tipCount":1},"categories":[{"id":"4bf58dd8d48988d137941735"}],"location":{"lat":51.501616,"lng":-0.115533}},{"id":"4c0174b20bce20a198c7f6c6","name":"Jamm","stats":{"checkinsCount":95,"usersCount":64,"tipCount":2},"categories":[{"id":"4bf58dd8d48988d116941735"}],"location":{"lat":51.470682,"lng":-0.11236335}},{"id":"4c0b75e87e3fc928a956f582","name":"Costa Coffee","stats":{"checkinsCount":147,"usersCount":50,"tipCount":3},"categories":[{"id":"4bf58dd8d48988d16d941735"}],"location":{"lat":51.591385,"lng":-0.14265,"postalCode":"N10 1DJ"}},{"id":"4f0997bde4b0882d2441d2d6","name":"The House","stats":{"checkinsCount":95,"usersCount":68,"tipCount":5},"categories":[{"id":"4bf58dd8d48988d1bc941735"}],"location":{"lat":51.56113764002906,"lng":-0.08607219443004129}},{"id":"4c07ac0f8a81c9b6b98a2790","name":"Little Driver","stats":{"checkinsCount":112,"usersCount":55,"tipCount":4},"categories":[{"id":"4bf58dd8d48988d11b941735"}],"location":{"lat":51.52780664764416,"lng":-0.022501,"postalCode":"E3 2AN"}},{"id":"4b07fffaf964a5201a0223e3","name":"As Nature Intended","stats":{"checkinsCount":112,"usersCount":39,"tipCount":2},"categories":[{"id":"4bf58dd8d48988d1f9941735"}],"location":{"lat":51.492552,"lng":-0.25783,"postalCode":"W4 2DR"}},{"id":"4c063b4d191f20a16927e414","name":"Aroma","stats":{"checkinsCount":81,"usersCount":63,"tipCount":1},"categories":[{"id":"4bf58dd8d48988d145941735"}],"location":{"lat":51.504556067497724,"lng":-0.2192161560154187}},{"id":"4c0f69482466a593198a7a21","name":"Budgens Fulham","stats":{"checkinsCount":126,"usersCount":39,"tipCount":1},"categories":[{"id":"4bf58dd8d48988d118951735"}],"location":{"lat":51.48034750204407,"lng":-0.21247060051157424}},{"id":"4b0ed0c4f964a520775b23e3","name":"Two Brothers Fish Restaurant","stats":{"checkinsCount":101,"usersCount":62,"tipCount":3},"categories":[{"id":"4bf58dd8d48988d1ce941735"}],"location":{"lat":51.599242,"lng":-0.196039}},{"id":"4b01d0a7f964a520a94522e3","name":"Bikram Yoga North","stats":{"checkinsCount":128,"usersCount":35,"tipCount":4},"categories":[{"id":"4bf58dd8d48988d102941735"}],"location":{"lat":51.55046574919389,"lng":-0.15077771569743592,"postalCode":"NW5 4DS"}},{"id":"4b0ed08df964a520725b23e3","name":"AMV Bar","stats":{"checkinsCount":143,"usersCount":36,"tipCount":1},"categories":[{"id":"4bf58dd8d48988d116941735"}],"location":{"lat":51.521215,"lng":-0.162761}},{"id":"4b080660f964a520790223e3","name":"Cafe Lido","stats":{"checkinsCount":95,"usersCount":66,"tipCount":5},"categories":[{"id":"4bf58dd8d48988d110941735"}],"location":{"lat":51.515873552068,"lng":-0.14266133308410645,"postalCode":"W1G 0HY"}},{"id":"4c07cd72a0129c74b397d2c9","name":"Reiss","stats":{"checkinsCount":91,"usersCount":76,"tipCount":1},"categories":[{"id":"4bf58dd8d48988d1f4941735"}],"location":{"lat":51.512141218325326,"lng":-0.1397109031677246,"postalCode":"W1B 4JH"}},{"id":"4c0cd67ad64c0f4794b6255d","name":"Cowshed Carnaby Soho","stats":{"checkinsCount":76,"usersCount":58,"tipCount":1},"categories":[{"id":"4bf58dd8d48988d1ed941735"}],"location":{"lat":51.51373724532329,"lng":-0.1389931645371657,"postalCode":"W1F 7QG"}},{"id":"4e063cf8d22d6585329e95b5","name":"Piccadily Institute","stats":{"checkinsCount":77,"usersCount":68,"tipCount":1},"categories":[{"id":"4bf58dd8d48988d11f941735"}],"location":{"lat":51.509625622634125,"lng":-0.1338368897262881,"postalCode":"SW1Y 4"}},{"id":"4b094cb7f964a520641523e3","name":"Butlers","stats":{"checkinsCount":97,"usersCount":53,"tipCount":1},"categories":[{"id":"4bf58dd8d48988d1f8941735"}],"location":{"lat":51.534162685364606,"lng":-0.10649677875214672,"postalCode":"N1 0PS"}},{"id":"4b0fe11ef964a520c46523e3","name":"Kennedy's of Goswell Road","stats":{"checkinsCount":79,"usersCount":54,"tipCount":7},"categories":[{"id":"4bf58dd8d48988d16e941735"}],"location":{"lat":51.526243,"lng":-0.100087,"postalCode":"EC1V 7DT"}},{"id":"4c0a4458340720a192158693","name":"Neo","stats":{"checkinsCount":103,"usersCount":70,"tipCount":1},"categories":[{"id":"4bf58dd8d48988d116941735"}],"location":{"lat":51.520605,"lng":-0.097873,"postalCode":"EC1M 6AD"}},{"id":"4f05a1955c5c4a361abab0b3","name":"Garfunkels","stats":{"checkinsCount":82,"usersCount":77,"tipCount":0},"categories":[{"id":"4bf58dd8d48988d14e941735"}],"location":{"lat":51.513957,"lng":-0.101752}},{"id":"4c07f52f340720a1bd5e8293","name":"Greens Restaurant & Oyster Bar","stats":{"checkinsCount":77,"usersCount":58,"tipCount":1},"categories":[{"id":"4bf58dd8d48988d10c941735"}],"location":{"lat":51.513157,"lng":-0.087724,"postalCode":"EC3V 3ND"}},{"id":"4d0cc138e0b98cfafe13d793","name":"Costa Coffee","stats":{"checkinsCount":127,"usersCount":54,"tipCount":2},"categories":[{"id":"4bf58dd8d48988d1e0931735"}],"location":{"lat":51.53570854363371,"lng":-0.20531505346298218,"postalCode":"NW6 6NH"}},{"id":"4c000dfedaf9c9b66730fbef","name":"Miyama","stats":{"checkinsCount":82,"usersCount":53,"tipCount":1},"categories":[{"id":"4bf58dd8d48988d1d2941735"}],"location":{"lat":51.506837,"lng":-0.14523}},{"id":"4e0cc10a1838fa426acb5d28","name":"Billy Elliot","stats":{"checkinsCount":89,"usersCount":80,"tipCount":0},"categories":[{"id":"4bf58dd8d48988d137941735"}],"location":{"lat":51.496555,"lng":-0.14265604263771844}},{"id":"4d066dd954d0236aaf3cf9d5","name":"marks and spencers","stats":{"checkinsCount":102,"usersCount":42,"tipCount":1},"categories":[{"id":"4bf58dd8d48988d1f9941735"}],"location":{"lat":51.462184,"lng":-0.167389}},{"id":"4c098d756071a5939427de32","name":"The Thai restaurant Clapham","stats":{"checkinsCount":134,"usersCount":41,"tipCount":0},"categories":[{"id":"4bf58dd8d48988d149941735"}],"location":{"lat":51.45886,"lng":-0.16631}},{"id":"4c0f842e15c2ef3b1c721b08","name":"Subway","stats":{"checkinsCount":113,"usersCount":62,"tipCount":1},"categories":[{"id":"4bf58dd8d48988d1c5941735"}],"location":{"lat":51.46251976490021,"lng":-0.115397,"postalCode":"SW9 8BN"}},{"id":"4b029901f964a520084922e3","name":"Harman (Mediterranean Cuisine)","stats":{"checkinsCount":112,"usersCount":55,"tipCount":6},"categories":[{"id":"4bf58dd8d48988d1c0941735"}],"location":{"lat":51.565147,"lng":-0.133353,"postalCode":"N19 5SE"}},{"id":"4c0c2232340720a15c398993","name":"Archway Kebab Center","stats":{"checkinsCount":107,"usersCount":52,"tipCount":4},"categories":[{"id":"4bf58dd8d48988d1c0941735"}],"location":{"lat":51.5649513764395,"lng":-0.1331727075870799,"postalCode":"N19 3"}},{"id":"4b0ed99ef964a520df5b23e3","name":"Ye Olde Axe","stats":{"checkinsCount":86,"usersCount":73,"tipCount":3},"categories":[{"id":"4bf58dd8d48988d118941735"}],"location":{"lat":51.528897,"lng":-0.075357,"postalCode":"E2 8ET"}},{"id":"4c001a14369476b032dd8e1f","name":"Anise Bar & Lounge","stats":{"checkinsCount":88,"usersCount":69,"tipCount":1},"categories":[{"id":"4bf58dd8d48988d116941735"}],"location":{"lat":51.51708171138831,"lng":-0.07863753701547645}},{"id":"4c040137187ec9283d6fb67b","name":"Esprit","stats":{"checkinsCount":75,"usersCount":60,"tipCount":0},"categories":[{"id":"4bf58dd8d48988d103951735"}],"location":{"lat":51.507782,"lng":-0.22265732,"postalCode":"W12 7SF"}},{"id":"4b001ba9f964a520cc3a22e3","name":"Robert Dyas","stats":{"checkinsCount":120,"usersCount":48,"tipCount":1},"categories":[{"id":"4bf58dd8d48988d112951735"}],"location":{"lat":51.49973273277283,"lng":-0.19707798957824707,"postalCode":"W8 6BA"}},{"id":"4c0c01edffb8c9b6ab206e61","name":"The Barrow Boy","stats":{"checkinsCount":80,"usersCount":56,"tipCount":3},"categories":[{"id":"4bf58dd8d48988d155941735"}],"location":{"lat":51.482989,"lng":-0.200624}},{"id":"4e0ec778483bc2b5f48576b6","name":"Starbucks Chelsea & Westminster Hospital","stats":{"checkinsCount":90,"usersCount":49,"tipCount":0},"categories":[{"id":"4bf58dd8d48988d1e0931735"}],"location":{"lat":51.485247,"lng":-0.182064,"postalCode":"SW10"}},{"id":"4e0f1f89ae603a50b5493d8f","name":"Triyoga Chelsea","stats":{"checkinsCount":156,"usersCount":48,"tipCount":5},"categories":[{"id":"4bf58dd8d48988d102941735"}],"location":{"lat":51.484152,"lng":-0.176187,"postalCode":"SW3 5UZ"}},{"id":"4c056fed761ac9b64e851f74","name":"Boots - Fulham Broadway","stats":{"checkinsCount":141,"usersCount":44,"tipCount":1},"categories":[{"id":"4bf58dd8d48988d10f951735"}],"location":{"lat":51.480028136084215,"lng":-0.19406257165232968}},{"id":"4b0bcccbf964a520ba3323e3","name":"Doukan","stats":{"checkinsCount":86,"usersCount":59,"tipCount":3},"categories":[{"id":"4bf58dd8d48988d116941735"}],"location":{"lat":51.460121870040894,"lng":-0.18880069255828857,"postalCode":"SW18 1SS"}},{"id":"4b0122bef964a520c54122e3","name":"Maltings Cafe","stats":{"checkinsCount":140,"usersCount":40,"tipCount":5},"categories":[{"id":"4bf58dd8d48988d1e0931735"}],"location":{"lat":51.500803,"lng":-0.078491,"postalCode":"SE1"}},{"id":"4c0bdadfbbc676b0ec204cd5","name":"Byblos","stats":{"checkinsCount":159,"usersCount":34,"tipCount":4},"categories":[{"id":"4bf58dd8d48988d115941735"}],"location":{"lat":51.497147933220546,"lng":-0.01575153288681007}},{"id":"4c01a6f0f8492d7f803b5ffa","name":"Hisar","stats":{"checkinsCount":81,"usersCount":55,"tipCount":3},"categories":[{"id":"4bf58dd8d48988d115941735"}],"location":{"lat":51.459005,"lng":-0.07494,"postalCode":"SE22 8EP"}},{"id":"4c013217d715c928a7acfce3","name":"Music & Video Exchange","stats":{"checkinsCount":108,"usersCount":74,"tipCount":0},"categories":[{"id":"4bf58dd8d48988d10d951735"}],"location":{"lat":51.540328,"lng":-0.143744}},{"id":"4c06433791d776b06a88f8f9","name":"Pasha Restaurant","stats":{"checkinsCount":99,"usersCount":79,"tipCount":3},"categories":[{"id":"4bf58dd8d48988d1c0941735"}],"location":{"lat":51.53885002474093,"lng":-0.10225226934781192,"postalCode":"N1 2TU"}},{"id":"4b0cf452f964a520cf4223e3","name":"Subway","stats":{"checkinsCount":102,"usersCount":75,"tipCount":0},"categories":[{"id":"4bf58dd8d48988d1c5941735"}],"location":{"lat":51.516426,"lng":-0.135945,"postalCode":"W1T"}},{"id":"4c03e75039d476b0cdb130a7","name":"Reiss","stats":{"checkinsCount":81,"usersCount":67,"tipCount":1},"categories":[{"id":"4bf58dd8d48988d103951735"}],"location":{"lat":51.51498556478714,"lng":-0.15119075775146484,"postalCode":"W1U 1BA"}},{"id":"4b0ad0c1f964a5204a2823e3","name":"Bonhams","stats":{"checkinsCount":107,"usersCount":60,"tipCount":0},"categories":[{"id":"4bf58dd8d48988d1e2931735"}],"location":{"lat":51.513590182208375,"lng":-0.14620174901415825}},{"id":"4b069839f964a52086ed22e3","name":"Sakana-Tei","stats":{"checkinsCount":105,"usersCount":50,"tipCount":0},"categories":[{"id":"4bf58dd8d48988d111941735"}],"location":{"lat":51.513396,"lng":-0.14162}},{"id":"4f05b3be9a523e111f7288c2","name":"Cafe Gourmand","stats":{"checkinsCount":114,"usersCount":66,"tipCount":3},"categories":[{"id":"4bf58dd8d48988d10c941735"}],"location":{"lat":51.5132474861795,"lng":-0.13641184512896393}},{"id":"4c022880cbd876b0cdf7f043","name":"Don Quixote Cafe","stats":{"checkinsCount":136,"usersCount":56,"tipCount":6},"categories":[{"id":"4bf58dd8d48988d16d941735"}],"location":{"lat":51.516446,"lng":-0.119761}},{"id":"4f05928bbe7bf2206ee29cb5","name":"Caffe Vergnano 1882","stats":{"checkinsCount":74,"usersCount":61,"tipCount":0},"categories":[{"id":"4bf58dd8d48988d1e0931735"}],"location":{"lat":51.518341064453125,"lng":-0.11126768589019775,"postalCode":"WC1V 7PX"}},{"id":"4b03f4ddf964a520ac5022e3","name":"The Actors Centre","stats":{"checkinsCount":144,"usersCount":45,"tipCount":1},"categories":[{"id":"4bf58dd8d48988d137941735"}],"location":{"lat":51.513453,"lng":-0.128186,"postalCode":"WC2H 9NP"}},{"id":"4b0a774df964a5203c2423e3","name":"Cafe Miro","stats":{"checkinsCount":150,"usersCount":43,"tipCount":3},"categories":[{"id":"4bf58dd8d48988d16d941735"}],"location":{"lat":51.5152579,"lng":-0.1214778,"postalCode":"WC2B 5AA"}},{"id":"4b08704ff964a520e50b23e3","name":"Raduno","stats":{"checkinsCount":102,"usersCount":74,"tipCount":2},"categories":[{"id":"4bf58dd8d48988d116941735"}],"location":{"lat":51.51963236,"lng":-0.101968,"postalCode":"EC1M 6HJ"}},{"id":"4c0f543a98102d7fd211e506","name":"Barista Coffee House","stats":{"checkinsCount":114,"usersCount":38,"tipCount":2},"categories":[{"id":"4bf58dd8d48988d16d941735"}],"location":{"lat":51.54668139906801,"lng":-0.18041067689592724}},{"id":"4c0501dc3846b713f458d7a3","name":"Wrap It Up","stats":{"checkinsCount":118,"usersCount":55,"tipCount":5},"categories":[{"id":"4bf58dd8d48988d153941735"}],"location":{"lat":51.50763396766471,"lng":-0.1228022575378418,"postalCode":"WC2N 6NE"}},{"id":"4e0c5c7c7d8bfe35bbc0c861","name":"Bellamys, House of Commons","stats":{"checkinsCount":144,"usersCount":31,"tipCount":0},"categories":[{"id":"4bf58dd8d48988d1c4941735"}],"location":{"lat":51.501361372103766,"lng":-0.12598564646828023,"postalCode":"SW1"}},{"id":"4c00131892a6c928c79a43e2","name":"Ecco","stats":{"checkinsCount":103,"usersCount":59,"tipCount":5},"categories":[{"id":"4bf58dd8d48988d110941735"}],"location":{"lat":51.46235,"lng":-0.136616}},{"id":"4c0b886da1b32d7ff1219bf0","name":"Subway","stats":{"checkinsCount":106,"usersCount":54,"tipCount":1},"categories":[{"id":"4bf58dd8d48988d1c5941735"}],"location":{"lat":51.56449945405176,"lng":-0.10470271110534668,"postalCode":"N4 2HY"}},{"id":"4b040924f964a520055122e3","name":"Pret A Manger","stats":{"checkinsCount":81,"usersCount":52,"tipCount":0},"categories":[{"id":"4bf58dd8d48988d1c5941735"}],"location":{"lat":51.519432,"lng":-0.078872,"postalCode":"EC2M 3WA"}},{"id":"4c0f95d41281c9b663c11e1d","name":"WHSmith","stats":{"checkinsCount":164,"usersCount":32,"tipCount":0},"categories":[{"id":"4bf58dd8d48988d114951735"}],"location":{"lat":51.51137099015754,"lng":-0.0778016806765476,"postalCode":"EC3M 4AJ"}},{"id":"4c09470e6071a5931aa2dd32","name":"Chip+Fish","stats":{"checkinsCount":77,"usersCount":67,"tipCount":6},"categories":[{"id":"4bf58dd8d48988d1ce941735"}],"location":{"lat":51.50668571890296,"lng":-0.221099853515625,"postalCode":"W12 7GF"}},{"id":"4d013b492f03224b195f5fe2","name":"Helva","stats":{"checkinsCount":83,"usersCount":56,"tipCount":1},"categories":[{"id":"4bf58dd8d48988d1c0941735"}],"location":{"lat":51.481272506964366,"lng":-0.009866257504745509,"postalCode":"SE10 9BJ"}},{"id":"4c0e3343b1b676b0f29de186","name":"The Bay Leaf Cafe","stats":{"checkinsCount":136,"usersCount":41,"tipCount":9},"categories":[{"id":"4bf58dd8d48988d1c5941735"}],"location":{"lat":51.52038732851446,"lng":-0.1355394572019577,"postalCode":"W1T 4"}},{"id":"4d04e98a54d0236af8a6f1d5","name":"David & Goliath","stats":{"checkinsCount":84,"usersCount":75,"tipCount":1},"categories":[{"id":"4bf58dd8d48988d104951735"}],"location":{"lat":51.51310084921205,"lng":-0.138760043256792,"postalCode":"W1F 9PN"}},{"id":"4c0158734f1ea59385596b7d","name":"Whistlestop","stats":{"checkinsCount":96,"usersCount":67,"tipCount":2},"categories":[{"id":"4d954b0ea243a5684a65b473"}],"location":{"lat":51.530455,"lng":-0.123299}},{"id":"4b0adc05f964a520062923e3","name":"La Giaconda Dining Rooms","stats":{"checkinsCount":74,"usersCount":60,"tipCount":8},"categories":[{"id":"4bf58dd8d48988d1c4941735"}],"location":{"lat":51.51525,"lng":-0.129804,"postalCode":"WC2"}},{"id":"4c0fc47db93cc9b623a455e0","name":"Leong's Legends II","stats":{"checkinsCount":91,"usersCount":72,"tipCount":3},"categories":[{"id":"4bf58dd8d48988d145941735"}],"location":{"lat":51.511626,"lng":-0.129761,"postalCode":"WC2H 7BA"}},{"id":"4c0fd7a0b93cc9b6adca55e0","name":"Lush","stats":{"checkinsCount":88,"usersCount":63,"tipCount":5},"categories":[{"id":"4bf58dd8d48988d10c951735"}],"location":{"lat":51.507273368348315,"lng":-0.22170066833496094,"postalCode":"W12 7GF"}},{"id":"4b1a9793f964a520fbec23e3","name":"The Telegraph (at The Earl of Derby)","stats":{"checkinsCount":129,"usersCount":48,"tipCount":4},"categories":[{"id":"4bf58dd8d48988d122941735"}],"location":{"lat":51.470833,"lng":-0.050362,"postalCode":"SE14 5LW"}},{"id":"4b1a7b28f964a520efea23e3","name":"Dog & Bell","stats":{"checkinsCount":108,"usersCount":46,"tipCount":4},"categories":[{"id":"4bf58dd8d48988d11b941735"}],"location":{"lat":51.483288,"lng":-0.025905,"postalCode":"SE8 3JD"}},{"id":"4c1bca2a63750f474379b567","name":"Pomona","stats":{"checkinsCount":217,"usersCount":28,"tipCount":0},"categories":[{"id":"4bf58dd8d48988d1f9941735"}],"location":{"lat":51.550372,"lng":-0.16485135,"postalCode":"NW3 4QS"}},{"id":"4c174d315e88c928985e2566","name":"Jessops","stats":{"checkinsCount":120,"usersCount":42,"tipCount":1},"categories":[{"id":"4eb1bdf03b7b55596b4a7491"}],"location":{"lat":51.518998061412674,"lng":-0.08759021759033203,"postalCode":"EC2M 6UR"}},{"id":"4d13048012916dcb14c0da8a","name":"Coffee Affair","stats":{"checkinsCount":156,"usersCount":28,"tipCount":6},"categories":[{"id":"4bf58dd8d48988d1e0931735"}],"location":{"lat":51.475161915853654,"lng":-0.14635205268859863,"postalCode":"SW8 4LP"}},{"id":"4e1cd7ffaeb78c0dfec7fc9e","name":"Gelato Mio","stats":{"checkinsCount":93,"usersCount":56,"tipCount":4},"categories":[{"id":"4bf58dd8d48988d1c9941735"}],"location":{"lat":51.58965,"lng":-0.145624,"postalCode":"N103HA"}},{"id":"4c1394a41b5cef3b36f6edc4","name":"Ye Olde Black Bull","stats":{"checkinsCount":76,"usersCount":64,"tipCount":3},"categories":[{"id":"4bf58dd8d48988d11b941735"}],"location":{"lat":51.54031644721637,"lng":0.0007617473602294922,"postalCode":"E15 4BQ"}},{"id":"4c18e708838020a1c9d6e461","name":"Coffique","stats":{"checkinsCount":138,"usersCount":43,"tipCount":0},"categories":[{"id":"4bf58dd8d48988d16d941735"}],"location":{"lat":51.504332,"lng":-0.0564635}},{"id":"4c12fc56a5eb76b0eb4abfb7","name":"KFC","stats":{"checkinsCount":103,"usersCount":50,"tipCount":5},"categories":[{"id":"4d4ae6fc7a7b7dea34424761"}],"location":{"lat":51.485706042526836,"lng":-0.034571856697341655,"postalCode":"SE8 5DB"}},{"id":"4b17bcbef964a520a6c723e3","name":"Interchange Hampstead Town Hall","stats":{"checkinsCount":146,"usersCount":41,"tipCount":1},"categories":[{"id":"4bf58dd8d48988d1f2931735"}],"location":{"lat":51.551112,"lng":-0.16626804108903429}},{"id":"4c1b2f68b306c928facc61b7","name":"Amici Coffee Deli","stats":{"checkinsCount":158,"usersCount":49,"tipCount":1},"categories":[{"id":"4bf58dd8d48988d16d941735"}],"location":{"lat":51.556629,"lng":-0.117705,"postalCode":"N7 0RN"}},{"id":"4d1f8bc7e56f6ea8db1f6e1d","name":"Golden Valley","stats":{"checkinsCount":265,"usersCount":18,"tipCount":2},"categories":[{"id":"4bf58dd8d48988d145941735"}],"location":{"lat":51.55365195819784,"lng":-0.12760316965433754,"postalCode":"N7 0HZ"}},{"id":"4b1ee4aef964a5202a2124e3","name":"El Comendante","stats":{"checkinsCount":101,"usersCount":60,"tipCount":1},"categories":[{"id":"4bf58dd8d48988d11b941735"}],"location":{"lat":51.55551624552669,"lng":-0.11271274465661639}},{"id":"4b166cdef964a520e5b823e3","name":"Mai Sushi","stats":{"checkinsCount":121,"usersCount":64,"tipCount":3},"categories":[{"id":"4bf58dd8d48988d111941735"}],"location":{"lat":51.529261,"lng":-0.129595}},{"id":"4d179499401db60ca8f8eca4","name":"Beaufort Bar","stats":{"checkinsCount":99,"usersCount":67,"tipCount":5},"categories":[{"id":"4bf58dd8d48988d121941735"}],"location":{"lat":51.51033169422767,"lng":-0.12067794799804688,"postalCode":"WC2R 0EU"}},{"id":"4b138133f964a520709723e3","name":"Sabor Mineiro Cafe","stats":{"checkinsCount":227,"usersCount":28,"tipCount":2},"categories":[{"id":"4bf58dd8d48988d16b941735"}],"location":{"lat":51.53336270461941,"lng":-0.24659156799316406,"postalCode":"NW10 4UX"}},{"id":"4b1823a5f964a52098cd23e3","name":"@Venue","stats":{"checkinsCount":79,"usersCount":70,"tipCount":2},"categories":[{"id":"4bf58dd8d48988d1c2941735"}],"location":{"lat":51.50548368506733,"lng":-0.13840198516845703,"postalCode":"SW1A 1"}},{"id":"4b1d7eddf964a5204b1124e3","name":"Le Chardon","stats":{"checkinsCount":85,"usersCount":71,"tipCount":3},"categories":[{"id":"4bf58dd8d48988d16d941735"}],"location":{"lat":51.454184,"lng":-0.140045,"postalCode":"Sw4 9ng"}},{"id":"4c152b9ab7b9c9289d7fac37","name":"Four O Nine","stats":{"checkinsCount":85,"usersCount":81,"tipCount":3},"categories":[{"id":"4bf58dd8d48988d10c941735"}],"location":{"lat":51.465316,"lng":-0.12944,"postalCode":"SW9 9BT"}},{"id":"4b1a6d78f964a5203cea23e3","name":"Cafe Lemon","stats":{"checkinsCount":123,"usersCount":65,"tipCount":7},"categories":[{"id":"4bf58dd8d48988d16d941735"}],"location":{"lat":51.580458196837,"lng":-0.09916931390762329,"postalCode":"N4 1LG"}},{"id":"4b181c45f964a52014cd23e3","name":"Il Portico","stats":{"checkinsCount":74,"usersCount":56,"tipCount":5},"categories":[{"id":"4bf58dd8d48988d110941735"}],"location":{"lat":51.49860477044416,"lng":-0.19953489303588867,"postalCode":"W8 6NA"}},{"id":"4e16e1f5483b3ee57ce145df","name":"Nio Coffee","stats":{"checkinsCount":228,"usersCount":28,"tipCount":3},"categories":[{"id":"4bf58dd8d48988d16d941735"}],"location":{"lat":51.48106069870433,"lng":-0.021305501871114848}},{"id":"4d1a2c8525cda143802a8dd6","name":"KFC","stats":{"checkinsCount":119,"usersCount":67,"tipCount":3},"categories":[{"id":"4d4ae6fc7a7b7dea34424761"}],"location":{"lat":51.58835464332357,"lng":-0.061846375465393066,"postalCode":"N17 9NF"}},{"id":"4b16d1f7f964a520ebbd23e3","name":"Sardo Canale","stats":{"checkinsCount":69,"usersCount":60,"tipCount":4},"categories":[{"id":"4bf58dd8d48988d110941735"}],"location":{"lat":51.539913,"lng":-0.150256}},{"id":"4b106e46f964a520447023e3","name":"Subway","stats":{"checkinsCount":91,"usersCount":48,"tipCount":1},"categories":[{"id":"4bf58dd8d48988d1c5941735"}],"location":{"lat":51.518383,"lng":-0.175876,"postalCode":"W2 6PY"}},{"id":"4b129884f964a520298b23e3","name":"Sir Alexander Fleming Public House","stats":{"checkinsCount":78,"usersCount":65,"tipCount":0},"categories":[{"id":"4bf58dd8d48988d11b941735"}],"location":{"lat":51.517079,"lng":-0.1716633,"postalCode":"W2 1RB"}},{"id":"4b17d3aaf964a52093c823e3","name":"Costa @ Wigmore St","stats":{"checkinsCount":100,"usersCount":75,"tipCount":1},"categories":[{"id":"4bf58dd8d48988d1e0931735"}],"location":{"lat":51.516042,"lng":-0.150519}},{"id":"4c17b734838020a14617e361","name":"The Wimpole","stats":{"checkinsCount":89,"usersCount":53,"tipCount":1},"categories":[{"id":"4bf58dd8d48988d11b941735"}],"location":{"lat":51.5158941,"lng":-0.147226,"postalCode":"W1G 0EH"}},{"id":"4b10fb73f964a5202b7723e3","name":"Palms of Goa Fitzrovia","stats":{"checkinsCount":109,"usersCount":50,"tipCount":1},"categories":[{"id":"4bf58dd8d48988d10f941735"}],"location":{"lat":51.520739,"lng":-0.139319,"postalCode":"W1W 6YR"}},{"id":"4c1c3bedb9f876b073b27b46","name":"British Luxury Club","stats":{"checkinsCount":100,"usersCount":70,"tipCount":1},"categories":[{"id":"4bf58dd8d48988d121941735"}],"location":{"lat":51.514170326362915,"lng":-0.14583441370424222,"postalCode":"W1S 1DE"}},{"id":"4c113dc33ce120a11f65091c","name":"Playtime","stats":{"checkinsCount":84,"usersCount":71,"tipCount":7},"categories":[{"id":"4bf58dd8d48988d116941735"}],"location":{"lat":51.536311,"lng":-0.103136}},{"id":"4b17bfc4f964a520bec723e3","name":"Assenheims 56","stats":{"checkinsCount":97,"usersCount":58,"tipCount":8},"categories":[{"id":"4bf58dd8d48988d1c5941735"}],"location":{"lat":51.516437,"lng":-0.087765,"postalCode":"EC2R 7DN"}},{"id":"4c14bc2582a3c9b6bdb0fdf8","name":"Cafe O'Porto","stats":{"checkinsCount":139,"usersCount":38,"tipCount":3},"categories":[{"id":"4bf58dd8d48988d16d941735"}],"location":{"lat":51.522289,"lng":-0.20797}},{"id":"4f1ef468e4b03f6d8f00b13c","name":"Tati's","stats":{"checkinsCount":240,"usersCount":23,"tipCount":1},"categories":[{"id":"4bf58dd8d48988d18e941735"}],"location":{"lat":51.50943340616218,"lng":-0.1946442808529452,"postalCode":"W2 4HA"}},{"id":"4c1a371a6a21c9b6bdaecb97","name":"Yves Saint Laurent","stats":{"checkinsCount":80,"usersCount":55,"tipCount":1},"categories":[{"id":"4bf58dd8d48988d1ff941735"}],"location":{"lat":51.497400603179656,"lng":-0.15903107899494157}},{"id":"4c1a10676e02b7138ed8627b","name":"Subway","stats":{"checkinsCount":123,"usersCount":65,"tipCount":1},"categories":[{"id":"4bf58dd8d48988d1c5941735"}],"location":{"lat":51.49675,"lng":-0.133789,"postalCode":"SW1P 2HR"}},{"id":"4c1e80b98b3aa59301329c5f","name":"El Gaucho","stats":{"checkinsCount":78,"usersCount":66,"tipCount":6},"categories":[{"id":"4bf58dd8d48988d107941735"}],"location":{"lat":51.493703,"lng":-0.174792}},{"id":"4c121b26b2510f47aafec398","name":"La Bottega","stats":{"checkinsCount":89,"usersCount":60,"tipCount":2},"categories":[{"id":"4bf58dd8d48988d110941735"}],"location":{"lat":51.490252,"lng":-0.156865,"postalCode":"SW1W8HD"}},{"id":"4d179382e190721edfec1b21","name":"Subway","stats":{"checkinsCount":73,"usersCount":69,"tipCount":3},"categories":[{"id":"4bf58dd8d48988d1c5941735"}],"location":{"lat":51.49315189210367,"lng":-0.14688887787429583,"postalCode":"SW1W 9SH"}},{"id":"4e141e7eae60fe00dfdc4ae9","name":"Canteen @ IBM","stats":{"checkinsCount":196,"usersCount":31,"tipCount":0},"categories":[{"id":"4bf58dd8d48988d16d941735"}],"location":{"lat":51.50772503799094,"lng":-0.113244}},{"id":"4c1d11b601379521ff2e47f3","name":"Paul Smith Borough Market","stats":{"checkinsCount":80,"usersCount":66,"tipCount":2},"categories":[{"id":"4bf58dd8d48988d103951735"}],"location":{"lat":51.505243274494944,"lng":-0.09196758270263672,"postalCode":"SE1 9AB"}},{"id":"4b113becf964a520247923e3","name":"Marzano","stats":{"checkinsCount":73,"usersCount":61,"tipCount":6},"categories":[{"id":"4bf58dd8d48988d110941735"}],"location":{"lat":51.459321,"lng":-0.166268,"postalCode":"SW11 1NJ"}},{"id":"4c14abf4a5eb76b0321dc2b7","name":"Northcote Road Market","stats":{"checkinsCount":88,"usersCount":54,"tipCount":3},"categories":[{"id":"4bf58dd8d48988d1fa941735"}],"location":{"lat":51.45886635541512,"lng":-0.16603000157569525,"postalCode":"SW11"}},{"id":"4b1e5e4af964a520481924e3","name":"Caffè Nero","stats":{"checkinsCount":132,"usersCount":57,"tipCount":3},"categories":[{"id":"4bf58dd8d48988d1e0931735"}],"location":{"lat":51.46256367014161,"lng":-0.11552810668945312,"postalCode":"SW9 8EH"}},{"id":"4c10d60581e976b0beb20feb","name":"CycleLab & JuiceBar","stats":{"checkinsCount":134,"usersCount":44,"tipCount":4},"categories":[{"id":"4bf58dd8d48988d1e0931735"}],"location":{"lat":51.52712694928737,"lng":-0.08379201016997236}},{"id":"4d134b22f898b1f7f4f4de81","name":"Mulberry","stats":{"checkinsCount":80,"usersCount":67,"tipCount":0},"categories":[{"id":"4bf58dd8d48988d102951735"}],"location":{"lat":51.506485382132446,"lng":-0.2201557159423828,"postalCode":"W12 7GF"}},{"id":"4c108ce8ce57c9281d1982d2","name":"Gloucester Road Casino","stats":{"checkinsCount":122,"usersCount":52,"tipCount":0},"categories":[{"id":"4bf58dd8d48988d17c941735"}],"location":{"lat":51.493436,"lng":-0.183334}},{"id":"4c10e57a3ce120a16abd081c","name":"The Co-operative Food","stats":{"checkinsCount":127,"usersCount":58,"tipCount":1},"categories":[{"id":"4bf58dd8d48988d118951735"}],"location":{"lat":51.458882,"lng":-0.075017,"postalCode":"SE22 8HJ"}},{"id":"4c1e276cb9f876b0af9d7e46","name":"BOSS Store","stats":{"checkinsCount":91,"usersCount":80,"tipCount":0},"categories":[{"id":"4bf58dd8d48988d103951735"}],"location":{"lat":51.512778,"lng":-0.144578,"postalCode":"W1V 1DT"}},{"id":"4c1cfd98b9f876b00ecb7c46","name":"Brooks Brothers","stats":{"checkinsCount":108,"usersCount":71,"tipCount":3},"categories":[{"id":"4bf58dd8d48988d106951735"}],"location":{"lat":51.511649,"lng":-0.139279,"postalCode":"W1B 5SJ"}},{"id":"4c1137cbb93cc9b6480358e0","name":"Donuts & Baguettes","stats":{"checkinsCount":71,"usersCount":64,"tipCount":6},"categories":[{"id":"4bf58dd8d48988d148941735"}],"location":{"lat":51.51030906666667,"lng":-0.135051}},{"id":"4c13754db7b9c928418aa937","name":"Hawes & Curtis","stats":{"checkinsCount":82,"usersCount":70,"tipCount":2},"categories":[{"id":"4bf58dd8d48988d106951735"}],"location":{"lat":51.509061,"lng":-0.13617}},{"id":"4c1a179b834e2d7fbb4d2b80","name":"Camden Food Co","stats":{"checkinsCount":78,"usersCount":61,"tipCount":6},"categories":[{"id":"4bf58dd8d48988d1c5941735"}],"location":{"lat":51.53089129065476,"lng":-0.12331507352730949}},{"id":"4c17c5d4838020a15530e361","name":"Superdrug","stats":{"checkinsCount":116,"usersCount":52,"tipCount":0},"categories":[{"id":"4bf58dd8d48988d10f951735"}],"location":{"lat":51.524298636812915,"lng":-0.12364619906449315,"postalCode":"WC1N"}},{"id":"4b11398bf964a5200a7923e3","name":"Joy","stats":{"checkinsCount":78,"usersCount":53,"tipCount":0},"categories":[{"id":"4bf58dd8d48988d108951735"}],"location":{"lat":51.534195,"lng":-0.105271,"postalCode":"N1 0PQ"}},{"id":"4c1dfbddb9f876b025697e46","name":"Aldo","stats":{"checkinsCount":91,"usersCount":81,"tipCount":0},"categories":[{"id":"4bf58dd8d48988d107951735"}],"location":{"lat":51.513381,"lng":-0.124318}},{"id":"4c1a1b3c4ff90f47cedf1049","name":"Casa di Caffè","stats":{"checkinsCount":87,"usersCount":63,"tipCount":0},"categories":[{"id":"4bf58dd8d48988d16d941735"}],"location":{"lat":51.51491,"lng":-0.097436,"postalCode":"EC4"}},{"id":"4b1641c5f964a520dab723e3","name":"Boots","stats":{"checkinsCount":113,"usersCount":54,"tipCount":1},"categories":[{"id":"4bf58dd8d48988d10f951735"}],"location":{"lat":51.49781537068692,"lng":-0.16700442793743792}},{"id":"4c18c029838020a1f48ee461","name":"Chop'd","stats":{"checkinsCount":144,"usersCount":31,"tipCount":1},"categories":[{"id":"4bf58dd8d48988d1bd941735"}],"location":{"lat":51.507405397572086,"lng":-0.14568664390376418,"postalCode":"W1J 7UP"}},{"id":"4b1a643bf964a520b8e923e3","name":"Medici Gallery","stats":{"checkinsCount":116,"usersCount":56,"tipCount":0},"categories":[{"id":"4bf58dd8d48988d127951735"}],"location":{"lat":51.494232,"lng":-0.17335}},{"id":"4c1b438cb9f876b0e2ee7946","name":"Costa Coffee","stats":{"checkinsCount":124,"usersCount":52,"tipCount":0},"categories":[{"id":"4bf58dd8d48988d1e0931735"}],"location":{"lat":51.51570223505037,"lng":-0.07884719339611905,"postalCode":"EC3A 7BU"}},{"id":"4c18ca9e1436a593e2c88d75","name":"Toast","stats":{"checkinsCount":161,"usersCount":36,"tipCount":4},"categories":[{"id":"4bf58dd8d48988d146941735"}],"location":{"lat":51.51113078075786,"lng":-0.08379502839493518}},{"id":"4f1486280cd6cb7a690dc2cc","name":"Black Vanilla Champagne Bar & Gelateria","stats":{"checkinsCount":95,"usersCount":53,"tipCount":4},"categories":[{"id":"4bf58dd8d48988d1c9941735"}],"location":{"lat":51.481753722582646,"lng":-0.009741783142089844,"postalCode":"SE10 9HY"}},{"id":"4b193624f964a52044d923e3","name":"Mennula","stats":{"checkinsCount":70,"usersCount":65,"tipCount":4},"categories":[{"id":"4bf58dd8d48988d110941735"}],"location":{"lat":51.518422,"lng":-0.134549,"postalCode":"W1T 2LT"}},{"id":"4d1f5d9bd7b0b1f72b350c9f","name":"O'Neils Irish Bar","stats":{"checkinsCount":72,"usersCount":69,"tipCount":0},"categories":[{"id":"4bf58dd8d48988d116941735"}],"location":{"lat":51.51419886820981,"lng":-0.13941467096834614,"postalCode":"W1F 7JF"}},{"id":"4f1c50610cd67469c7abc69d","name":"Mele e Pere","stats":{"checkinsCount":89,"usersCount":67,"tipCount":6},"categories":[{"id":"4bf58dd8d48988d110941735"}],"location":{"lat":51.511566985991095,"lng":-0.13562321662902832,"postalCode":"W1F 9TF"}},{"id":"4f1c3a76e4b0854507859d73","name":"Grosvenor Casino","stats":{"checkinsCount":78,"usersCount":53,"tipCount":0},"categories":[{"id":"4bf58dd8d48988d17c941735"}],"location":{"lat":51.51023429802539,"lng":-0.13220823996545952}},{"id":"4b166f2ef964a52008b923e3","name":"Cafe Eterno","stats":{"checkinsCount":78,"usersCount":67,"tipCount":5},"categories":[{"id":"4bf58dd8d48988d1e0931735"}],"location":{"lat":51.514173,"lng":-0.125417,"postalCode":"WC2H 9PS"}},{"id":"4c169ccf583c9c741d0240a4","name":"Candy Cakes","stats":{"checkinsCount":72,"usersCount":69,"tipCount":2},"categories":[{"id":"4bf58dd8d48988d1bc941735"}],"location":{"lat":51.51174726901507,"lng":-0.1230168342590332,"postalCode":"WC2E 8RA"}},{"id":"4c19f765fe5a76b089540415","name":"Costa Coffee","stats":{"checkinsCount":105,"usersCount":50,"tipCount":1},"categories":[{"id":"4bf58dd8d48988d1e0931735"}],"location":{"lat":51.51771368292315,"lng":-0.0814190618729973,"postalCode":"E1 6"}},{"id":"4c4ae861959220a14cacc90e","name":"Beacon Bingo","stats":{"checkinsCount":103,"usersCount":61,"tipCount":2},"categories":[{"id":"4bf58dd8d48988d17c941735"}],"location":{"lat":51.557915,"lng":-0.216369}},{"id":"4c495d3f82319521ebb2a9f2","name":"barnet copthall leisure centre","stats":{"checkinsCount":145,"usersCount":40,"tipCount":0},"categories":[{"id":"4bf58dd8d48988d105941735"}],"location":{"lat":51.60429168413257,"lng":-0.22620677947998047,"postalCode":"nw4 1rl"}},{"id":"4b41f52bf964a520adca25e3","name":"Argos","stats":{"checkinsCount":91,"usersCount":62,"tipCount":1},"categories":[{"id":"4bf58dd8d48988d1f8941735"}],"location":{"lat":51.54457358865876,"lng":-0.17616748809814453,"postalCode":"NW3 6JR"}},{"id":"4c488c361879c9b676d7e143","name":"Esso","stats":{"checkinsCount":132,"usersCount":50,"tipCount":0},"categories":[{"id":"4bf58dd8d48988d113951735"}],"location":{"lat":51.511530015949226,"lng":0.0010050686822764855,"postalCode":"E14 0JG"}},{"id":"4b4ddf80f964a520d9d926e3","name":"Hi Sushi","stats":{"checkinsCount":78,"usersCount":66,"tipCount":5},"categories":[{"id":"4bf58dd8d48988d111941735"}],"location":{"lat":51.555648,"lng":-0.175747,"postalCode":"NW3 1PX"}},{"id":"4b409acbf964a52045b925e3","name":"Cafe de la Paix","stats":{"checkinsCount":68,"usersCount":61,"tipCount":0},"categories":[{"id":"4bf58dd8d48988d16d941735"}],"location":{"lat":51.48796234757513,"lng":-0.16755431864459536}},{"id":"4d41a33be15ca090da244a63","name":"New River Stadium","stats":{"checkinsCount":92,"usersCount":50,"tipCount":1},"categories":[{"id":"4bf58dd8d48988d187941735"}],"location":{"lat":51.60511795841173,"lng":-0.1004648208618164,"postalCode":"N22 5QW"}},{"id":"4d4dbf0e72eba143a4744712","name":"The Birkbeck Tavern","stats":{"checkinsCount":90,"usersCount":46,"tipCount":4},"categories":[{"id":"4bf58dd8d48988d116941735"}],"location":{"lat":51.556607754533886,"lng":-0.0002667284661507455,"postalCode":"E11 4HL"}},{"id":"4c4f48e198c8ef3b7690391d","name":"Cookies & Cream","stats":{"checkinsCount":103,"usersCount":64,"tipCount":2},"categories":[{"id":"4bf58dd8d48988d1c9941735"}],"location":{"lat":51.520146,"lng":-0.055591,"postalCode":"E1 4TP"}},{"id":"4b4d9629f964a5206cd426e3","name":"Piacere Coffee Shop","stats":{"checkinsCount":139,"usersCount":49,"tipCount":6},"categories":[{"id":"4bf58dd8d48988d1e0931735"}],"location":{"lat":51.581494,"lng":-0.198884,"postalCode":"NW11 7TH"}},{"id":"4b49e7a4f964a520b77526e3","name":"El Molino","stats":{"checkinsCount":121,"usersCount":62,"tipCount":6},"categories":[{"id":"4bf58dd8d48988d1db931735"}],"location":{"lat":51.556822325372295,"lng":-0.11866092681884766,"postalCode":"N7 0RN"}},{"id":"4b41db05f964a52084c925e3","name":"Headmasters","stats":{"checkinsCount":96,"usersCount":48,"tipCount":1},"categories":[{"id":"4bf58dd8d48988d110951735"}],"location":{"lat":51.519121,"lng":-0.169812,"postalCode":"W2 1JX"}},{"id":"4f4d1c12e4b03af9605dcbcb","name":"Odeon","stats":{"checkinsCount":83,"usersCount":72,"tipCount":1},"categories":[{"id":"4bf58dd8d48988d17f941735"}],"location":{"lat":51.50956379327632,"lng":-0.13121366500854492,"postalCode":"SW1Y 4DP"}},{"id":"4c4b4d1c959220a1176d5f0f","name":"Seoul","stats":{"checkinsCount":88,"usersCount":58,"tipCount":2},"categories":[{"id":"4bf58dd8d48988d113941735"}],"location":{"lat":51.54938555,"lng":-0.181615,"postalCode":"NW3 6ND"}},{"id":"4c46d24119fde21edd500676","name":"Sam's Chicken","stats":{"checkinsCount":137,"usersCount":46,"tipCount":2},"categories":[{"id":"4d4ae6fc7a7b7dea34424761"}],"location":{"lat":51.53576526939588,"lng":-0.24616241455078125,"postalCode":"NW10 4SJ"}},{"id":"4c4f48dea7351b8d0457d992","name":"Amber Grill","stats":{"checkinsCount":109,"usersCount":59,"tipCount":4},"categories":[{"id":"4bf58dd8d48988d16b941735"}],"location":{"lat":51.533456,"lng":-0.246783,"postalCode":"NW10 4UP"}},{"id":"4d49c44c7d36f04d802915e5","name":"The Pavilion","stats":{"checkinsCount":134,"usersCount":51,"tipCount":2},"categories":[{"id":"4bf58dd8d48988d11b941735"}],"location":{"lat":51.51895797390712,"lng":-0.22768375428437618,"postalCode":"W12 0HQ"}},{"id":"4c416b42cc410f471d38ab61","name":"Pimlico Road Farmers' Market","stats":{"checkinsCount":132,"usersCount":49,"tipCount":2},"categories":[{"id":"4bf58dd8d48988d1fa941735"}],"location":{"lat":51.49067759513855,"lng":-0.15277862548828125,"postalCode":"Sw1"}},{"id":"4d457345bbb1a1433e5f5272","name":"Tate Britain Members' Lounge","stats":{"checkinsCount":98,"usersCount":67,"tipCount":0},"categories":[{"id":"4bf58dd8d48988d1e2931735"}],"location":{"lat":51.49064099344949,"lng":-0.12647739110656364}},{"id":"4d4484814e5d37046a8cec93","name":"Hala Restaurant","stats":{"checkinsCount":118,"usersCount":51,"tipCount":2},"categories":[{"id":"4bf58dd8d48988d1c4941735"}],"location":{"lat":51.58040986062584,"lng":-0.09914517402648926,"postalCode":"N4 1LG"}},{"id":"4b4ee60af964a520f7f626e3","name":"Cafe Fresh Sandwich Bar","stats":{"checkinsCount":174,"usersCount":41,"tipCount":0},"categories":[{"id":"4bf58dd8d48988d16a941735"}],"location":{"lat":51.519436,"lng":-0.059643,"postalCode":"E1 1LD"}},{"id":"4c4571fd36d6a5933ed46ba8","name":"Chelsea Harbour Design Cafe","stats":{"checkinsCount":100,"usersCount":46,"tipCount":2},"categories":[{"id":"4bf58dd8d48988d16d941735"}],"location":{"lat":51.47559506839141,"lng":-0.18296715181435225,"postalCode":"Sw10 0xe"}},{"id":"4c4adc41c8b6b7138b712dfb","name":"Pret A Manger","stats":{"checkinsCount":117,"usersCount":55,"tipCount":0},"categories":[{"id":"4bf58dd8d48988d1c5941735"}],"location":{"lat":51.57703,"lng":-0.22417,"postalCode":"NW4 3FB"}},{"id":"4c4351c0af052d7f8d388079","name":"Shunt Yard","stats":{"checkinsCount":85,"usersCount":78,"tipCount":1},"categories":[{"id":"4bf58dd8d48988d1f1931735"}],"location":{"lat":51.502107,"lng":-0.082926,"postalCode":"SE1 3UD"}},{"id":"4b48ea95f964a520325d26e3","name":"SoBo","stats":{"checkinsCount":148,"usersCount":42,"tipCount":7},"categories":[{"id":"4bf58dd8d48988d16d941735"}],"location":{"lat":51.49621360354591,"lng":-0.08312702178955078}},{"id":"4c4e15b151c2c92842cfcc9d","name":"Pump House","stats":{"checkinsCount":264,"usersCount":25,"tipCount":0},"categories":[{"id":"4bf58dd8d48988d181941735"}],"location":{"lat":51.4986265566125,"lng":-0.05014440711575883,"postalCode":"SE16"}},{"id":"4d4d3fe913d88cfa8c8e06da","name":"The Pier Tavern","stats":{"checkinsCount":247,"usersCount":23,"tipCount":1},"categories":[{"id":"4bf58dd8d48988d11b941735"}],"location":{"lat":51.492228,"lng":-0.006505,"postalCode":"E14 3HN"}},{"id":"4c42c216ff711b8dc30b1405","name":"Cafe Meze","stats":{"checkinsCount":96,"usersCount":59,"tipCount":2},"categories":[{"id":"4bf58dd8d48988d115941735"}],"location":{"lat":51.523554,"lng":-0.143967}},{"id":"4d4957e55129a35df08738ac","name":"Superdrug","stats":{"checkinsCount":170,"usersCount":37,"tipCount":0},"categories":[{"id":"4bf58dd8d48988d10f951735"}],"location":{"lat":51.51841838052662,"lng":-0.17089142177901795}},{"id":"4f46acc2e4b068e1cd846ba6","name":"Carluccio's","stats":{"checkinsCount":80,"usersCount":59,"tipCount":1},"categories":[{"id":"4bf58dd8d48988d110941735"}],"location":{"lat":51.520609406080396,"lng":-0.15262933718392727,"postalCode":"W1U 5QH"}},{"id":"4b484b7bf964a520454b26e3","name":"Istanbul Supermarket","stats":{"checkinsCount":189,"usersCount":31,"tipCount":3},"categories":[{"id":"4bf58dd8d48988d118951735"}],"location":{"lat":51.528031,"lng":-0.09146,"postalCode":"EC1V 1JN"}},{"id":"4b4dc83cf964a52096d726e3","name":"Il Cicchetto","stats":{"checkinsCount":113,"usersCount":54,"tipCount":2},"categories":[{"id":"4bf58dd8d48988d11b941735"}],"location":{"lat":51.524029,"lng":-0.09641802,"postalCode":"EC1V 9AQ"}},{"id":"4b4c750af964a52071b326e3","name":"East Thai","stats":{"checkinsCount":118,"usersCount":64,"tipCount":9},"categories":[{"id":"4bf58dd8d48988d149941735"}],"location":{"lat":51.51543957548451,"lng":-0.12324213981628418,"postalCode":"WC2B 5QF"}},{"id":"4e42adec3151fbb810426ba3","name":"Amaranto Bar at Four Seasons Hotel London at Park Lane","stats":{"checkinsCount":131,"usersCount":55,"tipCount":0},"categories":[{"id":"4bf58dd8d48988d116941735"}],"location":{"lat":51.504335045329995,"lng":-0.15009641647338867,"postalCode":"W1J 7DR"}},{"id":"4f4f9ea2e4b0b0c45e29f338","name":"Game Plan, Boetti @ Tate Modern","stats":{"checkinsCount":68,"usersCount":66,"tipCount":0},"categories":[{"id":"4bf58dd8d48988d1e2931735"}],"location":{"lat":51.50758805685719,"lng":-0.09930996007905103}},{"id":"4f4b8947e4b007d391e6b3ad","name":"Costa Coffee","stats":{"checkinsCount":117,"usersCount":68,"tipCount":2},"categories":[{"id":"4bf58dd8d48988d1e0931735"}],"location":{"lat":51.46285778025088,"lng":-0.1152491569519043,"postalCode":"SW9 8EA"}},{"id":"4b4e2220f964a52066e226e3","name":"body studio","stats":{"checkinsCount":228,"usersCount":22,"tipCount":1},"categories":[{"id":"4bf58dd8d48988d175941735"}],"location":{"lat":51.52603082416751,"lng":-0.0787186248365989}},{"id":"4c45f36c342c1b8dd12bb589","name":"The Coffee Cup","stats":{"checkinsCount":176,"usersCount":34,"tipCount":0},"categories":[{"id":"4bf58dd8d48988d1e0931735"}],"location":{"lat":51.519003,"lng":-0.074429,"postalCode":"E1 6LY"}},{"id":"4b43ada4f964a5201ae625e3","name":"Eastern Eye Balti House","stats":{"checkinsCount":80,"usersCount":63,"tipCount":2},"categories":[{"id":"4bf58dd8d48988d10f941735"}],"location":{"lat":51.51974,"lng":-0.0718421,"postalCode":"E1 6QL"}},{"id":"4c4062c1ff711b8daf3f1005","name":"Minster Exchange","stats":{"checkinsCount":103,"usersCount":70,"tipCount":2},"categories":[{"id":"4bf58dd8d48988d116941735"}],"location":{"lat":51.510957,"lng":-0.081444,"postalCode":"EC3R 7PP"}},{"id":"4b4654b0f964a520cd1d26e3","name":"The Carpenters Arms","stats":{"checkinsCount":107,"usersCount":59,"tipCount":2},"categories":[{"id":"4bf58dd8d48988d155941735"}],"location":{"lat":51.492662,"lng":-0.24270236492156982,"postalCode":"9BG"}},{"id":"4d46e2d64e5d3704f8ba0694","name":"Hyde Perk Bistro","stats":{"checkinsCount":82,"usersCount":57,"tipCount":2},"categories":[{"id":"4bf58dd8d48988d16d941735"}],"location":{"lat":51.501554,"lng":-0.183918}},{"id":"4b4f78dbf964a520050827e3","name":"Zizzi","stats":{"checkinsCount":87,"usersCount":68,"tipCount":1},"categories":[{"id":"4bf58dd8d48988d110941735"}],"location":{"lat":51.503283,"lng":-0.073545,"postalCode":"SE1"}},{"id":"4c45ab1e2d3ec9b64d8930ae","name":"Subway","stats":{"checkinsCount":111,"usersCount":57,"tipCount":2},"categories":[{"id":"4bf58dd8d48988d1c5941735"}],"location":{"lat":51.51697322910666,"lng":-0.13324036645993242,"postalCode":"W1T 1HT"}},{"id":"4b49ab40f964a520507226e3","name":"Crussh","stats":{"checkinsCount":132,"usersCount":46,"tipCount":1},"categories":[{"id":"4bf58dd8d48988d112941735"}],"location":{"lat":51.524336,"lng":-0.123856,"postalCode":"WC1N 1AW"}},{"id":"4c40553ca48d9c74143a0c40","name":"Dorothy Perkins","stats":{"checkinsCount":98,"usersCount":81,"tipCount":2},"categories":[{"id":"4bf58dd8d48988d108951735"}],"location":{"lat":51.51645414,"lng":-0.130312,"postalCode":"WC1A 1HL"}},{"id":"4c488834417b20a12641e1a9","name":"Royal Opera House Amphitheatre Restaurant","stats":{"checkinsCount":89,"usersCount":70,"tipCount":0},"categories":[{"id":"4bf58dd8d48988d10c941735"}],"location":{"lat":51.51236921107367,"lng":-0.12318061023240737,"postalCode":"WC2E 9DD"}},{"id":"4c41c402520fa5931210caac","name":"Build a Bear Workshop","stats":{"checkinsCount":93,"usersCount":80,"tipCount":0},"categories":[{"id":"4bf58dd8d48988d1f3941735"}],"location":{"lat":51.51226201623923,"lng":-0.12238481042980096}},{"id":"4c4457df429a0f47558f481e","name":"Moss Bros","stats":{"checkinsCount":92,"usersCount":69,"tipCount":1},"categories":[{"id":"4bf58dd8d48988d106951735"}],"location":{"lat":51.51142179965973,"lng":-0.12520551681518555,"postalCode":"WC2E 8JD"}},{"id":"4c4a122a9c8d2d7fb6c00369","name":"Venus Fully Nude Table Dancers","stats":{"checkinsCount":124,"usersCount":37,"tipCount":0},"categories":[{"id":"4bf58dd8d48988d183941735"}],"location":{"lat":51.519867,"lng":-0.10548591613769531}},{"id":"4b4f16fff964a5200ffa26e3","name":"Paul","stats":{"checkinsCount":130,"usersCount":55,"tipCount":2},"categories":[{"id":"4bf58dd8d48988d16a941735"}],"location":{"lat":51.513123,"lng":-0.093659,"postalCode":"EC4M 9EB"}},{"id":"4d42b5d7f2a6a093fc5dd968","name":"1 Lombard Brasserie","stats":{"checkinsCount":80,"usersCount":65,"tipCount":1},"categories":[{"id":"4bf58dd8d48988d1c4941735"}],"location":{"lat":51.513219,"lng":-0.088972}},{"id":"4c44ad4cdd1f2d7f883180f9","name":"Yogurtry","stats":{"checkinsCount":93,"usersCount":56,"tipCount":5},"categories":[{"id":"4bf58dd8d48988d1c9941735"}],"location":{"lat":51.556135,"lng":-0.177611,"postalCode":"Nw3 1qp"}},{"id":"4b431f44f964a5205edc25e3","name":"Fuzzy's Grub","stats":{"checkinsCount":146,"usersCount":43,"tipCount":1},"categories":[{"id":"4bf58dd8d48988d1c5941735"}],"location":{"lat":51.505796,"lng":-0.138001,"postalCode":"SW1Y 6PP"}},{"id":"4d4a9a2fa0ef54816eb3fdf6","name":"Coffee Republic","stats":{"checkinsCount":97,"usersCount":43,"tipCount":1},"categories":[{"id":"4bf58dd8d48988d1e0931735"}],"location":{"lat":51.4958863111658,"lng":-0.1353442668914795,"postalCode":"SW1P 1BS"}},{"id":"4d41f4311da9a09369345d3d","name":"Simply Indian","stats":{"checkinsCount":107,"usersCount":53,"tipCount":2},"categories":[{"id":"4bf58dd8d48988d10f941735"}],"location":{"lat":51.50076247111005,"lng":-0.09173529836794328}},{"id":"4b4c7aeff964a52010b426e3","name":"Thai & Lao Cusine Van","stats":{"checkinsCount":118,"usersCount":40,"tipCount":4},"categories":[{"id":"4bf58dd8d48988d1cb941735"}],"location":{"lat":51.520984274999996,"lng":-0.073235}},{"id":"4b4dbb49f964a52077d626e3","name":"Mother Mash","stats":{"checkinsCount":96,"usersCount":61,"tipCount":7},"categories":[{"id":"4bf58dd8d48988d1c4941735"}],"location":{"lat":51.51359,"lng":-0.081074,"postalCode":"EC3A 4AA"}},{"id":"4b48fd83f964a520ff6026e3","name":"San Miguel Tapas","stats":{"checkinsCount":70,"usersCount":61,"tipCount":0},"categories":[{"id":"4bf58dd8d48988d150941735"}],"location":{"lat":51.481045,"lng":-0.009538}},{"id":"4b422037f964a52035cd25e3","name":"Levi's Store","stats":{"checkinsCount":96,"usersCount":83,"tipCount":1},"categories":[{"id":"4bf58dd8d48988d103951735"}],"location":{"lat":51.51262386088139,"lng":-0.1384078228822452,"postalCode":"W1"}},{"id":"4c494b7f6f1420a17c176b55","name":"VaFresco","stats":{"checkinsCount":79,"usersCount":58,"tipCount":2},"categories":[{"id":"4bf58dd8d48988d16d941735"}],"location":{"lat":51.494558,"lng":-0.146335,"postalCode":"SW1W 0"}},{"id":"4c45a7fbdd1f2d7f8d7c81f9","name":"Lush","stats":{"checkinsCount":106,"usersCount":65,"tipCount":1},"categories":[{"id":"4bf58dd8d48988d10c951735"}],"location":{"lat":51.4947173906239,"lng":-0.1451396942138672,"postalCode":"SW1 9JT"}},{"id":"4c3a1a0d3849c928fa62c2b1","name":"The Dolphin","stats":{"checkinsCount":101,"usersCount":65,"tipCount":2},"categories":[{"id":"4bf58dd8d48988d11b941735"}],"location":{"lat":51.528991046218145,"lng":-0.12463688850402832,"postalCode":"WC1H 9DW"}},{"id":"4b3f47d9f964a5202ea525e3","name":"Johanssons","stats":{"checkinsCount":114,"usersCount":56,"tipCount":6},"categories":[{"id":"4bf58dd8d48988d16d941735"}],"location":{"lat":51.47372515642006,"lng":-0.09063720703125,"postalCode":"SE5 8SY"}},{"id":"4c3f820fe26920a1388b5be7","name":"Maid Of Muswell","stats":{"checkinsCount":98,"usersCount":55,"tipCount":3},"categories":[{"id":"4bf58dd8d48988d155941735"}],"location":{"lat":51.598832,"lng":-0.13769}},{"id":"4e3410c6fa76f00388c7c5f8","name":"Hackney Wicked Fest","stats":{"checkinsCount":77,"usersCount":69,"tipCount":2},"categories":[{"id":"4d4b7104d754a06370d81259"}],"location":{"lat":51.543169,"lng":-0.023961}},{"id":"4b308a5ff964a52020fa24e3","name":"Strada","stats":{"checkinsCount":97,"usersCount":61,"tipCount":3},"categories":[{"id":"4bf58dd8d48988d110941735"}],"location":{"lat":51.473604,"lng":-0.251209,"postalCode":"SW13 9PY"}},{"id":"4c3cb4de4bc9a593990ad371","name":"Golden Lane Leisure Centre","stats":{"checkinsCount":245,"usersCount":29,"tipCount":2},"categories":[{"id":"4bf58dd8d48988d175941735"}],"location":{"lat":51.52254293633681,"lng":-0.09607895223367263,"postalCode":"EC1Y 0SH0"}},{"id":"4b3a6128f964a520fb6525e3","name":"The Devereux Pub","stats":{"checkinsCount":123,"usersCount":42,"tipCount":1},"categories":[{"id":"4bf58dd8d48988d11b941735"}],"location":{"lat":51.51217529058686,"lng":-0.11162453723562393,"postalCode":"WC2R 3JJ"}},{"id":"4b3bce56f964a520907b25e3","name":"Chinese Cricket Club","stats":{"checkinsCount":72,"usersCount":62,"tipCount":5},"categories":[{"id":"4bf58dd8d48988d145941735"}],"location":{"lat":51.51225371343993,"lng":-0.10431864130876087}},{"id":"4c3b01391a1cd13aad95b50d","name":"Beefeater Distillery","stats":{"checkinsCount":114,"usersCount":49,"tipCount":0},"categories":[{"id":"4e0e22f5a56208c4ea9a85a0"}],"location":{"lat":51.485679,"lng":-0.111001}},{"id":"4d3b72ec6de7721e3fe7f849","name":"Upstairs At The Ritzy","stats":{"checkinsCount":99,"usersCount":52,"tipCount":0},"categories":[{"id":"4bf58dd8d48988d1e7931735"}],"location":{"lat":51.461085,"lng":-0.11559,"postalCode":"SW2 1JG"}},{"id":"4c3a070993db0f4716632492","name":"Tesco Express","stats":{"checkinsCount":101,"usersCount":49,"tipCount":1},"categories":[{"id":"4bf58dd8d48988d118951735"}],"location":{"lat":51.5311434,"lng":-0.067055,"postalCode":"E2 7QU"}},{"id":"4d31b06d6c7c721e4056a856","name":"Woody Grill","stats":{"checkinsCount":90,"usersCount":59,"tipCount":1},"categories":[{"id":"4bf58dd8d48988d115941735"}],"location":{"lat":51.505257,"lng":-0.225267}},{"id":"4b3ce282f964a520f08825e3","name":"Andover Arms","stats":{"checkinsCount":131,"usersCount":58,"tipCount":9},"categories":[{"id":"4bf58dd8d48988d11b941735"}],"location":{"lat":51.49686,"lng":-0.232487,"postalCode":"W6 0DL"}},{"id":"4b30a4acf964a5209bfa24e3","name":"Patisserie Valerie","stats":{"checkinsCount":91,"usersCount":78,"tipCount":3},"categories":[{"id":"4bf58dd8d48988d16a941735"}],"location":{"lat":51.50698622240712,"lng":-0.20648717880249023,"postalCode":"W11 3RB"}},{"id":"4c3f3ddad691c9b6006d890a","name":"H&M","stats":{"checkinsCount":79,"usersCount":55,"tipCount":0},"categories":[{"id":"4bf58dd8d48988d103951735"}],"location":{"lat":51.576113,"lng":-0.224619}},{"id":"4b3cc0a4f964a520d28625e3","name":"WH Smith","stats":{"checkinsCount":97,"usersCount":62,"tipCount":0},"categories":[{"id":"4bf58dd8d48988d114951735"}],"location":{"lat":51.575982,"lng":-0.22428883239626884,"postalCode":"NW4 3FB"}},{"id":"4f361287be770642eab9a380","name":"Le Pont de La Tour: Restaurant","stats":{"checkinsCount":77,"usersCount":71,"tipCount":1},"categories":[{"id":"4bf58dd8d48988d10c941735"}],"location":{"lat":51.503480224873485,"lng":-0.07332086563110352,"postalCode":"SE1 2YE"}},{"id":"4c334fcbed37a593311b6d03","name":"Pets At Home","stats":{"checkinsCount":112,"usersCount":69,"tipCount":3},"categories":[{"id":"4bf58dd8d48988d100951735"}],"location":{"lat":51.472467,"lng":-0.016943,"postalCode":"SE10 8DA"}},{"id":"4b360dbcf964a520e02f25e3","name":"PC World","stats":{"checkinsCount":100,"usersCount":61,"tipCount":2},"categories":[{"id":"4bf58dd8d48988d122951735"}],"location":{"lat":51.5870269369477,"lng":-0.06186466181684199}},{"id":"4c39db49dfb0e21e0b0eb1a8","name":"Boots","stats":{"checkinsCount":143,"usersCount":56,"tipCount":0},"categories":[{"id":"4bf58dd8d48988d10f951735"}],"location":{"lat":51.557115203197725,"lng":-0.11810621500695996,"postalCode":"N7 6AG"}},{"id":"4b3a198df964a5201a6125e3","name":"Nani's","stats":{"checkinsCount":110,"usersCount":57,"tipCount":3},"categories":[{"id":"4bf58dd8d48988d16d941735"}],"location":{"lat":51.51998610950219,"lng":-0.14252185821533203}},{"id":"4e3327bb62e1733d7a9ec25d","name":"Bertorelli","stats":{"checkinsCount":77,"usersCount":72,"tipCount":2},"categories":[{"id":"4bf58dd8d48988d110941735"}],"location":{"lat":51.51469179074805,"lng":-0.1407945156097412,"postalCode":"W1F 7TD"}},{"id":"4c3b0b65def90f475e3cfd2d","name":"Subway","stats":{"checkinsCount":115,"usersCount":46,"tipCount":0},"categories":[{"id":"4bf58dd8d48988d1c5941735"}],"location":{"lat":51.52052018062571,"lng":-0.11733055114746094,"postalCode":"WC1X 8SL"}},{"id":"4c3cdfbf7d00d13a62833950","name":"Oriental Star","stats":{"checkinsCount":139,"usersCount":42,"tipCount":3},"categories":[{"id":"4bf58dd8d48988d145941735"}],"location":{"lat":51.547811,"lng":-0.180395}},{"id":"4b3bad7bf964a5209a7825e3","name":"pintxos","stats":{"checkinsCount":84,"usersCount":65,"tipCount":3},"categories":[{"id":"4bf58dd8d48988d1db931735"}],"location":{"lat":51.514753,"lng":-0.197754,"postalCode":"W11 2SB"}},{"id":"4c3b43da0cabef3bbf91b94b","name":"Evans Cycles","stats":{"checkinsCount":91,"usersCount":54,"tipCount":0},"categories":[{"id":"4bf58dd8d48988d115951735"}],"location":{"lat":51.515070297356104,"lng":-0.19462918812660218,"postalCode":"W2 5RU"}},{"id":"4c39bff418e72d7fc2a71af5","name":"Skandium South Kensington","stats":{"checkinsCount":88,"usersCount":76,"tipCount":0},"categories":[{"id":"4bf58dd8d48988d1f8941735"}],"location":{"lat":51.49658764910268,"lng":-0.16889870166778564,"postalCode":"SW3 2EP"}},{"id":"4e398c75887777123dd458e9","name":"Playhouse Theatre","stats":{"checkinsCount":79,"usersCount":76,"tipCount":2},"categories":[{"id":"4bf58dd8d48988d137941735"}],"location":{"lat":51.506789138590214,"lng":-0.12364597521146513}},{"id":"4c3b635a5810a5938596ba3c","name":"Bannatynes Health Club","stats":{"checkinsCount":205,"usersCount":29,"tipCount":1},"categories":[{"id":"4bf58dd8d48988d175941735"}],"location":{"lat":51.4974425988491,"lng":-0.12595653533935547}},{"id":"4b3b4481f964a520007225e3","name":"Harpers Cafe","stats":{"checkinsCount":116,"usersCount":64,"tipCount":5},"categories":[{"id":"4bf58dd8d48988d147941735"}],"location":{"lat":51.50460885161667,"lng":-0.09095907211303711,"postalCode":"SE1 1RQ"}},{"id":"4c3c8786933b0f479e28e421","name":"Subway","stats":{"checkinsCount":103,"usersCount":49,"tipCount":0},"categories":[{"id":"4bf58dd8d48988d1c5941735"}],"location":{"lat":51.463797,"lng":-0.167298,"postalCode":"SW11"}},{"id":"4e39ac87d22dea80c53344e0","name":"Rodizio Brazil Steak House","stats":{"checkinsCount":79,"usersCount":70,"tipCount":5},"categories":[{"id":"4bf58dd8d48988d16b941735"}],"location":{"lat":51.46366265,"lng":-0.132787}},{"id":"4e35904d2271b2cf0678ebfd","name":"Power Lunches","stats":{"checkinsCount":99,"usersCount":66,"tipCount":2},"categories":[{"id":"4bf58dd8d48988d16d941735"}],"location":{"lat":51.542527,"lng":-0.076201}},{"id":"4e3483168130ece29e9d5bf9","name":"Beach London","stats":{"checkinsCount":84,"usersCount":53,"tipCount":4},"categories":[{"id":"4bf58dd8d48988d1e2931735"}],"location":{"lat":51.52350418776533,"lng":-0.07068157196044922,"postalCode":"E2 6EH"}},{"id":"4b366d10f964a5201a3525e3","name":"Zengi","stats":{"checkinsCount":81,"usersCount":58,"tipCount":3},"categories":[{"id":"4bf58dd8d48988d115941735"}],"location":{"lat":51.517019,"lng":-0.07333,"postalCode":"E1 6LT"}},{"id":"4e3e99237d8b0e9610788d5b","name":"Love In A Cup","stats":{"checkinsCount":156,"usersCount":43,"tipCount":3},"categories":[{"id":"4bf58dd8d48988d16d941735"}],"location":{"lat":51.516385,"lng":-0.070032}},{"id":"4c3f64e7ce54e21e98fd071a","name":"The Goose","stats":{"checkinsCount":74,"usersCount":59,"tipCount":1},"categories":[{"id":"4bf58dd8d48988d11b941735"}],"location":{"lat":51.4850301,"lng":-0.20237992}},{"id":"4d387122e6bdf04d951264b4","name":"McDonald's","stats":{"checkinsCount":95,"usersCount":64,"tipCount":1},"categories":[{"id":"4bf58dd8d48988d16e941735"}],"location":{"lat":51.48282083665817,"lng":-0.20046506898998934,"postalCode":"SW6 1NG"}},{"id":"4c307a3d452620a17d291f0f","name":"Subway","stats":{"checkinsCount":76,"usersCount":59,"tipCount":1},"categories":[{"id":"4bf58dd8d48988d1c5941735"}],"location":{"lat":51.50820824957313,"lng":-0.07866382598876953,"postalCode":"EC3R"}},{"id":"4b376134f964a520c14025e3","name":"1802 Bar","stats":{"checkinsCount":115,"usersCount":55,"tipCount":4},"categories":[{"id":"4bf58dd8d48988d116941735"}],"location":{"lat":51.507016,"lng":-0.022952,"postalCode":"E14 4AL"}},{"id":"4c34e65fa0ced13aa5f5186e","name":"Lime Bar","stats":{"checkinsCount":134,"usersCount":37,"tipCount":3},"categories":[{"id":"4bf58dd8d48988d10f941735"}],"location":{"lat":51.50139050323485,"lng":-0.024740240667729015,"postalCode":"E14 8JZ"}},{"id":"4c3a12b61e06d13a7ead7a3e","name":"Aniseed","stats":{"checkinsCount":125,"usersCount":35,"tipCount":6},"categories":[{"id":"4bf58dd8d48988d10f941735"}],"location":{"lat":51.50141088849597,"lng":-0.025807141273314523}},{"id":"4c3f3b06d7fad13acb2e04da","name":"It's Only Rock 'N' Roll","stats":{"checkinsCount":92,"usersCount":55,"tipCount":0},"categories":[{"id":"4bf58dd8d48988d1fb941735"}],"location":{"lat":51.5235561132431,"lng":-0.158318}},{"id":"4e37b35bb61c5cb3c382c48e","name":"polka gelato","stats":{"checkinsCount":101,"usersCount":59,"tipCount":7},"categories":[{"id":"4bf58dd8d48988d1c9941735"}],"location":{"lat":51.524176,"lng":-0.140319,"postalCode":"W1"}},{"id":"4e380f8fae6076788f19e1e7","name":"Cafe Concerto","stats":{"checkinsCount":100,"usersCount":77,"tipCount":5},"categories":[{"id":"4bf58dd8d48988d16d941735"}],"location":{"lat":51.52255391876302,"lng":-0.1361809650264798,"postalCode":"W1T 4TT"}},{"id":"4e381ec8091ae705a0fa2097","name":"The Sportsman Casino","stats":{"checkinsCount":85,"usersCount":51,"tipCount":1},"categories":[{"id":"4bf58dd8d48988d17c941735"}],"location":{"lat":51.51412426735259,"lng":-0.15775680541992188,"postalCode":"W1H 7AF"}},{"id":"4e358db118a82fdd65774bd4","name":"Gap","stats":{"checkinsCount":89,"usersCount":84,"tipCount":0},"categories":[{"id":"4bf58dd8d48988d103951735"}],"location":{"lat":51.5150456546981,"lng":-0.1444101333618164,"postalCode":"-"}},{"id":"4f3e3ef1e4b0e4bab98e7de9","name":"Cheap Monday","stats":{"checkinsCount":84,"usersCount":62,"tipCount":0},"categories":[{"id":"4bf58dd8d48988d104951735"}],"location":{"lat":51.513278,"lng":-0.139142}},{"id":"4c35bcba3896e21ea296ed90","name":"Hix @ Browns","stats":{"checkinsCount":70,"usersCount":59,"tipCount":0},"categories":[{"id":"4bf58dd8d48988d1cc941735"}],"location":{"lat":51.50901142618422,"lng":-0.14185983238714064}},{"id":"4d36e92276b3236a1191b579","name":"London Art Fair","stats":{"checkinsCount":75,"usersCount":59,"tipCount":0},"categories":[{"id":"4bf58dd8d48988d1e2931735"}],"location":{"lat":51.535608,"lng":-0.105359}},{"id":"4c35f95a3896e21e2903ee90","name":"Loop","stats":{"checkinsCount":82,"usersCount":56,"tipCount":5},"categories":[{"id":"4bf58dd8d48988d127951735"}],"location":{"lat":51.534776,"lng":-0.10407507419586182,"postalCode":"N1 8EA"}},{"id":"4c321b38452620a1c888210f","name":"The Lazy Dog","stats":{"checkinsCount":82,"usersCount":60,"tipCount":1},"categories":[{"id":"4bf58dd8d48988d116941735"}],"location":{"lat":51.5175,"lng":-0.130561}},{"id":"4c357e4766e40f47a54ecb8b","name":"Konaki","stats":{"checkinsCount":70,"usersCount":65,"tipCount":7},"categories":[{"id":"4bf58dd8d48988d10e941735"}],"location":{"lat":51.517367925,"lng":-0.12618720531463623}},{"id":"4c343759a0ced13a6ed8176e","name":"Evans Cycles","stats":{"checkinsCount":92,"usersCount":65,"tipCount":2},"categories":[{"id":"4bf58dd8d48988d115951735"}],"location":{"lat":51.515933640807525,"lng":-0.12495875358581543,"postalCode":"WC1V 7AA"}},{"id":"4c3c5b4f4bc9a593677ed271","name":"Cotswold Outdoor","stats":{"checkinsCount":83,"usersCount":71,"tipCount":2},"categories":[{"id":"4bf58dd8d48988d1f2941735"}],"location":{"lat":51.510909,"lng":-0.12189,"postalCode":"WC2E 7HA"}},{"id":"4e35962fae60d86c3ac12942","name":"Gilberts's Bar","stats":{"checkinsCount":72,"usersCount":58,"tipCount":3},"categories":[{"id":"4bf58dd8d48988d116941735"}],"location":{"lat":51.5094778,"lng":-0.125854,"postalCode":"WC2N 4HZ"}},{"id":"4e3437d0cc3f2f6e11e65625","name":"Garfunkel's","stats":{"checkinsCount":72,"usersCount":63,"tipCount":2},"categories":[{"id":"4bf58dd8d48988d1c4941735"}],"location":{"lat":51.50998447105276,"lng":-0.1231241226196289,"postalCode":"WC2R 0PT"}},{"id":"4d3ad9576de7721e8a92f249","name":"EAT.","stats":{"checkinsCount":100,"usersCount":61,"tipCount":2},"categories":[{"id":"4bf58dd8d48988d1c5941735"}],"location":{"lat":51.514017,"lng":-0.095934,"postalCode":"EC4M 9AF"}},{"id":"4f3bc971e4b0839f5a166e67","name":"Caffè Nero","stats":{"checkinsCount":76,"usersCount":70,"tipCount":1},"categories":[{"id":"4bf58dd8d48988d1e0931735"}],"location":{"lat":51.50715316794198,"lng":-0.1432943344116211,"postalCode":"W1J 8LN"}},{"id":"4e3123f21495f249f7688765","name":"Colonnade Walk","stats":{"checkinsCount":88,"usersCount":55,"tipCount":0},"categories":[{"id":"4bf58dd8d48988d1fd941735"}],"location":{"lat":51.49303409238195,"lng":-0.14679193496704102}},{"id":"4c37308a93db0f470f451f92","name":"National Dining Rooms","stats":{"checkinsCount":96,"usersCount":79,"tipCount":3},"categories":[{"id":"4bf58dd8d48988d1dc931735"}],"location":{"lat":51.508265,"lng":-0.129676}},{"id":"4e3a8d51b3ade614e1272e43","name":"Jom Makan","stats":{"checkinsCount":84,"usersCount":70,"tipCount":6},"categories":[{"id":"4bf58dd8d48988d156941735"}],"location":{"lat":51.54343927954715,"lng":-0.0048923492431640625,"postalCode":"E20"}},{"id":"4c3dd2bd7c1ee21e3d688e71","name":"Bannatyne's Health Club","stats":{"checkinsCount":301,"usersCount":19,"tipCount":0},"categories":[{"id":"4bf58dd8d48988d175941735"}],"location":{"lat":51.514965476882494,"lng":-0.08378900492946093,"postalCode":"EC2N 1HQ"}},{"id":"4b3b5c10f964a520e57225e3","name":"Monsoon Accessorize","stats":{"checkinsCount":74,"usersCount":64,"tipCount":0},"categories":[{"id":"4bf58dd8d48988d108951735"}],"location":{"lat":51.50793446491498,"lng":-0.22148609161376953,"postalCode":"W12 7GE"}},{"id":"4e344c311f6e9e21ad41dd44","name":"Soccer Scene","stats":{"checkinsCount":74,"usersCount":64,"tipCount":1},"categories":[{"id":"4bf58dd8d48988d1f2941735"}],"location":{"lat":51.51574704254731,"lng":-0.1385439796727765,"postalCode":"W1D 1ND"}},{"id":"4b336442f964a520161925e3","name":"Burger Co","stats":{"checkinsCount":104,"usersCount":62,"tipCount":6},"categories":[{"id":"4bf58dd8d48988d16c941735"}],"location":{"lat":51.513465,"lng":-0.139565}},{"id":"4c3db48215cb1b8d0c3f7cdc","name":"Octopus","stats":{"checkinsCount":81,"usersCount":73,"tipCount":0},"categories":[{"id":"4bf58dd8d48988d128951735"}],"location":{"lat":51.511943009259966,"lng":-0.12306589193333176,"postalCode":"WC2E 8RB"}},{"id":"4c38a7ffdfb0e21ebff1aea8","name":"Zara","stats":{"checkinsCount":98,"usersCount":61,"tipCount":1},"categories":[{"id":"4bf58dd8d48988d103951735"}],"location":{"lat":51.497095977705186,"lng":-0.140302999742229}},{"id":"4e37c821b61c5cb3c3835809","name":"Boots","stats":{"checkinsCount":96,"usersCount":49,"tipCount":0},"categories":[{"id":"4bf58dd8d48988d10f951735"}],"location":{"lat":51.50816762438112,"lng":-0.1261651726581184,"postalCode":"WC2N 5HS"}},{"id":"4c365e5b0a71c9b6a40a3dc9","name":"Famous Curry Bazaar","stats":{"checkinsCount":79,"usersCount":71,"tipCount":4},"categories":[{"id":"4bf58dd8d48988d10f941735"}],"location":{"lat":51.520376,"lng":-0.071954}},{"id":"4e2a827c7d8b7deda6c68725","name":"High Voltage Festval","stats":{"checkinsCount":77,"usersCount":56,"tipCount":1},"categories":[{"id":"4bf58dd8d48988d1e5931735"}],"location":{"lat":51.53659233,"lng":-0.036813}},{"id":"4c2dc8c3987f20a1cff049aa","name":"L'absinthe","stats":{"checkinsCount":109,"usersCount":73,"tipCount":4},"categories":[{"id":"4bf58dd8d48988d10c941735"}],"location":{"lat":51.54023657661112,"lng":-0.15425511551318163}},{"id":"4d2df52794013704fc60e1da","name":"The Meatwagon","stats":{"checkinsCount":72,"usersCount":63,"tipCount":2},"categories":[{"id":"4bf58dd8d48988d1cb941735"}],"location":{"lat":51.46854710557975,"lng":-0.06584233134990136}},{"id":"4b2abd58f964a520a2ae24e3","name":"The Adelaide","stats":{"checkinsCount":105,"usersCount":75,"tipCount":3},"categories":[{"id":"4bf58dd8d48988d11b941735"}],"location":{"lat":51.54328202284778,"lng":-0.1649942391042593,"postalCode":"NW3 3NL"}},{"id":"4c29b5c59fb5d13a8c869b57","name":"Finchley Road Audi","stats":{"checkinsCount":127,"usersCount":33,"tipCount":0},"categories":[{"id":"4bf58dd8d48988d124951735"}],"location":{"lat":51.5476594335763,"lng":-0.18786728382110596,"postalCode":"NW3 6LT"}},{"id":"4e282ec018384dd0a0dd585f","name":"Moka","stats":{"checkinsCount":128,"usersCount":33,"tipCount":8},"categories":[{"id":"4bf58dd8d48988d16d941735"}],"location":{"lat":51.57784630100167,"lng":-0.10439693927764893,"postalCode":"N4 1RQ"}},{"id":"4b2bebf1f964a520bfbd24e3","name":"The Waterhouse","stats":{"checkinsCount":75,"usersCount":56,"tipCount":6},"categories":[{"id":"4bf58dd8d48988d1c4941735"}],"location":{"lat":51.53669566892619,"lng":-0.07902028186491093,"postalCode":"N1 5QJ"}},{"id":"4c2cd590d1a10f47b414fa64","name":"La Piazzetta Bistro & Bar","stats":{"checkinsCount":151,"usersCount":45,"tipCount":1},"categories":[{"id":"4bf58dd8d48988d110941735"}],"location":{"lat":51.515127,"lng":-0.076871,"postalCode":"E1"}},{"id":"4c2f33aa213c2d7fd265305d","name":"RMS Studios","stats":{"checkinsCount":151,"usersCount":39,"tipCount":1},"categories":[{"id":"4bf58dd8d48988d1f2931735"}],"location":{"lat":51.46889998661834,"lng":-0.20856857299804688,"postalCode":"SW6 4RR"}},{"id":"4c2f14aa213c2d7f3d3f305d","name":"Tesco Express","stats":{"checkinsCount":183,"usersCount":40,"tipCount":2},"categories":[{"id":"4bf58dd8d48988d118951735"}],"location":{"lat":51.596294704547084,"lng":-0.24268627166748047,"postalCode":"NW9 5EN"}},{"id":"4c2b7bbcd1a10f47c500f864","name":"Equinox","stats":{"checkinsCount":206,"usersCount":25,"tipCount":0},"categories":[{"id":"4bf58dd8d48988d1f9941735"}],"location":{"lat":51.487691124275244,"lng":-0.010211932230799988,"postalCode":"E14 3BD"}},{"id":"4c20c1e33573c9b650d13515","name":"The Gilpin Bell (Wetherspoon)","stats":{"checkinsCount":121,"usersCount":49,"tipCount":2},"categories":[{"id":"4bf58dd8d48988d11b941735"}],"location":{"lat":51.610273,"lng":-0.065561,"postalCode":"N18 2SS"}},{"id":"4c27388f3703d13a71a3a636","name":"Stingray Cafe","stats":{"checkinsCount":108,"usersCount":51,"tipCount":8},"categories":[{"id":"4bf58dd8d48988d110941735"}],"location":{"lat":51.556054,"lng":-0.138955,"postalCode":"NW5 2HR"}},{"id":"4c2b3a7957a9c9b6c982f567","name":"Cinnamon Village 2","stats":{"checkinsCount":106,"usersCount":42,"tipCount":0},"categories":[{"id":"4bf58dd8d48988d16d941735"}],"location":{"lat":51.560382958270644,"lng":-0.09859429313074312,"postalCode":"N5 1HA"}},{"id":"4e2d5d958877b69d49f34bcb","name":"Nursey Ground, Lords","stats":{"checkinsCount":92,"usersCount":54,"tipCount":0},"categories":[{"id":"4bf58dd8d48988d18a941735"}],"location":{"lat":51.53077180249772,"lng":-0.17045189923093979}},{"id":"4b216741f964a520593b24e3","name":"Kam Fung","stats":{"checkinsCount":110,"usersCount":59,"tipCount":3},"categories":[{"id":"4bf58dd8d48988d145941735"}],"location":{"lat":51.519453,"lng":-0.117121,"postalCode":"WC1"}},{"id":"4b22496ff964a5201c4524e3","name":"Thai Break","stats":{"checkinsCount":103,"usersCount":50,"tipCount":3},"categories":[{"id":"4bf58dd8d48988d1e1931735"}],"location":{"lat":51.508597,"lng":-0.197904,"postalCode":"W8"}},{"id":"4b2757edf964a520f58524e3","name":"Old Post Office Bakery","stats":{"checkinsCount":155,"usersCount":36,"tipCount":3},"categories":[{"id":"4bf58dd8d48988d16a941735"}],"location":{"lat":51.465873,"lng":-0.125721,"postalCode":"SW9 9PH"}},{"id":"4c27408bc11dc9b644442a24","name":"KFC","stats":{"checkinsCount":108,"usersCount":44,"tipCount":1},"categories":[{"id":"4d4ae6fc7a7b7dea34424761"}],"location":{"lat":51.57949646324651,"lng":-0.12353181838989258,"postalCode":"N8 9SU"}},{"id":"4e2b0b33814d7599e42e1144","name":"Tramezzino Store","stats":{"checkinsCount":100,"usersCount":42,"tipCount":5},"categories":[{"id":"4bf58dd8d48988d16d941735"}],"location":{"lat":51.524044892965314,"lng":-0.06578922271728516,"postalCode":"E2 6EH"}},{"id":"4d29e25c77a2a1cd68c66fb7","name":"Anderson & Co","stats":{"checkinsCount":118,"usersCount":44,"tipCount":6},"categories":[{"id":"4bf58dd8d48988d16d941735"}],"location":{"lat":51.46738,"lng":-0.072416,"postalCode":"SE15 4DH"}},{"id":"4c244cfba852c92825fbe26c","name":"Wavelengths Leisure Centre","stats":{"checkinsCount":166,"usersCount":48,"tipCount":0},"categories":[{"id":"4bf58dd8d48988d105941735"}],"location":{"lat":51.4780077333988,"lng":-0.023466187962341185}},{"id":"4b2e239df964a520f7dc24e3","name":"Positively 4th Street","stats":{"checkinsCount":78,"usersCount":67,"tipCount":6},"categories":[{"id":"4bf58dd8d48988d1d4941735"}],"location":{"lat":51.52794312068636,"lng":-0.13878822326660156,"postalCode":"NW1 3EE"}},{"id":"4c2dbcc7e116e21ee2098f60","name":"HUNter 486","stats":{"checkinsCount":97,"usersCount":70,"tipCount":2},"categories":[{"id":"4bf58dd8d48988d11e941735"}],"location":{"lat":51.5157,"lng":-0.159802,"postalCode":"W1H 7FD"}},{"id":"4e2fd6721f6ed9df9023af80","name":"Forever21","stats":{"checkinsCount":95,"usersCount":76,"tipCount":1},"categories":[{"id":"4bf58dd8d48988d103951735"}],"location":{"lat":51.514266557802,"lng":-0.1505309411702989,"postalCode":"W1K 5"}},{"id":"4d20818b8629224bf18a1387","name":"Subway","stats":{"checkinsCount":113,"usersCount":59,"tipCount":5},"categories":[{"id":"4bf58dd8d48988d1c5941735"}],"location":{"lat":51.51375,"lng":-0.117919,"postalCode":"WC2A 2"}},{"id":"4b2926ccf964a520cc9924e3","name":"Tart","stats":{"checkinsCount":107,"usersCount":74,"tipCount":6},"categories":[{"id":"4bf58dd8d48988d11e941735"}],"location":{"lat":51.520272,"lng":-0.10049}},{"id":"4b28fd2bf964a520029724e3","name":"Regus","stats":{"checkinsCount":146,"usersCount":42,"tipCount":1},"categories":[{"id":"4bf58dd8d48988d1e1931735"}],"location":{"lat":51.519569,"lng":-0.08916,"postalCode":"EC2Y 9HT"}},{"id":"4c2b4e0357a9c9b68ea5f567","name":"Pret A Manger","stats":{"checkinsCount":92,"usersCount":57,"tipCount":0},"categories":[{"id":"4bf58dd8d48988d1c5941735"}],"location":{"lat":51.5113117596,"lng":-0.0881874972307,"postalCode":"EC4N 5BP"}},{"id":"4d23a1a7cc84721e61f761f6","name":"Queensbury Deli","stats":{"checkinsCount":115,"usersCount":55,"tipCount":5},"categories":[{"id":"4bf58dd8d48988d146941735"}],"location":{"lat":51.548524526072114,"lng":-0.22217814564402688}},{"id":"4e22ec301495f18f035cc97f","name":"TK Maxx","stats":{"checkinsCount":96,"usersCount":51,"tipCount":1},"categories":[{"id":"4bf58dd8d48988d103951735"}],"location":{"lat":51.54016925534432,"lng":-0.1959211195251579,"postalCode":"NW6 4JD"}},{"id":"4d271b2d915fa093a936f009","name":"Taylor Walker","stats":{"checkinsCount":89,"usersCount":84,"tipCount":2},"categories":[{"id":"4bf58dd8d48988d11b941735"}],"location":{"lat":51.508849292330346,"lng":-0.13556686385018923,"postalCode":"SW1A 2BA"}},{"id":"4b23e40ff964a520355c24e3","name":"Madsen","stats":{"checkinsCount":93,"usersCount":82,"tipCount":10},"categories":[{"id":"4bf58dd8d48988d1c6941735"}],"location":{"lat":51.493734,"lng":-0.174705,"postalCode":"SW7 3DL"}},{"id":"4c2125997e85c928750bba21","name":"Roussillon","stats":{"checkinsCount":84,"usersCount":50,"tipCount":1},"categories":[{"id":"4bf58dd8d48988d10c941735"}],"location":{"lat":51.489952,"lng":-0.151476}},{"id":"4c28d5aad26eb7130e5414d1","name":"Tesco Metro","stats":{"checkinsCount":103,"usersCount":63,"tipCount":0},"categories":[{"id":"4bf58dd8d48988d118951735"}],"location":{"lat":51.49216569993733,"lng":-0.13947486877441406,"postalCode":"SW1V 1RX"}},{"id":"4b280bfaf964a5202f8e24e3","name":"Chimes","stats":{"checkinsCount":95,"usersCount":71,"tipCount":6},"categories":[{"id":"4bf58dd8d48988d155941735"}],"location":{"lat":51.491745,"lng":-0.138912,"postalCode":"SW1V 2LP"}},{"id":"4f2d57ebe4b0d337d3c7302d","name":"County Hall Arms","stats":{"checkinsCount":84,"usersCount":80,"tipCount":0},"categories":[{"id":"4bf58dd8d48988d11b941735"}],"location":{"lat":51.50115610069437,"lng":-0.11980891227722168,"postalCode":"SE1 7PB"}},{"id":"4b264571f964a520b37924e3","name":"Ravello Sandwich Deli","stats":{"checkinsCount":134,"usersCount":40,"tipCount":2},"categories":[{"id":"4bf58dd8d48988d1e0931735"}],"location":{"lat":51.49486831,"lng":-0.12695728}},{"id":"4c250182b7b8a59335773de8","name":"Tesco Express","stats":{"checkinsCount":105,"usersCount":58,"tipCount":1},"categories":[{"id":"4bf58dd8d48988d118951735"}],"location":{"lat":51.463513,"lng":-0.133043,"postalCode":"SW4 7TG"}},{"id":"4b2bffdff964a5204ebf24e3","name":"19 Numara Bos Cirrik I","stats":{"checkinsCount":95,"usersCount":81,"tipCount":5},"categories":[{"id":"4f04af1f2fb6e1c99f3db0bb"}],"location":{"lat":51.55159125718519,"lng":-0.075026,"postalCode":"N16 7XJ"}},{"id":"4e2d4751315185636a09b539","name":"Ground Cafe","stats":{"checkinsCount":146,"usersCount":53,"tipCount":3},"categories":[{"id":"4bf58dd8d48988d16d941735"}],"location":{"lat":51.523657721993324,"lng":-0.03918170928955078,"postalCode":"E1 4NS"}},{"id":"4c2386cb99282d7fe7ca68b0","name":"O2 Store","stats":{"checkinsCount":72,"usersCount":60,"tipCount":2},"categories":[{"id":"4bf58dd8d48988d122951735"}],"location":{"lat":51.50777822022704,"lng":-0.22234393524330434,"postalCode":"W12 7SL"}},{"id":"4c2208c834faef3be88b586d","name":"Tray Gourmet","stats":{"checkinsCount":138,"usersCount":30,"tipCount":3},"categories":[{"id":"4bf58dd8d48988d10c941735"}],"location":{"lat":51.485035,"lng":-0.18256,"postalCode":"9NA"}},{"id":"4d287edf342d6dcb4aeaf8ca","name":"Yamal Alsham","stats":{"checkinsCount":122,"usersCount":46,"tipCount":2},"categories":[{"id":"4bf58dd8d48988d1db931735"}],"location":{"lat":51.473276764324005,"lng":-0.18215156011970143,"postalCode":"SW6 2UB"}},{"id":"4c28da71ce3fc92895d06d88","name":"Kula","stats":{"checkinsCount":69,"usersCount":60,"tipCount":3},"categories":[{"id":"4bf58dd8d48988d1c9941735"}],"location":{"lat":51.51498709,"lng":-0.150648}},{"id":"4b27e322f964a520c18b24e3","name":"24 London","stats":{"checkinsCount":101,"usersCount":65,"tipCount":1},"categories":[{"id":"4bf58dd8d48988d11f941735"}],"location":{"lat":51.51328,"lng":-0.139164}},{"id":"4b26b53cf964a520d57f24e3","name":"Y Ming","stats":{"checkinsCount":100,"usersCount":66,"tipCount":4},"categories":[{"id":"4bf58dd8d48988d145941735"}],"location":{"lat":51.5130459534213,"lng":-0.13011932373046875,"postalCode":"W1D 5DL"}},{"id":"4c23025dfbe5c9b693d59a21","name":"O2","stats":{"checkinsCount":94,"usersCount":83,"tipCount":1},"categories":[{"id":"4bf58dd8d48988d122951735"}],"location":{"lat":51.5099055548362,"lng":-0.12277007633722903,"postalCode":"WC2N 5LR"}},{"id":"4c2201b9aa8e9c74235bf4d4","name":"Lowndes Bar & Kitchen","stats":{"checkinsCount":123,"usersCount":50,"tipCount":0},"categories":[{"id":"4bf58dd8d48988d1c4941735"}],"location":{"lat":51.499265,"lng":-0.158123,"postalCode":"SW1X9ES"}},{"id":"4c28bbdbd26eb713a74d14d1","name":"Kitts","stats":{"checkinsCount":75,"usersCount":61,"tipCount":2},"categories":[{"id":"4bf58dd8d48988d11f941735"}],"location":{"lat":51.492766896468545,"lng":-0.15707015991210938,"postalCode":"SW1W 8EG‎"}},{"id":"4c25e3de905a0f470c3f6260","name":"Gap","stats":{"checkinsCount":83,"usersCount":50,"tipCount":0},"categories":[{"id":"4bf58dd8d48988d103951735"}],"location":{"lat":51.490186,"lng":-0.162362}},{"id":"4d21fd66b69c6dcba43c7e95","name":"Joy","stats":{"checkinsCount":86,"usersCount":67,"tipCount":2},"categories":[{"id":"4bf58dd8d48988d103951735"}],"location":{"lat":51.50607654753475,"lng":-0.10066247823578327}},{"id":"4d278667f7a9224bf71fec9f","name":"Anh Dao","stats":{"checkinsCount":76,"usersCount":68,"tipCount":6},"categories":[{"id":"4bf58dd8d48988d14a941735"}],"location":{"lat":51.530131,"lng":-0.077348,"postalCode":"E2 8DP"}},{"id":"4e22d193b61cdcf1eccbf8e5","name":"Lily Vanilli Bakery","stats":{"checkinsCount":85,"usersCount":66,"tipCount":4},"categories":[{"id":"4bf58dd8d48988d16a941735"}],"location":{"lat":51.529580098210495,"lng":-0.06970781518012731}},{"id":"4c2f89a6a0ced13addb8106e","name":"The Corbets","stats":{"checkinsCount":74,"usersCount":64,"tipCount":1},"categories":[{"id":"4bf58dd8d48988d116941735"}],"location":{"lat":51.520759,"lng":-0.073536,"postalCode":"E1 6"}},{"id":"4b2267fbf964a520654624e3","name":"Lime Street Exchange","stats":{"checkinsCount":102,"usersCount":47,"tipCount":1},"categories":[{"id":"4bf58dd8d48988d123941735"}],"location":{"lat":51.51354854035142,"lng":-0.08201946591147014,"postalCode":"EC3M 7BS"}},{"id":"4c2b9a51b34ad13a440ceace","name":"La Locanda","stats":{"checkinsCount":80,"usersCount":77,"tipCount":5},"categories":[{"id":"4bf58dd8d48988d110941735"}],"location":{"lat":51.511471,"lng":-0.139516}},{"id":"4c2e6e1ea0ced13a8fd90e6e","name":"elcantara","stats":{"checkinsCount":92,"usersCount":70,"tipCount":4},"categories":[{"id":"4bf58dd8d48988d1c3941735"}],"location":{"lat":51.513329,"lng":-0.131266,"postalCode":"W1D4SD"}},{"id":"4b2e45ecf964a520d0dd24e3","name":"Brick Lounge","stats":{"checkinsCount":94,"usersCount":85,"tipCount":3},"categories":[{"id":"4bf58dd8d48988d121941735"}],"location":{"lat":51.524204,"lng":-0.071581,"postalCode":"E1 6SA"}},{"id":"4c2caa1aae6820a1a7a51943","name":"Chop'd","stats":{"checkinsCount":145,"usersCount":37,"tipCount":3},"categories":[{"id":"4bf58dd8d48988d1bd941735"}],"location":{"lat":51.51288904493241,"lng":-0.08401751518249512,"postalCode":"EC3V 1LR"}},{"id":"4c558019fd2ea593b577d62b","name":"Mothercare","stats":{"checkinsCount":95,"usersCount":56,"tipCount":2},"categories":[{"id":"4bf58dd8d48988d105951735"}],"location":{"lat":51.611098,"lng":-0.043547,"postalCode":"N18 3HA"}},{"id":"4c55d81d72cf0f471bede9d6","name":"Tesco Express","stats":{"checkinsCount":133,"usersCount":38,"tipCount":1},"categories":[{"id":"4bf58dd8d48988d118951735"}],"location":{"lat":51.48456321985056,"lng":0.003604888916015625,"postalCode":"SE10 9TZ"}},{"id":"4d553d9916a6b60c4f7d48f8","name":"Alibi","stats":{"checkinsCount":330,"usersCount":14,"tipCount":1},"categories":[{"id":"4bf58dd8d48988d147941735"}],"location":{"lat":51.509027,"lng":-0.086933,"postalCode":"EC4R 9HA"}},{"id":"4b520cfcf964a520296427e3","name":"Cafe Bleu","stats":{"checkinsCount":130,"usersCount":46,"tipCount":4},"categories":[{"id":"4bf58dd8d48988d16d941735"}],"location":{"lat":51.522745047563006,"lng":-0.25835701378213505,"postalCode":"W3"}},{"id":"4b5b7470f964a52047ff28e3","name":"Caledonian Club","stats":{"checkinsCount":89,"usersCount":74,"tipCount":0},"categories":[{"id":"4bf58dd8d48988d119941735"}],"location":{"lat":51.500632,"lng":-0.152779,"postalCode":"SW1X 7DR"}},{"id":"4b51bd14f964a520fa5327e3","name":"Betty Blythe","stats":{"checkinsCount":170,"usersCount":31,"tipCount":1},"categories":[{"id":"4bf58dd8d48988d1dc931735"}],"location":{"lat":51.49811077166162,"lng":-0.21865040698363583,"postalCode":"W14 0HP"}},{"id":"4f53a937e4b03be364423dd2","name":"SCI-FI-LONDON @ Apollo Cinemas","stats":{"checkinsCount":90,"usersCount":57,"tipCount":2},"categories":[{"id":"4bf58dd8d48988d17e941735"}],"location":{"lat":51.50883594477463,"lng":-0.13423919677734375}},{"id":"4e5950448877c8a76de44195","name":"Cote Hampstead Heath","stats":{"checkinsCount":86,"usersCount":62,"tipCount":2},"categories":[{"id":"4bf58dd8d48988d1c4941735"}],"location":{"lat":51.555669,"lng":-0.175944}},{"id":"4c5004e98edf0f4706e08bae","name":"Makro","stats":{"checkinsCount":115,"usersCount":64,"tipCount":3},"categories":[{"id":"4bf58dd8d48988d1f6941735"}],"location":{"lat":51.52975861967921,"lng":-0.25281429290771484,"postalCode":"NW10 6DD"}},{"id":"4d516862dcce224bb5bee11b","name":"Hyde Park Corner Kiosk","stats":{"checkinsCount":98,"usersCount":82,"tipCount":0},"categories":[{"id":"4bf58dd8d48988d1cb941735"}],"location":{"lat":51.502948,"lng":-0.152668}},{"id":"4c5b07102091a59355d760d0","name":"Hai-Ha","stats":{"checkinsCount":114,"usersCount":60,"tipCount":3},"categories":[{"id":"4bf58dd8d48988d14a941735"}],"location":{"lat":51.54316424703788,"lng":-0.05536163989158216,"postalCode":"E8 3RD"}},{"id":"4b521c67f964a520bb6827e3","name":"Hung Việt","stats":{"checkinsCount":81,"usersCount":60,"tipCount":6},"categories":[{"id":"4bf58dd8d48988d14a941735"}],"location":{"lat":51.530855,"lng":-0.07721252999999999,"postalCode":"E2 8DY"}},{"id":"4d556cb19e508cfa8dddff9a","name":"Three Mills Studio Stage 11","stats":{"checkinsCount":88,"usersCount":48,"tipCount":0},"categories":[{"id":"4bf58dd8d48988d17f941735"}],"location":{"lat":51.52739,"lng":-0.006891}},{"id":"4b520137f964a520ab6027e3","name":"Barons Court Theatre","stats":{"checkinsCount":86,"usersCount":52,"tipCount":5},"categories":[{"id":"4bf58dd8d48988d135941735"}],"location":{"lat":51.48953172799543,"lng":-0.20914418050923286}},{"id":"4f5b4cc9e4b07fef00587eeb","name":"The Bloody Tower","stats":{"checkinsCount":84,"usersCount":77,"tipCount":0},"categories":[{"id":"4bf58dd8d48988d181941735"}],"location":{"lat":51.50788188949119,"lng":-0.07664442720102527}},{"id":"4c585e7112f0d13a444109ad","name":"Dulwich Hamlet FC","stats":{"checkinsCount":145,"usersCount":53,"tipCount":1},"categories":[{"id":"4bf58dd8d48988d188941735"}],"location":{"lat":51.4614206320189,"lng":-0.08382473877781753,"postalCode":"SE22 8BD"}},{"id":"4b5794bbf964a520e83828e3","name":"Mondragone","stats":{"checkinsCount":107,"usersCount":44,"tipCount":5},"categories":[{"id":"4bf58dd8d48988d110941735"}],"location":{"lat":51.582913,"lng":-0.011671,"postalCode":"E17 8LN"}},{"id":"4b5216bcf964a520e06627e3","name":"Al Parco","stats":{"checkinsCount":97,"usersCount":49,"tipCount":3},"categories":[{"id":"4bf58dd8d48988d110941735"}],"location":{"lat":51.561316,"lng":-0.150616}},{"id":"4b589fadf964a520f66128e3","name":"Au Lac","stats":{"checkinsCount":138,"usersCount":49,"tipCount":9},"categories":[{"id":"4bf58dd8d48988d14a941735"}],"location":{"lat":51.55712249810155,"lng":-0.09802937507629395,"postalCode":"N5 2XE"}},{"id":"4b54b49af964a52017c827e3","name":"Thai Corner Café","stats":{"checkinsCount":100,"usersCount":74,"tipCount":2},"categories":[{"id":"4bf58dd8d48988d149941735"}],"location":{"lat":51.546767,"lng":-0.098811,"postalCode":"N1 2LJ"}},{"id":"4b5f4e10f964a52002b329e3","name":"Metal Works","stats":{"checkinsCount":82,"usersCount":72,"tipCount":0},"categories":[{"id":"4bf58dd8d48988d1e5931735"}],"location":{"lat":51.53238746083762,"lng":-0.10518666235011534,"postalCode":"N1 8"}},{"id":"4b50933bf964a520f42727e3","name":"The North Star","stats":{"checkinsCount":102,"usersCount":60,"tipCount":1},"categories":[{"id":"4bf58dd8d48988d11b941735"}],"location":{"lat":51.545764,"lng":-0.178307,"postalCode":"NW3 5JJ"}},{"id":"4b55cb65f964a52054f027e3","name":"Gusto","stats":{"checkinsCount":119,"usersCount":52,"tipCount":1},"categories":[{"id":"4bf58dd8d48988d110941735"}],"location":{"lat":51.51922,"lng":-0.194791}},{"id":"4b5073bff964a520b12327e3","name":"Millie's Cookies","stats":{"checkinsCount":74,"usersCount":59,"tipCount":0},"categories":[{"id":"4bf58dd8d48988d1bc941735"}],"location":{"lat":51.51564654944775,"lng":-0.1762533187866211,"postalCode":"W2 1BH"}},{"id":"4c5c34dd9b28d13a74125670","name":"Krispy Kreme","stats":{"checkinsCount":76,"usersCount":61,"tipCount":1},"categories":[{"id":"4bf58dd8d48988d148941735"}],"location":{"lat":51.49861,"lng":-0.163144,"postalCode":"SW1X 7XL"}},{"id":"4b51ebd9f964a5206d5b27e3","name":"taschen shop","stats":{"checkinsCount":81,"usersCount":64,"tipCount":0},"categories":[{"id":"4bf58dd8d48988d114951735"}],"location":{"lat":51.491178,"lng":-0.159308}},{"id":"4b5d8f4af964a5207e6129e3","name":"Madeira Star","stats":{"checkinsCount":217,"usersCount":31,"tipCount":4},"categories":[{"id":"4bf58dd8d48988d16d941735"}],"location":{"lat":51.487306,"lng":-0.111148,"postalCode":"SE11 4QE"}},{"id":"4b58224af964a520d54b28e3","name":"The Electric Elephant Cafe & Gallery","stats":{"checkinsCount":84,"usersCount":61,"tipCount":6},"categories":[{"id":"4bf58dd8d48988d16d941735"}],"location":{"lat":51.489853,"lng":-0.099204,"postalCode":"SE17 3AE"}},{"id":"4c57308112f0d13abf9006ad","name":"Mongolian Grill Hot Pot","stats":{"checkinsCount":89,"usersCount":67,"tipCount":7},"categories":[{"id":"4eb1d5724b900d56c88a45fe"}],"location":{"lat":51.466164,"lng":-0.14224831999999998,"postalCode":"SW4 0HJ"}},{"id":"4b58b5aff964a520ca6628e3","name":"KFC","stats":{"checkinsCount":99,"usersCount":55,"tipCount":1},"categories":[{"id":"4d4ae6fc7a7b7dea34424761"}],"location":{"lat":51.52692520520204,"lng":-0.06046951981286151}},{"id":"4c55c3a11b46c9b6a5cdcad0","name":"Café marrone","stats":{"checkinsCount":133,"usersCount":33,"tipCount":4},"categories":[{"id":"4bf58dd8d48988d1e0931735"}],"location":{"lat":51.511573663152866,"lng":-0.056133270263671875}},{"id":"4c51e73cd797e21e5cf3d47c","name":"KFC","stats":{"checkinsCount":138,"usersCount":47,"tipCount":1},"categories":[{"id":"4d4ae6fc7a7b7dea34424761"}],"location":{"lat":51.50639189133811,"lng":-0.23702144622802734,"postalCode":"W12 9RA"}},{"id":"4b589899f964a520516028e3","name":"The Flower Stall at the Queen's Elm","stats":{"checkinsCount":169,"usersCount":30,"tipCount":4},"categories":[{"id":"4bf58dd8d48988d11b951735"}],"location":{"lat":51.48927984622253,"lng":-0.17563104629516602,"postalCode":"SW3"}},{"id":"4c587fa16201e21ef4b69670","name":"Greedy Buddha","stats":{"checkinsCount":120,"usersCount":54,"tipCount":6},"categories":[{"id":"4bf58dd8d48988d10f941735"}],"location":{"lat":51.47197489440587,"lng":-0.19152678138897472,"postalCode":"SW6 2UH"}},{"id":"4b53652af964a520af9a27e3","name":"Izgara","stats":{"checkinsCount":89,"usersCount":47,"tipCount":3},"categories":[{"id":"4bf58dd8d48988d10e941735"}],"location":{"lat":51.59991493333334,"lng":-0.196063,"postalCode":"N3"}},{"id":"4b5d9954f964a520f96229e3","name":"Tesco Metro","stats":{"checkinsCount":103,"usersCount":47,"tipCount":0},"categories":[{"id":"4bf58dd8d48988d118951735"}],"location":{"lat":51.58715118703918,"lng":-0.21998186713213314,"postalCode":"NW4 2EL"}},{"id":"4c55f2ca728920a1b5274985","name":"Soyo","stats":{"checkinsCount":124,"usersCount":56,"tipCount":1},"categories":[{"id":"4bf58dd8d48988d1e0931735"}],"location":{"lat":51.57349558605583,"lng":-0.2000284194946289,"postalCode":"NW11 8HB"}},{"id":"4c53f2f34623be9ac5dff1f1","name":"North Cross Road Market","stats":{"checkinsCount":103,"usersCount":54,"tipCount":3},"categories":[{"id":"4bf58dd8d48988d1f9941735"}],"location":{"lat":51.457802,"lng":-0.074204,"postalCode":"SE22 9HZ"}},{"id":"4b5a0112f964a52015a728e3","name":"Cafe Oscar's","stats":{"checkinsCount":119,"usersCount":44,"tipCount":2},"categories":[{"id":"4bf58dd8d48988d1e0931735"}],"location":{"lat":51.456413,"lng":-0.020091,"postalCode":"SE13 7UX"}},{"id":"4b549a0df964a52014c227e3","name":"Ladywell Leisure Centre","stats":{"checkinsCount":157,"usersCount":46,"tipCount":2},"categories":[{"id":"4bf58dd8d48988d175941735"}],"location":{"lat":51.456844589233015,"lng":-0.01410529989814426,"postalCode":"SE13 6NJ"}},{"id":"4b561aebf964a520a00028e3","name":"Tikino","stats":{"checkinsCount":124,"usersCount":49,"tipCount":2},"categories":[{"id":"4bf58dd8d48988d110941735"}],"location":{"lat":51.537674173643374,"lng":-0.13786192380913367,"postalCode":"NW1 2JE"}},{"id":"4c5b03ef2091a593f7ce60d0","name":"Fopp (in Waterstone's)","stats":{"checkinsCount":110,"usersCount":54,"tipCount":0},"categories":[{"id":"4bf58dd8d48988d10d951735"}],"location":{"lat":51.522430697141395,"lng":-0.13222730286027393,"postalCode":"WC1E 6EQ"}},{"id":"4e58f5e6d164da2b275b5d29","name":"Starbucks (High St. Kensington)","stats":{"checkinsCount":84,"usersCount":54,"tipCount":0},"categories":[{"id":"4bf58dd8d48988d1e0931735"}],"location":{"lat":51.51525325390423,"lng":-0.1599135603370666}},{"id":"4c5038fd38b0be9a61d727fd","name":"Ryman","stats":{"checkinsCount":113,"usersCount":56,"tipCount":3},"categories":[{"id":"4bf58dd8d48988d121951735"}],"location":{"lat":51.517489,"lng":-0.151578}},{"id":"4e5f664cd22d7239c1af0837","name":"Subway","stats":{"checkinsCount":97,"usersCount":66,"tipCount":1},"categories":[{"id":"4bf58dd8d48988d1c5941735"}],"location":{"lat":51.51443342,"lng":-0.14795675000000003,"postalCode":"W1C 2HA"}},{"id":"4b5b29fdf964a520e6e728e3","name":"Diesel","stats":{"checkinsCount":97,"usersCount":82,"tipCount":0},"categories":[{"id":"4bf58dd8d48988d106951735"}],"location":{"lat":51.51323958442851,"lng":-0.1454615592956543,"postalCode":"W1S 2TA"}},{"id":"4b545de1f964a520d1b827e3","name":"Lina Stores","stats":{"checkinsCount":101,"usersCount":62,"tipCount":3},"categories":[{"id":"4bf58dd8d48988d1f5941735"}],"location":{"lat":51.51221306852996,"lng":-0.1342878511998106,"postalCode":"W1F 0SH"}},{"id":"4b5761f9f964a520e93428e3","name":"Royal Thai","stats":{"checkinsCount":92,"usersCount":57,"tipCount":5},"categories":[{"id":"4bf58dd8d48988d149941735"}],"location":{"lat":51.532247,"lng":-0.12035111999999999}},{"id":"4d5a674ac88da1cd62554468","name":"Costa","stats":{"checkinsCount":132,"usersCount":38,"tipCount":0},"categories":[{"id":"4bf58dd8d48988d1e0931735"}],"location":{"lat":51.527593,"lng":-0.102541}},{"id":"4e55912e196bd3a8a962c657","name":"St Giles-in-the-Fields Church","stats":{"checkinsCount":77,"usersCount":73,"tipCount":0},"categories":[{"id":"4bf58dd8d48988d146941735"}],"location":{"lat":51.51558695116135,"lng":-0.12842840603639857}},{"id":"4f5a72aee4b01f8f4b058226","name":"Grill On The Square","stats":{"checkinsCount":76,"usersCount":70,"tipCount":2},"categories":[{"id":"4bf58dd8d48988d14e941735"}],"location":{"lat":51.510842210298726,"lng":-0.12967007421827934}},{"id":"4b5216bef964a520e36627e3","name":"Bar Caffe Ciao","stats":{"checkinsCount":100,"usersCount":77,"tipCount":3},"categories":[{"id":"4bf58dd8d48988d1d0941735"}],"location":{"lat":51.51038,"lng":-0.12826}},{"id":"4b506e14f964a520112327e3","name":"Samurai","stats":{"checkinsCount":113,"usersCount":46,"tipCount":2},"categories":[{"id":"4bf58dd8d48988d111941735"}],"location":{"lat":51.51099274641863,"lng":-0.1267075538635254,"postalCode":"WC2N 4LH"}},{"id":"4d5e8842149637041b10cb94","name":"Vital Ingredient","stats":{"checkinsCount":168,"usersCount":35,"tipCount":1},"categories":[{"id":"4bf58dd8d48988d1bd941735"}],"location":{"lat":51.516417,"lng":-0.102045}},{"id":"4b5767edf964a520193628e3","name":"bluu","stats":{"checkinsCount":84,"usersCount":73,"tipCount":2},"categories":[{"id":"4bf58dd8d48988d116941735"}],"location":{"lat":51.515274,"lng":-0.0894743,"postalCode":"EC2R 6"}},{"id":"4b52fa6ff964a520d38b27e3","name":"Dim T","stats":{"checkinsCount":102,"usersCount":70,"tipCount":3},"categories":[{"id":"4bf58dd8d48988d1f5931735"}],"location":{"lat":51.555393,"lng":-0.178302,"postalCode":"NW3 6TP"}},{"id":"4b5753d1f964a520963128e3","name":"China Garden","stats":{"checkinsCount":81,"usersCount":56,"tipCount":8},"categories":[{"id":"4bf58dd8d48988d145941735"}],"location":{"lat":51.545077,"lng":-0.176627}},{"id":"4b5c5a57f964a520192c29e3","name":"Barraco","stats":{"checkinsCount":90,"usersCount":53,"tipCount":7},"categories":[{"id":"4bf58dd8d48988d16b941735"}],"location":{"lat":51.541008,"lng":-0.195968,"postalCode":"NW6 4TA"}},{"id":"4d55b18848ea6ea806ebd7a3","name":"Goode & Wright","stats":{"checkinsCount":71,"usersCount":59,"tipCount":5},"categories":[{"id":"4bf58dd8d48988d1c0941735"}],"location":{"lat":51.518148325,"lng":-0.2066478,"postalCode":"W11 1LR"}},{"id":"4c55880b06901b8def29a34d","name":"Pronto A Mangia","stats":{"checkinsCount":69,"usersCount":60,"tipCount":1},"categories":[{"id":"4bf58dd8d48988d110941735"}],"location":{"lat":51.498956,"lng":-0.1434193,"postalCode":"SW1W 0PP"}},{"id":"4b51ded2f964a520d95827e3","name":"Bread Boutique","stats":{"checkinsCount":100,"usersCount":66,"tipCount":2},"categories":[{"id":"4bf58dd8d48988d16d941735"}],"location":{"lat":51.491586,"lng":-0.158432,"postalCode":"SW3 4LY"}},{"id":"4b5a064bf964a5207fa828e3","name":"The Fox & Hounds","stats":{"checkinsCount":100,"usersCount":74,"tipCount":2},"categories":[{"id":"4bf58dd8d48988d11b941735"}],"location":{"lat":51.491131,"lng":-0.154806,"postalCode":"SW1W 8HR"}},{"id":"4b598745f964a520438b28e3","name":"Tesco Express","stats":{"checkinsCount":93,"usersCount":48,"tipCount":0},"categories":[{"id":"4bf58dd8d48988d118951735"}],"location":{"lat":51.48574,"lng":-0.173395,"postalCode":"SW3 5EP"}},{"id":"4b5db46bf964a520ab6729e3","name":"Accessorize","stats":{"checkinsCount":190,"usersCount":37,"tipCount":0},"categories":[{"id":"4bf58dd8d48988d102951735"}],"location":{"lat":51.50301,"lng":-0.112421,"postalCode":"SE1 8SW"}},{"id":"4b5af36df964a520dcdb28e3","name":"I Knit","stats":{"checkinsCount":85,"usersCount":49,"tipCount":1},"categories":[{"id":"4bf58dd8d48988d1fb941735"}],"location":{"lat":51.501127,"lng":-0.112183,"postalCode":"SE1 7AB"}},{"id":"4b5f4eebf964a52032b329e3","name":"Mar y Terra","stats":{"checkinsCount":86,"usersCount":66,"tipCount":8},"categories":[{"id":"4bf58dd8d48988d1db931735"}],"location":{"lat":51.50396106335338,"lng":-0.10248184204101562,"postalCode":"SE1 0XH"}},{"id":"4c5492d8ca8e76b007c70ddf","name":"The Coriander","stats":{"checkinsCount":100,"usersCount":64,"tipCount":4},"categories":[{"id":"4bf58dd8d48988d10f941735"}],"location":{"lat":51.486347,"lng":-0.11959800000000001,"postalCode":"SE11 5HY"}},{"id":"4e5fd59fb0fb754192cffc44","name":"Sutton & Sons","stats":{"checkinsCount":109,"usersCount":71,"tipCount":2},"categories":[{"id":"4bf58dd8d48988d1ce941735"}],"location":{"lat":51.5594482421875,"lng":-0.07413849234580994,"postalCode":"N16 7NY"}},{"id":"4b530c92f964a520858d27e3","name":"Faulkners Fish & Chips","stats":{"checkinsCount":123,"usersCount":65,"tipCount":3},"categories":[{"id":"4bf58dd8d48988d1ce941735"}],"location":{"lat":51.541886,"lng":-0.076303}},{"id":"4b5a3ce9f964a52097b628e3","name":"Primark","stats":{"checkinsCount":84,"usersCount":64,"tipCount":2},"categories":[{"id":"4bf58dd8d48988d103951735"}],"location":{"lat":51.54779159612114,"lng":-0.0551280498041385,"postalCode":"E8 1HY"}},{"id":"4e51039452b1e893ad709de1","name":"Olympic Park Basketball Arena","stats":{"checkinsCount":97,"usersCount":44,"tipCount":0},"categories":[{"id":"4bf58dd8d48988d18b941735"}],"location":{"lat":51.54388050644605,"lng":-0.008976952631857688}},{"id":"4e58e0ab922ea6b1b747749b","name":"The Chicago Rib Shack","stats":{"checkinsCount":73,"usersCount":61,"tipCount":2},"categories":[{"id":"4bf58dd8d48988d1df931735"}],"location":{"lat":51.542725,"lng":-0.006926000000021304,"postalCode":"E20 1EJ"}},{"id":"4f5f0740e4b0912b83bffdc4","name":"The Liberty Of Norton Folgate","stats":{"checkinsCount":99,"usersCount":42,"tipCount":2},"categories":[{"id":"4bf58dd8d48988d1e0931735"}],"location":{"lat":51.52094891202942,"lng":-0.07890131343405,"postalCode":"EC2M 3AF"}},{"id":"4b5f3343f964a520d8ac29e3","name":"Still & Star","stats":{"checkinsCount":92,"usersCount":50,"tipCount":1},"categories":[{"id":"4bf58dd8d48988d11b941735"}],"location":{"lat":51.513809,"lng":-0.074717,"postalCode":"E1 8AH"}},{"id":"4b5f45aff964a52042b129e3","name":"Railway Tavern","stats":{"checkinsCount":95,"usersCount":59,"tipCount":2},"categories":[{"id":"4bf58dd8d48988d11b941735"}],"location":{"lat":51.512702,"lng":-0.040114,"postalCode":"E14 7JD"}},{"id":"4b5aec5af964a5207bda28e3","name":"Paperchase","stats":{"checkinsCount":96,"usersCount":75,"tipCount":1},"categories":[{"id":"4bf58dd8d48988d121951735"}],"location":{"lat":51.50748705717662,"lng":-0.2220761775970459,"postalCode":"W12 7GE"}},{"id":"4c5ff7c2cd522d7fd2f7cc3f","name":"Minato","stats":{"checkinsCount":105,"usersCount":47,"tipCount":3},"categories":[{"id":"4bf58dd8d48988d113941735"}],"location":{"lat":51.492651,"lng":-0.232677,"postalCode":"W6 9JT"}},{"id":"4b506f26f964a520272327e3","name":"Island Records","stats":{"checkinsCount":161,"usersCount":46,"tipCount":1},"categories":[{"id":"4bf58dd8d48988d10d951735"}],"location":{"lat":51.497071379862604,"lng":-0.205958955438641,"postalCode":"W14"}},