[{"id":"4c07fa4a340720a19e678293","name":"Jamie's Italian Covent Garden","stats":{"checkinsCount":2592,"usersCount":2177,"tipCount":76},"categories":[{"id":"4bf58dd8d48988d110941735"}],"location":{"lat":51.51239494658587,"lng":-0.12703478336334229,"postalCode":"WC2H 9FB"}},{"id":"4b06dbd2f964a520a4f122e3","name":"Camino","stats":{"checkinsCount":2120,"usersCount":1311,"tipCount":45},"categories":[{"id":"4bf58dd8d48988d1db931735"}],"location":{"lat":51.53106680201548,"lng":-0.1217508316040039,"postalCode":"N1 9FD"}},{"id":"4b1a6696f964a520dde923e3","name":"Busaba Eathai","stats":{"checkinsCount":1849,"usersCount":1230,"tipCount":52},"categories":[{"id":"4bf58dd8d48988d149941735"}],"location":{"lat":51.51457607746124,"lng":-0.150826,"postalCode":"W1U 1BU"}},{"id":"4b1e6995f964a520b31924e3","name":"Hummingbird Bakery","stats":{"checkinsCount":2157,"usersCount":1547,"tipCount":58},"categories":[{"id":"4bf58dd8d48988d1bc941735"}],"location":{"lat":51.514333,"lng":-0.134642,"postalCode":"W1F 8WG"}},{"id":"4c111929ce640f4714fc3a52","name":"TGI Friday's","stats":{"checkinsCount":2050,"usersCount":1678,"tipCount":36},"categories":[{"id":"4bf58dd8d48988d14e941735"}],"location":{"lat":51.51024907654901,"lng":-0.13259555778256393,"postalCode":"W1D 7AG"}},{"id":"4b10f3f0f964a520f37623e3","name":"Starbucks","stats":{"checkinsCount":2170,"usersCount":1362,"tipCount":24},"categories":[{"id":"4bf58dd8d48988d1e0931735"}],"location":{"lat":51.50078376231414,"lng":-0.16243726015090942,"postalCode":"SW3 1BW"}},{"id":"4b49e9e3f964a520e27526e3","name":"Smiths of Smithfield","stats":{"checkinsCount":2928,"usersCount":1771,"tipCount":53},"categories":[{"id":"4bf58dd8d48988d143941735"}],"location":{"lat":51.5193986240325,"lng":-0.10263204574584961,"postalCode":"EC1M 6HJ"}},{"id":"4c31c371a0ced13a150d146e","name":"Dishoom","stats":{"checkinsCount":2188,"usersCount":1332,"tipCount":67},"categories":[{"id":"4bf58dd8d48988d10f941735"}],"location":{"lat":51.51243635759003,"lng":-0.12720215194919587,"postalCode":"WC2H 9FB"}},{"id":"4b229b11f964a5200a4a24e3","name":"Le Pain Quotidien","stats":{"checkinsCount":2495,"usersCount":1091,"tipCount":26},"categories":[{"id":"4bf58dd8d48988d16d941735"}],"location":{"lat":51.51431,"lng":-0.139185,"postalCode":"W1F 7HT"}},{"id":"4b263d52f964a520767924e3","name":"Byron","stats":{"checkinsCount":2412,"usersCount":1602,"tipCount":53},"categories":[{"id":"4bf58dd8d48988d16c941735"}],"location":{"lat":51.51292218634193,"lng":-0.13361782047943363,"postalCode":"W1F 0UD"}},{"id":"4b56dcbcf964a5205a1d28e3","name":"Starbucks","stats":{"checkinsCount":2763,"usersCount":1645,"tipCount":40},"categories":[{"id":"4bf58dd8d48988d1e0931735"}],"location":{"lat":51.51284405714286,"lng":-0.140904,"postalCode":"W1S 2BX"}},{"id":"4b6016a3f964a52076d529e3","name":"Starbucks","stats":{"checkinsCount":2489,"usersCount":1551,"tipCount":20},"categories":[{"id":"4bf58dd8d48988d1e0931735"}],"location":{"lat":51.532024,"lng":-0.1258576,"postalCode":"NW1 2QL"}},{"id":"4b6afe60f964a5204deb2be3","name":"Starbucks","stats":{"checkinsCount":1733,"usersCount":1107,"tipCount":17},"categories":[{"id":"4bf58dd8d48988d1e0931735"}],"location":{"lat":51.50953200700342,"lng":-0.1355110218935392,"postalCode":"W1J 0DE"}},{"id":"4b7e8b1bf964a520eef12fe3","name":"Caravan","stats":{"checkinsCount":2520,"usersCount":1097,"tipCount":69},"categories":[{"id":"4bf58dd8d48988d143941735"}],"location":{"lat":51.525357,"lng":-0.11008}},{"id":"4b7e5255f964a52076e92fe3","name":"Starbucks","stats":{"checkinsCount":2251,"usersCount":1294,"tipCount":26},"categories":[{"id":"4bf58dd8d48988d1e0931735"}],"location":{"lat":51.495966464619045,"lng":-0.14410972595214844,"postalCode":"SW1V 1JT"}},{"id":"4b97e81df964a520681e35e3","name":"Four Seasons | 文興酒家","stats":{"checkinsCount":2515,"usersCount":1531,"tipCount":36},"categories":[{"id":"4bf58dd8d48988d145941735"}],"location":{"lat":51.511876047036196,"lng":-0.13094514847944083,"postalCode":"W1D 5PR"}},{"id":"4b9a12c0f964a5209e9d35e3","name":"Haagen-Dazs","stats":{"checkinsCount":1912,"usersCount":1437,"tipCount":31},"categories":[{"id":"4bf58dd8d48988d1c9941735"}],"location":{"lat":51.51098273054791,"lng":-0.12979209423065186,"postalCode":"WC2H 7NG"}},{"id":"4eaef4f4722e4efd614ddb80","name":"Meat Liquor","stats":{"checkinsCount":2335,"usersCount":1596,"tipCount":77},"categories":[{"id":"4bf58dd8d48988d16c941735"}],"location":{"lat":51.51546592312547,"lng":-0.14838846827939206,"postalCode":"W1G 0BA"}},{"id":"4cbebbee97bc721eff208167","name":"Hawksmoor","stats":{"checkinsCount":1626,"usersCount":1182,"tipCount":68},"categories":[{"id":"4bf58dd8d48988d1cc941735"}],"location":{"lat":51.51347489382127,"lng":-0.12570834979153242,"postalCode":"WC2H 9JG"}},{"id":"4ace5eecf964a5202ad020e3","name":"Japan Centre","stats":{"checkinsCount":1931,"usersCount":1095,"tipCount":42},"categories":[{"id":"4bf58dd8d48988d111941735"}],"location":{"lat":51.50898285091343,"lng":-0.13385295867919922,"postalCode":"SW1Y 4PH"}},{"id":"4ac518b9f964a520b0a120e3","name":"Hard Rock Cafe London","stats":{"checkinsCount":4447,"usersCount":3020,"tipCount":73},"categories":[{"id":"4bf58dd8d48988d14e941735"}],"location":{"lat":51.50377743783694,"lng":-0.14903989411971935,"postalCode":"W1K 1QZ"}},{"id":"4acdd0fbf964a5201acd20e3","name":"Bodean's","stats":{"checkinsCount":4315,"usersCount":2471,"tipCount":95},"categories":[{"id":"4bf58dd8d48988d1df931735"}],"location":{"lat":51.51440802993416,"lng":-0.13682618737220764,"postalCode":"W1F 8PZ"}},{"id":"4ac518caf964a520aca520e3","name":"Sketch","stats":{"checkinsCount":3244,"usersCount":2429,"tipCount":95},"categories":[{"id":"4bf58dd8d48988d10c941735"}],"location":{"lat":51.512752166873085,"lng":-0.14127731323242188,"postalCode":"W1S 2XG"}},{"id":"4ac518edf964a520c1ac20e3","name":"Monmouth Coffee Company","stats":{"checkinsCount":3563,"usersCount":1379,"tipCount":83},"categories":[{"id":"4bf58dd8d48988d1e0931735"}],"location":{"lat":51.5143789,"lng":-0.1269052,"postalCode":"WC2H 9EU"}},{"id":"4ac518d5f964a520cda720e3","name":"OXO Tower Brasserie","stats":{"checkinsCount":1611,"usersCount":1431,"tipCount":34},"categories":[{"id":"4bf58dd8d48988d10c941735"}],"location":{"lat":51.50849785017879,"lng":-0.10825880126520036,"postalCode":"SE1 9PH"}},{"id":"4ac518f4f964a520d9ae20e3","name":"Ladurée at Harrods","stats":{"checkinsCount":2330,"usersCount":1493,"tipCount":28},"categories":[{"id":"4bf58dd8d48988d1d0941735"}],"location":{"lat":51.4985971354793,"lng":-0.16235166083353814,"postalCode":"SW1X 7XL"}},{"id":"4ac518c0f964a5209aa320e3","name":"The Wolseley","stats":{"checkinsCount":2528,"usersCount":1873,"tipCount":79},"categories":[{"id":"4bf58dd8d48988d1c4941735"}],"location":{"lat":51.50745366836324,"lng":-0.14115393161773682,"postalCode":"W1J 9EB"}},{"id":"4ace481af964a5209acf20e3","name":"Busaba Eathai","stats":{"checkinsCount":2432,"usersCount":1866,"tipCount":74},"categories":[{"id":"4bf58dd8d48988d149941735"}],"location":{"lat":51.513807,"lng":-0.134296,"postalCode":"W1F 0TR"}},{"id":"4acd9febf964a52069cc20e3","name":"Flat White","stats":{"checkinsCount":2891,"usersCount":1261,"tipCount":74},"categories":[{"id":"4bf58dd8d48988d1e0931735"}],"location":{"lat":51.51358272186168,"lng":-0.1349891108565759,"postalCode":"W1F 0PT"}},{"id":"4ac518d5f964a520d9a720e3","name":"Gaucho","stats":{"checkinsCount":1669,"usersCount":1369,"tipCount":26},"categories":[{"id":"4bf58dd8d48988d107941735"}],"location":{"lat":51.50978783,"lng":-0.137565,"postalCode":"W1B 4QR"}},{"id":"4ac518baf964a52006a220e3","name":"Belgo","stats":{"checkinsCount":2135,"usersCount":1690,"tipCount":46},"categories":[{"id":"4bf58dd8d48988d1c4941735"}],"location":{"lat":51.51381212647118,"lng":-0.12561053037643433,"postalCode":"WC2H 9LJ"}},{"id":"4ac518bbf964a5200ca220e3","name":"Brick Lane Beigel Bake","stats":{"checkinsCount":2280,"usersCount":1292,"tipCount":61},"categories":[{"id":"4bf58dd8d48988d179941735"}],"location":{"lat":51.52443425308087,"lng":-0.07157150109317527,"postalCode":"E1 6SB"}},{"id":"4acd7f02f964a52034cc20e3","name":"Nude Espresso","stats":{"checkinsCount":2524,"usersCount":917,"tipCount":48},"categories":[{"id":"4bf58dd8d48988d1e0931735"}],"location":{"lat":51.520261,"lng":-0.07276,"postalCode":"E1 6QR"}},{"id":"4acdabe2f964a5209fcc20e3","name":"Ping Pong","stats":{"checkinsCount":1822,"usersCount":1426,"tipCount":59},"categories":[{"id":"4bf58dd8d48988d1f5931735"}],"location":{"lat":51.514515,"lng":-0.1389799,"postalCode":"W1F 7JL"}},{"id":"4acdd5b2f964a5202dcd20e3","name":"The Diner","stats":{"checkinsCount":1891,"usersCount":1281,"tipCount":47},"categories":[{"id":"4bf58dd8d48988d147941735"}],"location":{"lat":51.513039,"lng":-0.139072,"postalCode":"W1F 7BU"}},{"id":"4ac4bb54f964a520e49e20e3","name":"The Breakfast Club","stats":{"checkinsCount":2208,"usersCount":1438,"tipCount":64},"categories":[{"id":"4bf58dd8d48988d143941735"}],"location":{"lat":51.514781,"lng":-0.135411,"postalCode":"W1F 8EU"}},{"id":"4ace0a5df964a52007ce20e3","name":"Balans","stats":{"checkinsCount":2729,"usersCount":1557,"tipCount":66},"categories":[{"id":"4bf58dd8d48988d16d941735"}],"location":{"lat":51.51282580847066,"lng":-0.13246381354353812,"postalCode":"W1D 4UG"}},{"id":"4ac518bef964a52006a320e3","name":"Cafe Boheme","stats":{"checkinsCount":1915,"usersCount":1267,"tipCount":25},"categories":[{"id":"4bf58dd8d48988d10c941735"}],"location":{"lat":51.513472,"lng":-0.130582,"postalCode":"W1D 5JQ"}},{"id":"4ac518c4f964a5209aa420e3","name":"Wahaca","stats":{"checkinsCount":2111,"usersCount":1574,"tipCount":70},"categories":[{"id":"4bf58dd8d48988d1c1941735"}],"location":{"lat":51.51022652594927,"lng":-0.12449473142623901,"postalCode":"WC2N 4HG"}},{"id":"4acd796ff964a5202dcc20e3","name":"Starbucks","stats":{"checkinsCount":2650,"usersCount":1386,"tipCount":16},"categories":[{"id":"4bf58dd8d48988d1e0931735"}],"location":{"lat":51.516311,"lng":-0.176679,"postalCode":"W2 1AE"}},{"id":"4ac5bda6f964a5206cb220e3","name":"The Breakfast Club","stats":{"checkinsCount":3991,"usersCount":2093,"tipCount":92},"categories":[{"id":"4bf58dd8d48988d143941735"}],"location":{"lat":51.527095,"lng":-0.081222,"postalCode":"N1 6PE"}},{"id":"4ac518e4f964a520daaa20e3","name":"Cha Cha Moon","stats":{"checkinsCount":1846,"usersCount":1203,"tipCount":47},"categories":[{"id":"4bf58dd8d48988d145941735"}],"location":{"lat":51.512825613687745,"lng":-0.13908594846725464,"postalCode":"W1F 9BN"}},{"id":"4ac518bff964a52034a320e3","name":"Yauatcha","stats":{"checkinsCount":1952,"usersCount":1529,"tipCount":80},"categories":[{"id":"4bf58dd8d48988d1f5931735"}],"location":{"lat":51.51370567919158,"lng":-0.13513918309756048,"postalCode":"W1F 0DL"}},{"id":"4bd0432a9854d13a6855f74d","name":"Look Mum No Hands","stats":{"checkinsCount":2805,"usersCount":1291,"tipCount":60},"categories":[{"id":"4bf58dd8d48988d16d941735"}],"location":{"lat":51.52404155529859,"lng":-0.0969618558883667,"postalCode":"EC1V 9HX"}},{"id":"4ad9a8acf964a5205f1a21e3","name":"Monmouth Coffee Company","stats":{"checkinsCount":4854,"usersCount":1565,"tipCount":75},"categories":[{"id":"4bf58dd8d48988d1e0931735"}],"location":{"lat":51.50549036312065,"lng":-0.09139358997344971,"postalCode":"SE1 9AB"}},{"id":"4adb7057f964a5207b2721e3","name":"Cafe 1001","stats":{"checkinsCount":3371,"usersCount":2129,"tipCount":54},"categories":[{"id":"4bf58dd8d48988d16d941735"}],"location":{"lat":51.52100469771253,"lng":-0.0721021486823894,"postalCode":"E1 6QL"}},{"id":"4ad45cd3f964a520a4e720e3","name":"Vapiano","stats":{"checkinsCount":3504,"usersCount":1927,"tipCount":66},"categories":[{"id":"4bf58dd8d48988d1ca941735"}],"location":{"lat":51.51628749511013,"lng":-0.14122366905212402,"postalCode":"W1W 8QB"}},{"id":"4ad7144ff964a5209c0821e3","name":"Sophie's Steakhouse & Bar","stats":{"checkinsCount":1799,"usersCount":1293,"tipCount":39},"categories":[{"id":"4bf58dd8d48988d1cc941735"}],"location":{"lat":51.51194584877762,"lng":-0.12039105765947321,"postalCode":"WC2E 7DB"}},{"id":"4bd07820462cb7137561d807","name":"Wagamama","stats":{"checkinsCount":1780,"usersCount":1420,"tipCount":18},"categories":[{"id":"4bf58dd8d48988d1d1941735"}],"location":{"lat":51.50576416246527,"lng":-0.11783480644226074,"postalCode":"SE1 8XX"}},{"id":"4ad75c2df964a520cd0921e3","name":"Pizza East","stats":{"checkinsCount":3506,"usersCount":2362,"tipCount":79},"categories":[{"id":"4bf58dd8d48988d1ca941735"}],"location":{"lat":51.52372237106589,"lng":-0.07706126863679272,"postalCode":"E1 6JJ"}},{"id":"4adc5eb1f964a520e32b21e3","name":"Ping Pong","stats":{"checkinsCount":1843,"usersCount":1483,"tipCount":41},"categories":[{"id":"4bf58dd8d48988d1f5931735"}],"location":{"lat":51.505136424944524,"lng":-0.1160430908203125,"postalCode":"SE1 8XX"}},{"id":"4ad0972ff964a520a0d820e3","name":"Tayyabs","stats":{"checkinsCount":2289,"usersCount":1620,"tipCount":75},"categories":[{"id":"4bf58dd8d48988d10f941735"}],"location":{"lat":51.51712342133104,"lng":-0.0634994618236479,"postalCode":"E1 1JU"}},{"id":"4ad24f09f964a520d3e020e3","name":"Kaffeine","stats":{"checkinsCount":4942,"usersCount":1071,"tipCount":68},"categories":[{"id":"4bf58dd8d48988d1e0931735"}],"location":{"lat":51.518457,"lng":-0.140612,"postalCode":"W1W 7QJ"}},{"id":"4ad31935f964a52013e320e3","name":"Princi","stats":{"checkinsCount":4490,"usersCount":2428,"tipCount":127},"categories":[{"id":"4bf58dd8d48988d16a941735"}],"location":{"lat":51.513931983514446,"lng":-0.13429298328258726,"postalCode":"W1F 0UF"}},{"id":"4ad42aa6f964a5205de720e3","name":"Starbucks","stats":{"checkinsCount":2218,"usersCount":1033,"tipCount":17},"categories":[{"id":"4bf58dd8d48988d1e0931735"}],"location":{"lat":51.50281238523426,"lng":-0.11273860931396484,"postalCode":"SE1 7LY"}},{"id":"4ad31fe1f964a52022e320e3","name":"Starbucks","stats":{"checkinsCount":2092,"usersCount":1442,"tipCount":17},"categories":[{"id":"4bf58dd8d48988d1e0931735"}],"location":{"lat":51.51616731848544,"lng":-0.13265132904052734,"postalCode":"W1D 2EQ"}},{"id":"4cd2c1181a096a31ccc0c7a7","name":"Wahaca","stats":{"checkinsCount":2781,"usersCount":1939,"tipCount":57},"categories":[{"id":"4bf58dd8d48988d1c1941735"}],"location":{"lat":51.513119,"lng":-0.13361678333333335,"postalCode":"W1F 0TF"}},{"id":"4ad9cc01f964a520ef1a21e3","name":"The Breakfast Club","stats":{"checkinsCount":1962,"usersCount":1032,"tipCount":49},"categories":[{"id":"4bf58dd8d48988d143941735"}],"location":{"lat":51.53505452385795,"lng":-0.10371029376983643,"postalCode":"N1 8EA"}},{"id":"4ad58b9ff964a5201b0321e3","name":"Starbucks","stats":{"checkinsCount":3594,"usersCount":1692,"tipCount":30},"categories":[{"id":"4bf58dd8d48988d1e0931735"}],"location":{"lat":51.5166346702448,"lng":-0.12928247451782227,"postalCode":"WC1A 1HH"}},{"id":"4ad5c39ff964a520650321e3","name":"The Diner","stats":{"checkinsCount":2336,"usersCount":1361,"tipCount":68},"categories":[{"id":"4bf58dd8d48988d147941735"}],"location":{"lat":51.52625771215516,"lng":-0.0802302360534668,"postalCode":"EC2A 3AQ"}},{"id":"4de5f8bfb3ad2c317fe2dcae","name":"Shoreditch Grind","stats":{"checkinsCount":2268,"usersCount":856,"tipCount":60},"categories":[{"id":"4bf58dd8d48988d1e0931735"}],"location":{"lat":51.525738,"lng":-0.08749075,"postalCode":"EC1V 9NR"}},{"id":"4bee67722c082d7f09663042","name":"Starbucks","stats":{"checkinsCount":2218,"usersCount":1671,"tipCount":26},"categories":[{"id":"4bf58dd8d48988d1e0931735"}],"location":{"lat":51.51395067054886,"lng":-0.1522207260131836,"postalCode":"W1C 2PJ"}},{"id":"4aeffc1ef964a5206eda21e3","name":"The Albion","stats":{"checkinsCount":2782,"usersCount":1470,"tipCount":82},"categories":[{"id":"4bf58dd8d48988d16d941735"}],"location":{"lat":51.524504004226074,"lng":-0.07659997577575628,"postalCode":"E1 7JE"}},{"id":"4ae02185f964a5203f7e21e3","name":"Starbucks","stats":{"checkinsCount":1703,"usersCount":1358,"tipCount":13},"categories":[{"id":"4bf58dd8d48988d1e0931735"}],"location":{"lat":51.514625023656755,"lng":-0.14642715454101562,"postalCode":"W1N 9AA"}},{"id":"4be54fb39026ef3b80b90a38","name":"Chipotle Mexican Grill","stats":{"checkinsCount":2946,"usersCount":1501,"tipCount":76},"categories":[{"id":"4bf58dd8d48988d1c1941735"}],"location":{"lat":51.5145916400744,"lng":-0.12986183166503906,"postalCode":"WC2H 0JR"}},{"id":"4ae35413f964a5207f9321e3","name":"Giraffe","stats":{"checkinsCount":1635,"usersCount":1342,"tipCount":29},"categories":[{"id":"4bf58dd8d48988d1c4941735"}],"location":{"lat":51.506285044481096,"lng":-0.11737346649169922,"postalCode":"SE1 8XX"}},{"id":"4bebeb7f415e20a17fd0e6bb","name":"Starbucks","stats":{"checkinsCount":1875,"usersCount":1001,"tipCount":10},"categories":[{"id":"4bf58dd8d48988d1e0931735"}],"location":{"lat":51.51266870443993,"lng":-0.13332724571228027,"postalCode":"W1F 0TA"}},{"id":"4afee58af964a520553122e3","name":"Chilango","stats":{"checkinsCount":2469,"usersCount":933,"tipCount":39},"categories":[{"id":"4bf58dd8d48988d153941735"}],"location":{"lat":51.53460070869508,"lng":-0.105094313621521,"postalCode":"N1 0PN"}},{"id":"4c051045f56c2d7f720d1f66","name":"Byron","stats":{"checkinsCount":1504,"usersCount":1119,"tipCount":30},"categories":[{"id":"4bf58dd8d48988d16c941735"}],"location":{"lat":51.51201435366509,"lng":-0.12069940567016602,"postalCode":"WC2E 7BN"}},{"id":"4b0936c8f964a520bc1423e3","name":"Starbucks","stats":{"checkinsCount":1769,"usersCount":937,"tipCount":8},"categories":[{"id":"4bf58dd8d48988d1e0931735"}],"location":{"lat":51.494551,"lng":-0.182671,"postalCode":"SW7 4SS"}},{"id":"4b0d32fff964a5208a4423e3","name":"Joe & The Juice","stats":{"checkinsCount":1578,"usersCount":874,"tipCount":46},"categories":[{"id":"4bf58dd8d48988d112941735"}],"location":{"lat":51.516042,"lng":-0.142338,"postalCode":"W1B 2HE"}},{"id":"4b069278f964a5204aed22e3","name":"Hoxton Hotel Grill","stats":{"checkinsCount":1631,"usersCount":984,"tipCount":35},"categories":[{"id":"4bf58dd8d48988d157941735"}],"location":{"lat":51.525353239477596,"lng":-0.08299827575683594}},{"id":"4b44869ff964a52007f625e3","name":"McDonald's","stats":{"checkinsCount":1390,"usersCount":970,"tipCount":21},"categories":[{"id":"4bf58dd8d48988d16e941735"}],"location":{"lat":51.508917895026606,"lng":-0.12482085320443237,"postalCode":"WC2N 5HZ"}},{"id":"4b212751f964a520683724e3","name":"Las Iguanas","stats":{"checkinsCount":1408,"usersCount":1136,"tipCount":16},"categories":[{"id":"4bf58dd8d48988d1be941735"}],"location":{"lat":51.505784117223826,"lng":-0.11764319506903205,"postalCode":"SE1 8XX"}},{"id":"4b5b3862f964a52028ec28e3","name":"Starbucks","stats":{"checkinsCount":1850,"usersCount":915,"tipCount":9},"categories":[{"id":"4bf58dd8d48988d1e0931735"}],"location":{"lat":51.49420138616236,"lng":-0.14680266380310059,"postalCode":"SW1W 0SS"}},{"id":"4b77eb6ff964a520c4ae2ee3","name":"Starbucks","stats":{"checkinsCount":1619,"usersCount":914,"tipCount":16},"categories":[{"id":"4bf58dd8d48988d1e0931735"}],"location":{"lat":51.508755813953826,"lng":-0.1254737377166748,"postalCode":"WC2R 0QU"}},{"id":"4b9e31c4f964a520ead036e3","name":"Starbucks","stats":{"checkinsCount":1787,"usersCount":865,"tipCount":16},"categories":[{"id":"4bf58dd8d48988d1e0931735"}],"location":{"lat":51.513627,"lng":-0.12363096672168573,"postalCode":"WC2E 9JL"}},{"id":"4b93c146f964a520fe4f34e3","name":"Burger King","stats":{"checkinsCount":1322,"usersCount":1096,"tipCount":8},"categories":[{"id":"4bf58dd8d48988d16e941735"}],"location":{"lat":51.511001092975896,"lng":-0.1294487714767456,"postalCode":"WC2H 7LE"}},{"id":"4da49dccc6e96ea82a06015e","name":"The Riding House Café","stats":{"checkinsCount":1681,"usersCount":1056,"tipCount":37},"categories":[{"id":"4bf58dd8d48988d16d941735"}],"location":{"lat":51.518329813069926,"lng":-0.14050999513651485,"postalCode":"W1W 7PQ"}},{"id":"4ba7f1daf964a520d7c039e3","name":"Four Seasons Chinese Restaurant","stats":{"checkinsCount":1364,"usersCount":1022,"tipCount":35},"categories":[{"id":"4bf58dd8d48988d145941735"}],"location":{"lat":51.51284844436223,"lng":-0.1876504480004523,"postalCode":"W2 3RL"}},{"id":"4bacc707f964a520720b3be3","name":"Byron","stats":{"checkinsCount":1637,"usersCount":1015,"tipCount":45},"categories":[{"id":"4bf58dd8d48988d16c941735"}],"location":{"lat":51.50751376820967,"lng":-0.2215719223022461,"postalCode":"W12 7GF"}},{"id":"4bb9e43553649c74075948fb","name":"Wahaca","stats":{"checkinsCount":1569,"usersCount":1150,"tipCount":40},"categories":[{"id":"4bf58dd8d48988d1c1941735"}],"location":{"lat":51.50653880535736,"lng":-0.22197961807250977,"postalCode":"W12 7GB"}},{"id":"4bbb2ff71261d13a1058eb98","name":"Tapped & Packed No.26","stats":{"checkinsCount":2398,"usersCount":601,"tipCount":46},"categories":[{"id":"4bf58dd8d48988d1e0931735"}],"location":{"lat":51.51766282723606,"lng":-0.1341533660888672,"postalCode":"W1T1JD"}},{"id":"4ac518c5f964a520dea420e3","name":"Cat And Mutton","stats":{"checkinsCount":1540,"usersCount":876,"tipCount":31},"categories":[{"id":"4bf58dd8d48988d155941735"}],"location":{"lat":51.5376359451125,"lng":-0.06098066396728693,"postalCode":"E8 4QJ"}},{"id":"4ac518d6f964a52031a820e3","name":"Bluebird","stats":{"checkinsCount":1527,"usersCount":1088,"tipCount":22},"categories":[{"id":"4bf58dd8d48988d1c4941735"}],"location":{"lat":51.48491881351365,"lng":-0.17523696055999072,"postalCode":"SW3 5UU"}},{"id":"4bc9eb79511f9521e585aec7","name":"Pret A Manger","stats":{"checkinsCount":1494,"usersCount":966,"tipCount":12},"categories":[{"id":"4bf58dd8d48988d1c5941735"}],"location":{"lat":51.51336310722725,"lng":-0.15874385833740234,"postalCode":"W1C 1LZ"}},{"id":"4acde780f964a5207dcd20e3","name":"Jamie Oliver's Fifteen","stats":{"checkinsCount":1432,"usersCount":1217,"tipCount":50},"categories":[{"id":"4bf58dd8d48988d110941735"}],"location":{"lat":51.528498,"lng":-0.090567,"postalCode":"N1 7LP"}},{"id":"4ac518d6f964a52050a820e3","name":"Nobu","stats":{"checkinsCount":1568,"usersCount":1164,"tipCount":44},"categories":[{"id":"4bf58dd8d48988d1d2941735"}],"location":{"lat":51.5050896199222,"lng":-0.15039654706353103,"postalCode":"W1K 1LB"}},{"id":"4ac518dff964a52005aa20e3","name":"Nobu","stats":{"checkinsCount":1554,"usersCount":1175,"tipCount":38},"categories":[{"id":"4bf58dd8d48988d111941735"}],"location":{"lat":51.50830841428091,"lng":-0.1434338092803955,"postalCode":"W1J 8DY"}},{"id":"4ac518c0f964a520aba320e3","name":"Hawksmoor","stats":{"checkinsCount":1414,"usersCount":958,"tipCount":51},"categories":[{"id":"4bf58dd8d48988d1cc941735"}],"location":{"lat":51.52141814770372,"lng":-0.075714,"postalCode":"E1 6BJ"}},{"id":"4acdb15ff964a520b4cc20e3","name":"Benito's Hat","stats":{"checkinsCount":1944,"usersCount":799,"tipCount":32},"categories":[{"id":"4bf58dd8d48988d1c1941735"}],"location":{"lat":51.51908916032011,"lng":-0.13646914814013317,"postalCode":"W1T 4NB"}},{"id":"4acdee6ef964a52099cd20e3","name":"Fernandez & Wells","stats":{"checkinsCount":2319,"usersCount":729,"tipCount":45},"categories":[{"id":"4bf58dd8d48988d16d941735"}],"location":{"lat":51.512749391744265,"lng":-0.1365529948768869,"postalCode":"W1F 9SR"}},{"id":"4ac518e7f964a52034ab20e3","name":"Hummus Bros.","stats":{"checkinsCount":1644,"usersCount":822,"tipCount":34},"categories":[{"id":"4bf58dd8d48988d1c0941735"}],"location":{"lat":51.513284,"lng":-0.1338792,"postalCode":"W1F 0TJ"}},{"id":"4ac518d4f964a520c0a720e3","name":"Wong Kei","stats":{"checkinsCount":1809,"usersCount":872,"tipCount":44},"categories":[{"id":"4bf58dd8d48988d145941735"}],"location":{"lat":51.511603,"lng":-0.132204,"postalCode":"W1D 6PY"}},{"id":"4acda021f964a5206bcc20e3","name":"Milkbar","stats":{"checkinsCount":1949,"usersCount":784,"tipCount":48},"categories":[{"id":"4bf58dd8d48988d1e0931735"}],"location":{"lat":51.51406417622615,"lng":-0.1315140724182129,"postalCode":"W1D 4AG"}},{"id":"4ac518bdf964a520c1a220e3","name":"Kettners","stats":{"checkinsCount":1355,"usersCount":1094,"tipCount":35},"categories":[{"id":"4bf58dd8d48988d1c4941735"}],"location":{"lat":51.51306417825673,"lng":-0.13050150297686128,"postalCode":"W1D 5HP"}},{"id":"4ac518bff964a5202da320e3","name":"Zuma Restaurant","stats":{"checkinsCount":1455,"usersCount":968,"tipCount":33},"categories":[{"id":"4bf58dd8d48988d111941735"}],"location":{"lat":51.50107471048047,"lng":-0.1627391713684117,"postalCode":"SW7 1DL"}},{"id":"4ac518bcf964a5207ba220e3","name":"Bar Italia","stats":{"checkinsCount":1629,"usersCount":914,"tipCount":46},"categories":[{"id":"4bf58dd8d48988d1e0931735"}],"location":{"lat":51.513296,"lng":-0.131341,"postalCode":"W1D 4RF"}},{"id":"4ad2fb9df964a520f0e220e3","name":"Leon","stats":{"checkinsCount":1655,"usersCount":823,"tipCount":32},"categories":[{"id":"4bf58dd8d48988d1c0941735"}],"location":{"lat":51.51974577545329,"lng":-0.07660388946533203,"postalCode":"E1 6DW"}},{"id":"4ad9ee57f964a520031c21e3","name":"Starbucks","stats":{"checkinsCount":1681,"usersCount":1030,"tipCount":10},"categories":[{"id":"4bf58dd8d48988d1e0931735"}],"location":{"lat":51.51392396328955,"lng":-0.1396465301513672,"postalCode":"W1F 7JD"}},{"id":"4bd0896c77b29c74b7f08a82","name":"Byron","stats":{"checkinsCount":1625,"usersCount":1080,"tipCount":35},"categories":[{"id":"4bf58dd8d48988d16c941735"}],"location":{"lat":51.53480425870272,"lng":-0.10445594787597656,"postalCode":"N1 0PB"}},{"id":"4ad0c1dbf964a5209cd920e3","name":"Fire & Stone","stats":{"checkinsCount":1364,"usersCount":1006,"tipCount":27},"categories":[{"id":"4bf58dd8d48988d1ca941735"}],"location":{"lat":51.51073131548453,"lng":-0.12339370752173319,"postalCode":"WC2E 7JS"}},{"id":"4ad88f0cf964a5204e1221e3","name":"Pret A Manger","stats":{"checkinsCount":1659,"usersCount":1032,"tipCount":12},"categories":[{"id":"4bf58dd8d48988d1c5941735"}],"location":{"lat":51.511733914741455,"lng":-0.12720108032226562,"postalCode":"WC2N 4AA"}},{"id":"4ad8c207f964a520691421e3","name":"Starbucks","stats":{"checkinsCount":1513,"usersCount":911,"tipCount":17},"categories":[{"id":"4bf58dd8d48988d1e0931735"}],"location":{"lat":51.517923200972874,"lng":-0.08131921291351318,"postalCode":"EC2M 7PY"}},{"id":"4ae99b09f964a52052b521e3","name":"Snog Pure Frozen Yogurt","stats":{"checkinsCount":1575,"usersCount":1042,"tipCount":29},"categories":[{"id":"4bf58dd8d48988d1c9941735"}],"location":{"lat":51.512291452334466,"lng":-0.13380467891693115,"postalCode":"W1F 0RG"}},{"id":"4af7074ff964a520fa0422e3","name":"Starbucks","stats":{"checkinsCount":1932,"usersCount":921,"tipCount":4},"categories":[{"id":"4bf58dd8d48988d1e0931735"}],"location":{"lat":51.521620025027204,"lng":-0.1573,"postalCode":"W1M 1FH"}},{"id":"4af9d9c0f964a520c31422e3","name":"Starbucks","stats":{"checkinsCount":1761,"usersCount":999,"tipCount":13},"categories":[{"id":"4bf58dd8d48988d1e0931735"}],"location":{"lat":51.530766,"lng":-0.122098,"postalCode":"N1 9NR"}},{"id":"4b0e5ffff964a520295723e3","name":"Le Pain Quotidien","stats":{"checkinsCount":1371,"usersCount":832,"tipCount":16},"categories":[{"id":"4bf58dd8d48988d10c941735"}],"location":{"lat":51.495062,"lng":-0.173804,"postalCode":"SW7 2HE"}},{"id":"4c00c2db9cf52d7f715114e7","name":"Starbucks","stats":{"checkinsCount":1488,"usersCount":846,"tipCount":16},"categories":[{"id":"4bf58dd8d48988d1e0931735"}],"location":{"lat":51.493632,"lng":-0.174,"postalCode":"SW7 3HZ"}},{"id":"4b044900f964a520e05222e3","name":"Nando's","stats":{"checkinsCount":1198,"usersCount":904,"tipCount":21},"categories":[{"id":"4def73e84765ae376e57713a"}],"location":{"lat":51.50721994598464,"lng":-0.22170066833496094,"postalCode":"W12 7GF"}},{"id":"4b07c83ef964a520fcff22e3","name":"Le Pain Quotidien","stats":{"checkinsCount":1285,"usersCount":775,"tipCount":21},"categories":[{"id":"4bf58dd8d48988d16a941735"}],"location":{"lat":51.508995,"lng":-0.197006,"postalCode":"W11 3JS"}},{"id":"4b09997cf964a520251a23e3","name":"Wahaca Mexican Street Kitchen","stats":{"checkinsCount":1280,"usersCount":751,"tipCount":25},"categories":[{"id":"4bf58dd8d48988d1c1941735"}],"location":{"lat":51.50455834132335,"lng":-0.01863124639709248,"postalCode":"E14 5AB"}},{"id":"4b0038c1f964a520a33b22e3","name":"Mooli's","stats":{"checkinsCount":1656,"usersCount":638,"tipCount":60},"categories":[{"id":"4bf58dd8d48988d10f941735"}],"location":{"lat":51.5136493,"lng":-0.131524,"postalCode":"W1D 4SQ"}},{"id":"4b1a473ef964a52095e823e3","name":"Jak's","stats":{"checkinsCount":1586,"usersCount":681,"tipCount":19},"categories":[{"id":"4bf58dd8d48988d1c4941735"}],"location":{"lat":51.49446949369504,"lng":-0.16713536276031737,"postalCode":"SW3 2HT"}},{"id":"4c1a0882838020a1f089e661","name":"Jamie's Italian Westfield Shepherd's Bush","stats":{"checkinsCount":1173,"usersCount":940,"tipCount":43},"categories":[{"id":"4bf58dd8d48988d110941735"}],"location":{"lat":51.50628671396519,"lng":-0.22340118885040283,"postalCode":"W12 7GB"}},{"id":"4b195d15f964a520f8db23e3","name":"Hix","stats":{"checkinsCount":1211,"usersCount":938,"tipCount":37},"categories":[{"id":"4bf58dd8d48988d1c4941735"}],"location":{"lat":51.51096333406312,"lng":-0.13634902036241278,"postalCode":"W1F 9UP"}},{"id":"4b14f7faf964a52097a723e3","name":"The Diner","stats":{"checkinsCount":1180,"usersCount":833,"tipCount":37},"categories":[{"id":"4bf58dd8d48988d147941735"}],"location":{"lat":51.54064396452255,"lng":-0.1446009810916349,"postalCode":"NW1 7BY"}},{"id":"4b4dbf69f964a520b9d626e3","name":"Serpentine Bar & Kitchen","stats":{"checkinsCount":1307,"usersCount":1018,"tipCount":22},"categories":[{"id":"4bf58dd8d48988d155941735"}],"location":{"lat":51.50497615014911,"lng":-0.15990257263183594,"postalCode":"W2 2UH"}},{"id":"4b48c33df964a520ed5526e3","name":"Starbucks","stats":{"checkinsCount":1594,"usersCount":589,"tipCount":8},"categories":[{"id":"4bf58dd8d48988d1e0931735"}],"location":{"lat":51.52219060486299,"lng":-0.13595032908231278,"postalCode":"W1T 7NU"}},{"id":"4b4dd54df964a520ebd826e3","name":"Sacred Café","stats":{"checkinsCount":1517,"usersCount":712,"tipCount":45},"categories":[{"id":"4bf58dd8d48988d16d941735"}],"location":{"lat":51.513077,"lng":-0.138976,"postalCode":"W1F 9BL"}},{"id":"4c3762e9dfb0e21e1fadaca8","name":"Starbucks","stats":{"checkinsCount":1153,"usersCount":841,"tipCount":8},"categories":[{"id":"4bf58dd8d48988d1e0931735"}],"location":{"lat":51.541168,"lng":-0.1451702961612681,"postalCode":"NW1 7BX"}},{"id":"4c3d6ed94bc9a5939b07d471","name":"Costa Coffee","stats":{"checkinsCount":1259,"usersCount":759,"tipCount":15},"categories":[{"id":"4bf58dd8d48988d1e0931735"}],"location":{"lat":51.51575260761773,"lng":-0.14072535061876154,"postalCode":"W1W 8QJ"}},{"id":"4c24a118db519521f1012c3a","name":"Crémerie Crêperie","stats":{"checkinsCount":1286,"usersCount":871,"tipCount":35},"categories":[{"id":"4bf58dd8d48988d1d0941735"}],"location":{"lat":51.494824264604176,"lng":-0.17312049865722656,"postalCode":"SW7 2HF"}},{"id":"4b27d68df964a520e98a24e3","name":"Tortilla","stats":{"checkinsCount":1620,"usersCount":590,"tipCount":24},"categories":[{"id":"4bf58dd8d48988d1c1941735"}],"location":{"lat":51.51631792943666,"lng":-0.1398968708601893,"postalCode":"W1W 8AH"}},{"id":"4b2fd935f964a52023f124e3","name":"Roka","stats":{"checkinsCount":1292,"usersCount":1001,"tipCount":46},"categories":[{"id":"4bf58dd8d48988d111941735"}],"location":{"lat":51.51898280234054,"lng":-0.13524993368938035,"postalCode":"W1T 1RR"}},{"id":"4b570ccdf964a5205a2428e3","name":"Starbucks","stats":{"checkinsCount":1501,"usersCount":654,"tipCount":8},"categories":[{"id":"4bf58dd8d48988d1e0931735"}],"location":{"lat":51.52598069844671,"lng":-0.08739709854125977,"postalCode":"EC1V 2NR"}},{"id":"4d5d33e3fb186dcb4030099b","name":"Prufrock Coffee","stats":{"checkinsCount":2234,"usersCount":566,"tipCount":31},"categories":[{"id":"4bf58dd8d48988d16d941735"}],"location":{"lat":51.52004,"lng":-0.109356,"postalCode":"EC1N 7TE"}},{"id":"4b55b8c9f964a52030ed27e3","name":"Nando's","stats":{"checkinsCount":1152,"usersCount":850,"tipCount":12},"categories":[{"id":"4def73e84765ae376e57713a"}],"location":{"lat":51.528089965207634,"lng":-0.13370275497436523,"postalCode":"NW1 2RT"}},{"id":"4b5437bcf964a520ccb427e3","name":"Foxcroft & Ginger","stats":{"checkinsCount":1764,"usersCount":568,"tipCount":44},"categories":[{"id":"4bf58dd8d48988d1e0931735"}],"location":{"lat":51.513059777810334,"lng":-0.13448687200211773,"postalCode":"W1F 0DR"}},{"id":"4b5344aef964a5200c9527e3","name":"The Ivy Restaurant","stats":{"checkinsCount":1278,"usersCount":892,"tipCount":20},"categories":[{"id":"4bf58dd8d48988d1c4941735"}],"location":{"lat":51.51286901402258,"lng":-0.1282203197479248,"postalCode":"WC2H 9NQ"}},{"id":"4b8e6cc1f964a5200b2233e3","name":"Le Pain Quotidien","stats":{"checkinsCount":1048,"usersCount":893,"tipCount":27},"categories":[{"id":"4bf58dd8d48988d10c941735"}],"location":{"lat":51.511835,"lng":-0.122411,"postalCode":"WC2E 8RF"}},{"id":"4d825176bede5481abdd0fd1","name":"Leon","stats":{"checkinsCount":1299,"usersCount":798,"tipCount":17},"categories":[{"id":"4bf58dd8d48988d1c4941735"}],"location":{"lat":51.513130032186005,"lng":-0.1313631317747149,"postalCode":"W1D 4TT"}},{"id":"4b828b35f964a5208fd730e3","name":"Snog Pure Frozen Yogurt","stats":{"checkinsCount":1190,"usersCount":791,"tipCount":17},"categories":[{"id":"4bf58dd8d48988d1c9941735"}],"location":{"lat":51.51140089127739,"lng":-0.12559577822685242,"postalCode":"WC2E 9AR"}},{"id":"4b6196e7f964a5200e192ae3","name":"Walkabout","stats":{"checkinsCount":1304,"usersCount":991,"tipCount":18},"categories":[{"id":"4bf58dd8d48988d169941735"}],"location":{"lat":51.5107723967541,"lng":-0.11394023895263672,"postalCode":"WC2R 2PH"}},{"id":"4b6ace9ef964a5203ee12be3","name":"Le Relais De Venise L'Entrecote","stats":{"checkinsCount":1324,"usersCount":893,"tipCount":43},"categories":[{"id":"4bf58dd8d48988d10c941735"}],"location":{"lat":51.51807038628313,"lng":-0.15098222194223848,"postalCode":"W1U 2QG"}},{"id":"4c61114c891bef3b34d7334b","name":"Pho","stats":{"checkinsCount":1282,"usersCount":785,"tipCount":23},"categories":[{"id":"4bf58dd8d48988d14a941735"}],"location":{"lat":51.514604252820746,"lng":-0.1349203533157867,"postalCode":"W1F 8WN"}},{"id":"4b644ab1f964a520c6a82ae3","name":"Starbucks","stats":{"checkinsCount":1325,"usersCount":957,"tipCount":15},"categories":[{"id":"4bf58dd8d48988d1e0931735"}],"location":{"lat":51.50748705717662,"lng":-0.22311687469482422,"postalCode":"W12 7GB"}},{"id":"4c6ed297d5c3a1cd0c7bc92b","name":"Busaba Eathai","stats":{"checkinsCount":1258,"usersCount":898,"tipCount":21},"categories":[{"id":"4bf58dd8d48988d149941735"}],"location":{"lat":51.52683509675668,"lng":-0.08130311965942383,"postalCode":"EC1V 9LE"}},{"id":"4b76a02bf964a5202f552ee3","name":"Whole Foods Market Restaurant","stats":{"checkinsCount":1366,"usersCount":840,"tipCount":15},"categories":[{"id":"4bf58dd8d48988d1c4941735"}],"location":{"lat":51.501937500498094,"lng":-0.1903080940246582,"postalCode":"W8 5SE"}},{"id":"4b72bd5ff964a52044862de3","name":"Starbucks","stats":{"checkinsCount":1452,"usersCount":694,"tipCount":7},"categories":[{"id":"4bf58dd8d48988d1e0931735"}],"location":{"lat":51.517529,"lng":-0.142733,"postalCode":"W1B 3DE"}},{"id":"4b9bc455f964a520da2236e3","name":"Costa Coffee","stats":{"checkinsCount":1492,"usersCount":727,"tipCount":20},"categories":[{"id":"4bf58dd8d48988d1e0931735"}],"location":{"lat":51.50323980373086,"lng":-0.11260986328125,"postalCode":"SE1 8SW"}},{"id":"4b96831df964a52029d134e3","name":"Starbucks","stats":{"checkinsCount":1456,"usersCount":720,"tipCount":6},"categories":[{"id":"4bf58dd8d48988d1e0931735"}],"location":{"lat":51.51636093622468,"lng":-0.11983036994934082,"postalCode":"W2 4QH"}},{"id":"4da5f0f37ccc816e4f34b27b","name":"Bubbleology","stats":{"checkinsCount":1403,"usersCount":781,"tipCount":40},"categories":[{"id":"4bf58dd8d48988d1dc931735"}],"location":{"lat":51.512048,"lng":-0.133386,"postalCode":"W1D 7PF"}},{"id":"4ba26111f964a5200af337e3","name":"Misato","stats":{"checkinsCount":1435,"usersCount":840,"tipCount":41},"categories":[{"id":"4bf58dd8d48988d111941735"}],"location":{"lat":51.51082544038268,"lng":-0.13169147111737356,"postalCode":"W1D 6PG"}},{"id":"4ca4e7f29324236a6786f0b4","name":"Allpress Espresso","stats":{"checkinsCount":1595,"usersCount":599,"tipCount":29},"categories":[{"id":"4bf58dd8d48988d16d941735"}],"location":{"lat":51.524428,"lng":-0.074226,"postalCode":"E2 7DJ"}},{"id":"4bbb33a83db7b7136906249a","name":"Nando's","stats":{"checkinsCount":1259,"usersCount":949,"tipCount":22},"categories":[{"id":"4def73e84765ae376e57713a"}],"location":{"lat":51.51039677152963,"lng":-0.12422456836324233,"postalCode":"WC2N 4HG"}},{"id":"4ac518c0f964a520ada320e3","name":"Villandry","stats":{"checkinsCount":1677,"usersCount":762,"tipCount":16},"categories":[{"id":"4bf58dd8d48988d146941735"}],"location":{"lat":51.52142232201707,"lng":-0.14265147343207618,"postalCode":"W1W 5QB"}},{"id":"4ac518b9f964a520b5a120e3","name":"Big Easy","stats":{"checkinsCount":1218,"usersCount":851,"tipCount":43},"categories":[{"id":"4bf58dd8d48988d14e941735"}],"location":{"lat":51.48526909545172,"lng":-0.1741329214906153,"postalCode":"SW3 5UR"}},{"id":"4dcaa14a183817362fe73490","name":"Ladurée","stats":{"checkinsCount":1316,"usersCount":951,"tipCount":18},"categories":[{"id":"4bf58dd8d48988d1d0941735"}],"location":{"lat":51.51192087421572,"lng":-0.12322068214416504,"postalCode":"WC2E 8RA"}},{"id":"4ac518cef964a52035a620e3","name":"Vinopolis","stats":{"checkinsCount":1225,"usersCount":1040,"tipCount":20},"categories":[{"id":"4bf58dd8d48988d14b941735"}],"location":{"lat":51.506551630006065,"lng":-0.0921729887444484,"postalCode":"SE1 9BU"}},{"id":"4ac518e6f964a52028ab20e3","name":"Hakkasan","stats":{"checkinsCount":1290,"usersCount":1008,"tipCount":37},"categories":[{"id":"4bf58dd8d48988d145941735"}],"location":{"lat":51.517055282728265,"lng":-0.13202905654907227,"postalCode":"W1T 1HD"}},{"id":"4ac518e4f964a520dbaa20e3","name":"Maze Grill","stats":{"checkinsCount":1172,"usersCount":943,"tipCount":52},"categories":[{"id":"4bf58dd8d48988d1c4941735"}],"location":{"lat":51.51240162362627,"lng":-0.1506972312927246,"postalCode":"W1K 6JP"}},{"id":"4ac518d6f964a52048a820e3","name":"Momo","stats":{"checkinsCount":1187,"usersCount":903,"tipCount":41},"categories":[{"id":"4bf58dd8d48988d115941735"}],"location":{"lat":51.51117014020359,"lng":-0.1396122540963174,"postalCode":"W1B 4BH"}},{"id":"4ace4417f964a5207bcf20e3","name":"Modern Pantry","stats":{"checkinsCount":1364,"usersCount":900,"tipCount":45},"categories":[{"id":"4bf58dd8d48988d155941735"}],"location":{"lat":51.522829,"lng":-0.103682,"postalCode":"EC1V 4JJ"}},{"id":"4acdd8cbf964a5203acd20e3","name":"Fleet River Bakery","stats":{"checkinsCount":1992,"usersCount":557,"tipCount":46},"categories":[{"id":"4bf58dd8d48988d16a941735"}],"location":{"lat":51.5168466460692,"lng":-0.11887818574905396,"postalCode":"WC2A 3JF"}},{"id":"4ac518c7f964a5203da520e3","name":"The Table","stats":{"checkinsCount":1886,"usersCount":509,"tipCount":34},"categories":[{"id":"4bf58dd8d48988d1c4941735"}],"location":{"lat":51.50552375337273,"lng":-0.09978890419006348,"postalCode":"SE1 0HX"}},{"id":"4ac5de20f964a52082b220e3","name":"Italian Coffee Company (ICCo)","stats":{"checkinsCount":1381,"usersCount":791,"tipCount":39},"categories":[{"id":"4bf58dd8d48988d1ca941735"}],"location":{"lat":51.51945203211561,"lng":-0.13599872589111328,"postalCode":"W1T 4LU"}},{"id":"4acdd000f964a52016cd20e3","name":"Lantana In.","stats":{"checkinsCount":1463,"usersCount":687,"tipCount":56},"categories":[{"id":"4bf58dd8d48988d16d941735"}],"location":{"lat":51.518956174143646,"lng":-0.13604339680410613,"postalCode":"W1T 1SN"}},{"id":"4acddc54f964a5204bcd20e3","name":"Starbucks","stats":{"checkinsCount":1260,"usersCount":780,"tipCount":8},"categories":[{"id":"4bf58dd8d48988d1e0931735"}],"location":{"lat":51.515334,"lng":-0.135457,"postalCode":"W1F 8BF"}},{"id":"4ac518c4f964a52072a420e3","name":"Tinderbox","stats":{"checkinsCount":1529,"usersCount":671,"tipCount":40},"categories":[{"id":"4bf58dd8d48988d1e0931735"}],"location":{"lat":51.534066696824674,"lng":-0.10553747705059169,"postalCode":"N1 0PQ"}},{"id":"4acf2ff0f964a520a7d220e3","name":"Nando's","stats":{"checkinsCount":1249,"usersCount":811,"tipCount":15},"categories":[{"id":"4def73e84765ae376e57713a"}],"location":{"lat":51.514070853021906,"lng":-0.13168573379516602,"postalCode":"W1D 3JF"}},{"id":"4bcf695dcaff9521e21dcdf0","name":"Koya","stats":{"checkinsCount":1411,"usersCount":811,"tipCount":41},"categories":[{"id":"4bf58dd8d48988d111941735"}],"location":{"lat":51.513630182403844,"lng":-0.13166427612304688,"postalCode":"W1D 4SQ"}},{"id":"4acdd66cf964a52031cd20e3","name":"Cây Tre","stats":{"checkinsCount":1447,"usersCount":671,"tipCount":39},"categories":[{"id":"4bf58dd8d48988d14a941735"}],"location":{"lat":51.526753481999734,"lng":-0.08167847581468037,"postalCode":"EC1V 9LA"}},{"id":"4dcbcc6cd22d7ffe9d352e02","name":"The Breakfast Club","stats":{"checkinsCount":1268,"usersCount":852,"tipCount":32},"categories":[{"id":"4bf58dd8d48988d143941735"}],"location":{"lat":51.51837718238964,"lng":-0.07884621620178223,"postalCode":"E1 7LS"}},{"id":"4adad629f964a520332421e3","name":"Starbucks","stats":{"checkinsCount":1709,"usersCount":645,"tipCount":4},"categories":[{"id":"4bf58dd8d48988d1e0931735"}],"location":{"lat":51.52134797848982,"lng":-0.14363765716552734,"postalCode":"W1N 5FD"}},{"id":"4adc13eaf964a520752b21e3","name":"Starbucks","stats":{"checkinsCount":1272,"usersCount":812,"tipCount":17},"categories":[{"id":"4bf58dd8d48988d1e0931735"}],"location":{"lat":51.51458496335501,"lng":-0.14247894287109375,"postalCode":"W1B 2LY"}},{"id":"4cdadd2dc409b60cac66d11a","name":"Notes Music & Coffee","stats":{"checkinsCount":1800,"usersCount":624,"tipCount":31},"categories":[{"id":"4bf58dd8d48988d1e0931735"}],"location":{"lat":51.50959050309188,"lng":-0.1268470287322998,"postalCode":"WC2N 4AA"}},{"id":"4ad0dfa5f964a520a4da20e3","name":"Polpo","stats":{"checkinsCount":1319,"usersCount":906,"tipCount":57},"categories":[{"id":"4bf58dd8d48988d110941735"}],"location":{"lat":51.51230694067347,"lng":-0.13741217816320292,"postalCode":"W1F 9SB"}},{"id":"4ad6445cf964a520350621e3","name":"Le Pain Quotidien","stats":{"checkinsCount":1316,"usersCount":939,"tipCount":25},"categories":[{"id":"4bf58dd8d48988d16a941735"}],"location":{"lat":51.5318677114238,"lng":-0.1272439956665039,"postalCode":"N1C 4QL"}},{"id":"4ad2ec61f964a520d2e220e3","name":"Starbucks","stats":{"checkinsCount":1888,"usersCount":599,"tipCount":7},"categories":[{"id":"4bf58dd8d48988d1e0931735"}],"location":{"lat":51.48587270045831,"lng":-0.12380003929138184,"postalCode":"SW8 1SP"}},{"id":"4ad2f35ef964a520e1e220e3","name":"Starbucks","stats":{"checkinsCount":1567,"usersCount":774,"tipCount":7},"categories":[{"id":"4bf58dd8d48988d1e0931735"}],"location":{"lat":51.520707104039275,"lng":-0.1346147060394287,"postalCode":"W1T 2HQ"}},{"id":"4ad234dbf964a52012e020e3","name":"Inamo","stats":{"checkinsCount":1026,"usersCount":923,"tipCount":61},"categories":[{"id":"4bf58dd8d48988d111941735"}],"location":{"lat":51.51439908347447,"lng":-0.13469432340765136,"postalCode":"W1F 8ZP"}},{"id":"4ad9d870f964a520331b21e3","name":"Nordic Bakery","stats":{"checkinsCount":1439,"usersCount":698,"tipCount":39},"categories":[{"id":"4bf58dd8d48988d1c6941735"}],"location":{"lat":51.51144178902692,"lng":-0.1368972659111023,"postalCode":"W1F 9JG"}},{"id":"4ad5c5cef964a5206f0321e3","name":"St. John Bar and Restaurant","stats":{"checkinsCount":1342,"usersCount":810,"tipCount":42},"categories":[{"id":"4bf58dd8d48988d1c4941735"}],"location":{"lat":51.52037998756202,"lng":-0.10146260261535645,"postalCode":"EC1M 4AY"}},{"id":"4cd30c4d5fffa0903d8a09fb","name":"Barbecoa","stats":{"checkinsCount":1111,"usersCount":878,"tipCount":38},"categories":[{"id":"4bf58dd8d48988d1df931735"}],"location":{"lat":51.513625883362494,"lng":-0.09630602623373084,"postalCode":"EC4M 9AG"}},{"id":"4adb38ddf964a520002521e3","name":"Le Pain Quotidien","stats":{"checkinsCount":1147,"usersCount":832,"tipCount":24},"categories":[{"id":"4bf58dd8d48988d16a941735"}],"location":{"lat":51.505670670191115,"lng":-0.11685848236083984,"postalCode":"SE1 8XX"}},{"id":"4adbb0fff964a5200e2a21e3","name":"Skylon","stats":{"checkinsCount":1261,"usersCount":972,"tipCount":30},"categories":[{"id":"4bf58dd8d48988d1c4941735"}],"location":{"lat":51.5059645024068,"lng":-0.11771678924560547,"postalCode":"SE1 8XX"}},{"id":"4ad0adf5f964a5200bd920e3","name":"The Princess of Shoreditch","stats":{"checkinsCount":1355,"usersCount":777,"tipCount":25},"categories":[{"id":"4bf58dd8d48988d155941735"}],"location":{"lat":51.525193035801976,"lng":-0.08402824401855469,"postalCode":"EC2A 4NE"}},{"id":"4ad0b37ef964a52035d920e3","name":"The Botanist","stats":{"checkinsCount":1298,"usersCount":842,"tipCount":26},"categories":[{"id":"4bf58dd8d48988d1c4941735"}],"location":{"lat":51.492647,"lng":-0.157049,"postalCode":"SW1W 8EE"}},{"id":"4ad211a9f964a52030df20e3","name":"Starbucks","stats":{"checkinsCount":1267,"usersCount":775,"tipCount":6},"categories":[{"id":"4bf58dd8d48988d1e0931735"}],"location":{"lat":51.507938,"lng":-0.123684,"postalCode":"WC2N 6NQ"}},{"id":"4aeb0da7f964a520a0bd21e3","name":"Nando's","stats":{"checkinsCount":1191,"usersCount":895,"tipCount":23},"categories":[{"id":"4def73e84765ae376e57713a"}],"location":{"lat":51.50721994598464,"lng":-0.09265422821044922,"postalCode":"SE1 9DG"}},{"id":"4ae73c55f964a520a4a921e3","name":"Wagamama","stats":{"checkinsCount":1142,"usersCount":846,"tipCount":15},"categories":[{"id":"4bf58dd8d48988d1d1941735"}],"location":{"lat":51.515609,"lng":-0.152443,"postalCode":"W1U 1QR"}},{"id":"4bedb7a0a40fc9283d65820c","name":"Giant Robot","stats":{"checkinsCount":1332,"usersCount":831,"tipCount":37},"categories":[{"id":"4bf58dd8d48988d1c4941735"}],"location":{"lat":51.522229166133485,"lng":-0.1043701171875,"postalCode":"EC1M 5RS"}},{"id":"4ae8d6fdf964a520c2b221e3","name":"Busaba Eathai","stats":{"checkinsCount":1192,"usersCount":861,"tipCount":25},"categories":[{"id":"4bf58dd8d48988d149941735"}],"location":{"lat":51.519443,"lng":-0.13242,"postalCode":"WC1E 7DF"}},{"id":"4ae19e98f964a520718621e3","name":"Royal China","stats":{"checkinsCount":1382,"usersCount":758,"tipCount":17},"categories":[{"id":"4bf58dd8d48988d145941735"}],"location":{"lat":51.5177923681627,"lng":-0.15554371753516266,"postalCode":"W1U 7AJ"}},{"id":"4aeaec71f964a520b1bc21e3","name":"Nando's","stats":{"checkinsCount":1248,"usersCount":788,"tipCount":11},"categories":[{"id":"4def73e84765ae376e57713a"}],"location":{"lat":51.516163,"lng":-0.136025,"postalCode":"W1T 3LA"}},{"id":"4aec76dcf964a52070c721e3","name":"Wagamama","stats":{"checkinsCount":1183,"usersCount":868,"tipCount":18},"categories":[{"id":"4bf58dd8d48988d1d1941735"}],"location":{"lat":51.51247173249144,"lng":-0.13560175895690918,"postalCode":"W1F 0LD"}},{"id":"4be5a482cf200f47ff79133c","name":"Starbucks","stats":{"checkinsCount":1247,"usersCount":768,"tipCount":4},"categories":[{"id":"4bf58dd8d48988d1e0931735"}],"location":{"lat":51.51024488868204,"lng":-0.1328122615814209,"postalCode":"W1D 7DH"}},{"id":"4ae59a5df964a52006a121e3","name":"McDonald's","stats":{"checkinsCount":1171,"usersCount":897,"tipCount":9},"categories":[{"id":"4bf58dd8d48988d16e941735"}],"location":{"lat":51.510316,"lng":-0.131355,"postalCode":"W1V 8HT"}},{"id":"4afbe3d5f964a5203f1f22e3","name":"Starbucks","stats":{"checkinsCount":1439,"usersCount":808,"tipCount":5},"categories":[{"id":"4bf58dd8d48988d1e0931735"}],"location":{"lat":51.51165378901763,"lng":-0.18741130828857422,"postalCode":"W2 4QH"}},{"id":"4cf9619bee9cb60c7bc883ad","name":"Hakkasan","stats":{"checkinsCount":1408,"usersCount":921,"tipCount":44},"categories":[{"id":"4bf58dd8d48988d145941735"}],"location":{"lat":51.5104785955435,"lng":-0.14460325241088867,"postalCode":"W1J 6QB"}},{"id":"4cfa6667ee9cb60c44fd89ad","name":"Department of Coffee & Social Affairs","stats":{"checkinsCount":2210,"usersCount":546,"tipCount":30},"categories":[{"id":"4bf58dd8d48988d1e0931735"}],"location":{"lat":51.52030655292787,"lng":-0.10909080505371094,"postalCode":"EC1N 7SU"}},{"id":"4af59b56f964a52040fa21e3","name":"Starbucks","stats":{"checkinsCount":1911,"usersCount":632,"tipCount":10},"categories":[{"id":"4bf58dd8d48988d1e0931735"}],"location":{"lat":51.50472905873502,"lng":-0.019762516021728516,"postalCode":"E14 5AB"}},{"id":"4b0e8094f964a520165823e3","name":"Starbucks","stats":{"checkinsCount":1345,"usersCount":486,"tipCount":7},"categories":[{"id":"4bf58dd8d48988d1e0931735"}],"location":{"lat":51.52027984939518,"lng":-0.10351181030273438,"postalCode":"EC1M 6DQ"}},{"id":"4b0ed9b0f964a520e15b23e3","name":"Starbucks","stats":{"checkinsCount":1277,"usersCount":613,"tipCount":9},"categories":[{"id":"4bf58dd8d48988d16d941735"}],"location":{"lat":51.492827,"lng":-0.224536,"postalCode":"W6 8AB"}},{"id":"4b0f9cdff964a520a36323e3","name":"Carluccio's","stats":{"checkinsCount":967,"usersCount":795,"tipCount":11},"categories":[{"id":"4bf58dd8d48988d110941735"}],"location":{"lat":51.515005,"lng":-0.150308,"postalCode":"W1U 1AY"}},{"id":"4b0d6630f964a5207d4723e3","name":"Caffè Nero","stats":{"checkinsCount":1000,"usersCount":665,"tipCount":9},"categories":[{"id":"4bf58dd8d48988d1e0931735"}],"location":{"lat":51.51389328949537,"lng":-0.1412341669621922,"postalCode":"W1R 7AD"}},{"id":"4b0bde25f964a520443423e3","name":"Côte","stats":{"checkinsCount":932,"usersCount":697,"tipCount":29},"categories":[{"id":"4bf58dd8d48988d10c941735"}],"location":{"lat":51.514110913775795,"lng":-0.13464689254760742,"postalCode":"W1F 0TY"}},{"id":"4b154b3af964a52074aa23e3","name":"Caffè Nero","stats":{"checkinsCount":1147,"usersCount":757,"tipCount":14},"categories":[{"id":"4bf58dd8d48988d1e0931735"}],"location":{"lat":51.52819676092564,"lng":-0.1336812973022461,"postalCode":"NW1 2RT"}},{"id":"4b12873df964a520848a23e3","name":"Wagamama","stats":{"checkinsCount":1089,"usersCount":809,"tipCount":11},"categories":[{"id":"4bf58dd8d48988d1d1941735"}],"location":{"lat":51.50623162095866,"lng":-0.21944761276245117,"postalCode":"W12 7SL"}},{"id":"4c182e1e6a21c9b6d4bbc897","name":"McDonald's","stats":{"checkinsCount":1029,"usersCount":737,"tipCount":12},"categories":[{"id":"4bf58dd8d48988d16e941735"}],"location":{"lat":51.5165278474083,"lng":-0.1306772232055664,"postalCode":"W1D 1AW"}},{"id":"4b411423f964a520aac025e3","name":"Hare & Tortoise","stats":{"checkinsCount":1243,"usersCount":724,"tipCount":36},"categories":[{"id":"4bf58dd8d48988d142941735"}],"location":{"lat":51.52406,"lng":-0.123353,"postalCode":"WC1N 1AF"}},{"id":"4b4b194ef964a520419226e3","name":"Tortilla","stats":{"checkinsCount":2119,"usersCount":366,"tipCount":18},"categories":[{"id":"4bf58dd8d48988d1c1941735"}],"location":{"lat":51.50521656213084,"lng":-0.021157264709472656,"postalCode":"E14 4EU"}},{"id":"4b436a26f964a520d8df25e3","name":"Galvin at Windows","stats":{"checkinsCount":986,"usersCount":680,"tipCount":18},"categories":[{"id":"4bf58dd8d48988d10c941735"}],"location":{"lat":51.5054698557092,"lng":-0.1502145247589764,"postalCode":"W1K 1BE"}},{"id":"4b457611f964a520f70c26e3","name":"Pret A Manger","stats":{"checkinsCount":1132,"usersCount":655,"tipCount":10},"categories":[{"id":"4bf58dd8d48988d1c5941735"}],"location":{"lat":51.4933910062275,"lng":-0.174116786884463,"postalCode":"SW7 3HZ"}},{"id":"4d440bf1c3e5f04d0a219620","name":"Bill's Produce Store","stats":{"checkinsCount":1090,"usersCount":786,"tipCount":38},"categories":[{"id":"4bf58dd8d48988d143941735"}],"location":{"lat":51.51250845613963,"lng":-0.12675046920776367,"postalCode":"WC2E 9AB"}},{"id":"4b4c4ac5f964a52093b026e3","name":"Fifth Floor Restaurant","stats":{"checkinsCount":1048,"usersCount":729,"tipCount":16},"categories":[{"id":"4bf58dd8d48988d1c0941735"}],"location":{"lat":51.50165032093083,"lng":-0.1599884033203125,"postalCode":"SW1X 7RJ"}},{"id":"4d4c07c17aa6a35dcc8cd270","name":"Poppies Fish & Chips","stats":{"checkinsCount":1080,"usersCount":780,"tipCount":25},"categories":[{"id":"4edd64a0c7ddd24ca188df1a"}],"location":{"lat":51.5202231043362,"lng":-0.07408261299133301,"postalCode":"E1 6QR"}},{"id":"4b407ea6f964a5208ab825e3","name":"Starbucks","stats":{"checkinsCount":1394,"usersCount":647,"tipCount":8},"categories":[{"id":"4bf58dd8d48988d1e0931735"}],"location":{"lat":51.492953933772355,"lng":-0.19444942474365234,"postalCode":"SW5 9QG"}},{"id":"4b45d4d6f964a520ef1026e3","name":"Nando's","stats":{"checkinsCount":1315,"usersCount":607,"tipCount":14},"categories":[{"id":"4def73e84765ae376e57713a"}],"location":{"lat":51.50367547758727,"lng":-0.019294907936345793,"postalCode":"E14 5NY"}},{"id":"4b3bb4b3f964a520467925e3","name":"Harrods Pizzeria","stats":{"checkinsCount":1095,"usersCount":747,"tipCount":21},"categories":[{"id":"4bf58dd8d48988d1ca941735"}],"location":{"lat":51.498576,"lng":-0.162212,"postalCode":"SW1X 7XL"}},{"id":"4c34bdc116adc928e4a8c59c","name":"Soho Joe","stats":{"checkinsCount":1105,"usersCount":656,"tipCount":48},"categories":[{"id":"4bf58dd8d48988d1ca941735"}],"location":{"lat":51.514114252170366,"lng":-0.13280153274536133,"postalCode":"W1D 3RY"}},{"id":"4c3ca78715cb1b8dc6e77adc","name":"Benito's Hat","stats":{"checkinsCount":1151,"usersCount":590,"tipCount":31},"categories":[{"id":"4bf58dd8d48988d1c1941735"}],"location":{"lat":51.5111378,"lng":-0.125795,"postalCode":"WC2N 4LA"}},{"id":"4d2f05dc79dd6ea8ca028ed3","name":"Dinner by Heston","stats":{"checkinsCount":1040,"usersCount":804,"tipCount":39},"categories":[{"id":"4bf58dd8d48988d1c2941735"}],"location":{"lat":51.502258070900666,"lng":-0.1602029800415039,"postalCode":"SW1X 7LA"}},{"id":"4b25316df964a520b96d24e3","name":"Costa Coffee Argyll Street","stats":{"checkinsCount":1207,"usersCount":620,"tipCount":12},"categories":[{"id":"4bf58dd8d48988d1e0931735"}],"location":{"lat":51.51470226,"lng":-0.1408865375,"postalCode":"W1F 7TX"}},{"id":"4b2532f6f964a520d66d24e3","name":"Ed's Easy Diner","stats":{"checkinsCount":957,"usersCount":725,"tipCount":30},"categories":[{"id":"4bf58dd8d48988d147941735"}],"location":{"lat":51.513555067668705,"lng":-0.13022392988204956,"postalCode":"W1D 5NG"}},{"id":"4c53078afd2ea59379e5c927","name":"The Riverfront Bar and Kitchen","stats":{"checkinsCount":1054,"usersCount":839,"tipCount":21},"categories":[{"id":"4bf58dd8d48988d1c4941735"}],"location":{"lat":51.50728672392944,"lng":-0.11587142944335938,"postalCode":"SE1 8XT"}},{"id":"4b51ea32f964a5201e5b27e3","name":"Starbucks","stats":{"checkinsCount":1213,"usersCount":632,"tipCount":19},"categories":[{"id":"4bf58dd8d48988d1e0931735"}],"location":{"lat":51.507096406528774,"lng":-0.07255911827087402,"postalCode":"E1W 1LA"}},{"id":"4b5cb25af964a5200c3f29e3","name":"Tibits","stats":{"checkinsCount":1090,"usersCount":710,"tipCount":26},"categories":[{"id":"4bf58dd8d48988d1d3941735"}],"location":{"lat":51.51110625946627,"lng":-0.13956069946289062,"postalCode":"W1B 4DA"}},{"id":"4c531f0df5f3d13a893bf9f7","name":"Starbucks","stats":{"checkinsCount":1555,"usersCount":581,"tipCount":7},"categories":[{"id":"4bf58dd8d48988d1e0931735"}],"location":{"lat":51.52386465861203,"lng":-0.12345671653747559,"postalCode":"WC1N 1AW"}},{"id":"4b51cc2df964a520f05527e3","name":"Brixton Village","stats":{"checkinsCount":1476,"usersCount":604,"tipCount":10},"categories":[{"id":"4bf58dd8d48988d114941735"}],"location":{"lat":51.462309664431004,"lng":-0.11177301406860352,"postalCode":"SW9 8PS"}},{"id":"4b5ae926f964a520e3d928e3","name":"Pho","stats":{"checkinsCount":1232,"usersCount":562,"tipCount":16},"categories":[{"id":"4bf58dd8d48988d14a941735"}],"location":{"lat":51.507173201365056,"lng":-0.22137880325317383,"postalCode":"W12 7GE"}},{"id":"4b5ea896f964a520329529e3","name":"Starbucks","stats":{"checkinsCount":1513,"usersCount":496,"tipCount":17},"categories":[{"id":"4bf58dd8d48988d1e0931735"}],"location":{"lat":51.50297266764028,"lng":-0.01922607421875,"postalCode":"E14 5NY"}},{"id":"4b530264f964a5207c8c27e3","name":"The Volunteer","stats":{"checkinsCount":1214,"usersCount":621,"tipCount":23},"categories":[{"id":"4bf58dd8d48988d155941735"}],"location":{"lat":51.523976,"lng":-0.15834144569899028,"postalCode":"NW1 6XE"}},{"id":"4b5061def964a520cb2127e3","name":"Pizza Express","stats":{"checkinsCount":937,"usersCount":799,"tipCount":10},"categories":[{"id":"4bf58dd8d48988d1ca941735"}],"location":{"lat":51.508368512999866,"lng":-0.12606382369995117,"postalCode":"WC2R 0RG"}},{"id":"4b570c46f964a5204f2428e3","name":"ASSA Restaurant","stats":{"checkinsCount":1189,"usersCount":780,"tipCount":12},"categories":[{"id":"4bf58dd8d48988d113941735"}],"location":{"lat":51.51599146145216,"lng":-0.12942926193159485,"postalCode":"WC2H 8LH"}},{"id":"4e805fb2dab41c952c505ffc","name":"Novikov Restaurant & Bar","stats":{"checkinsCount":1286,"usersCount":726,"tipCount":18},"categories":[{"id":"4bf58dd8d48988d142941735"}],"location":{"lat":51.50777845628756,"lng":-0.14285044398741328,"postalCode":"W1"}},{"id":"4b8bc720f964a520eaaa32e3","name":"Roast Restaurant","stats":{"checkinsCount":941,"usersCount":750,"tipCount":25},"categories":[{"id":"4bf58dd8d48988d1cc941735"}],"location":{"lat":51.50569738228902,"lng":-0.09115219116210938,"postalCode":"SE1 9"}},{"id":"4b802783f964a520595730e3","name":"Caffè Nero","stats":{"checkinsCount":1204,"usersCount":614,"tipCount":10},"categories":[{"id":"4bf58dd8d48988d1e0931735"}],"location":{"lat":51.513237923176554,"lng":-0.13119794198502027,"postalCode":"W1V 5TE"}},{"id":"4e6f89aa1fc7c08369520840","name":"Starbucks","stats":{"checkinsCount":1206,"usersCount":628,"tipCount":9},"categories":[{"id":"4bf58dd8d48988d1e0931735"}],"location":{"lat":51.54254515714257,"lng":-0.004431009292602539,"postalCode":"E20"}},{"id":"4d6e7d7adc248eeceeae7ae6","name":"Spuntino","stats":{"checkinsCount":1076,"usersCount":704,"tipCount":57},"categories":[{"id":"4bf58dd8d48988d147941735"}],"location":{"lat":51.51225487166692,"lng":-0.1337076917258197,"postalCode":"W1D 7PW"}},{"id":"4c6d9eaa06ed6dcb1f6ba422","name":"Lupita","stats":{"checkinsCount":972,"usersCount":688,"tipCount":50},"categories":[{"id":"4bf58dd8d48988d1c1941735"}],"location":{"lat":51.50841547642091,"lng":-0.12426149585594748,"postalCode":"WC2N 6NA"}},{"id":"4b64647af964a52098af2ae3","name":"Browns Bar & Brasserie","stats":{"checkinsCount":1015,"usersCount":763,"tipCount":44},"categories":[{"id":"4bf58dd8d48988d1c4941735"}],"location":{"lat":51.511495,"lng":-0.127169,"postalCode":"WC2N 4AG"}},{"id":"4b7553b8f964a5207a062ee3","name":"Starbucks","stats":{"checkinsCount":934,"usersCount":741,"tipCount":9},"categories":[{"id":"4bf58dd8d48988d1e0931735"}],"location":{"lat":51.51247,"lng":-0.121845,"postalCode":"WC2B 5HZ"}},{"id":"4b7714d1f964a520757b2ee3","name":"Golden Dragon | 金龍軒","stats":{"checkinsCount":969,"usersCount":735,"tipCount":21},"categories":[{"id":"4bf58dd8d48988d145941735"}],"location":{"lat":51.51150756142781,"lng":-0.13166571324087642,"postalCode":"W1D 6JW"}},{"id":"4b9cbed4f964a5206e7936e3","name":"Starbucks","stats":{"checkinsCount":970,"usersCount":809,"tipCount":9},"categories":[{"id":"4bf58dd8d48988d1e0931735"}],"location":{"lat":51.50818153894719,"lng":-0.07892131805419922,"postalCode":"EC3R 5BT"}},{"id":"4b9f530af964a520a81c37e3","name":"Carluccio's","stats":{"checkinsCount":1259,"usersCount":623,"tipCount":22},"categories":[{"id":"4bf58dd8d48988d110941735"}],"location":{"lat":51.50422819364986,"lng":-0.02025604248046875,"postalCode":"E14 5AJ"}},{"id":"4b9e7bb3f964a520ece736e3","name":"Starbucks","stats":{"checkinsCount":983,"usersCount":725,"tipCount":18},"categories":[{"id":"4bf58dd8d48988d1e0931735"}],"location":{"lat":51.51023153396803,"lng":-0.1388472318649292,"postalCode":"W1S 3HF"}},{"id":"4d9c64e45c33a35dbccce8a0","name":"Kimchee","stats":{"checkinsCount":1026,"usersCount":666,"tipCount":22},"categories":[{"id":"4bf58dd8d48988d142941735"}],"location":{"lat":51.51816117420726,"lng":-0.11646676567194418}},{"id":"4ba90a66f964a520fa053ae3","name":"The Old Brewery","stats":{"checkinsCount":1133,"usersCount":703,"tipCount":31},"categories":[{"id":"4bf58dd8d48988d1cf941735"}],"location":{"lat":51.4830933498849,"lng":-0.008196830749511719,"postalCode":"SE10 9LW"}},{"id":"4baf5fa8f964a52029fb3be3","name":"Ed's Easy Diner - Euston","stats":{"checkinsCount":938,"usersCount":696,"tipCount":22},"categories":[{"id":"4bf58dd8d48988d147941735"}],"location":{"lat":51.52756933249509,"lng":-0.13269424438476562,"postalCode":"NW1 2RT"}},{"id":"4ca5bf7b7334236a03b01858","name":"Herman ze German","stats":{"checkinsCount":1382,"usersCount":534,"tipCount":30},"categories":[{"id":"4bf58dd8d48988d10d941735"}],"location":{"lat":51.508194,"lng":-0.123952,"postalCode":"WC2N 6NE"}},{"id":"4bba30177421a593bb80c340","name":"The Alwyne Castle","stats":{"checkinsCount":1154,"usersCount":673,"tipCount":20},"categories":[{"id":"4bf58dd8d48988d155941735"}],"location":{"lat":51.546697,"lng":-0.09850027566152865,"postalCode":"N1 2LY"}},{"id":"4bbcd49fa8cf76b09703b1fd","name":"Nando's","stats":{"checkinsCount":966,"usersCount":686,"tipCount":15},"categories":[{"id":"4bf58dd8d48988d1c8941735"}],"location":{"lat":51.53122688714744,"lng":-0.12253032128725963,"postalCode":"N1 9AA"}},{"id":"4bbc8321afe1b7134672304b","name":"Wagamama","stats":{"checkinsCount":1060,"usersCount":715,"tipCount":17},"categories":[{"id":"4bf58dd8d48988d1d1941735"}],"location":{"lat":51.534216964401864,"lng":-0.10664999485015869,"postalCode":"N1 0PS"}},{"id":"4bb9cadb935e952179592790","name":"Nando's","stats":{"checkinsCount":1104,"usersCount":652,"tipCount":12},"categories":[{"id":"4def73e84765ae376e57713a"}],"location":{"lat":51.520497,"lng":-0.074822,"postalCode":"E1 6NF"}},{"id":"4dbff3434df0f8fd6b910543","name":"Byron","stats":{"checkinsCount":1167,"usersCount":700,"tipCount":12},"categories":[{"id":"4bf58dd8d48988d16c941735"}],"location":{"lat":51.52742495222783,"lng":-0.08119341213364215,"postalCode":"N1 6PB"}},{"id":"4ac518c3f964a52056a420e3","name":"The Albion","stats":{"checkinsCount":1018,"usersCount":709,"tipCount":26},"categories":[{"id":"4bf58dd8d48988d155941735"}],"location":{"lat":51.53936778260104,"lng":-0.1094411765575673,"postalCode":"N1 1HW"}},{"id":"4ac518c3f964a52058a420e3","name":"The Narrow","stats":{"checkinsCount":1201,"usersCount":598,"tipCount":39},"categories":[{"id":"4bf58dd8d48988d155941735"}],"location":{"lat":51.50965060011969,"lng":-0.0376582145690918,"postalCode":"E14 8DP"}},{"id":"4acf61f4f964a52052d320e3","name":"The Hummingbird Bakery","stats":{"checkinsCount":1201,"usersCount":741,"tipCount":32},"categories":[{"id":"4bf58dd8d48988d1bc941735"}],"location":{"lat":51.49349864759362,"lng":-0.1754966410717191,"postalCode":"SW7 3JP"}},{"id":"4ac518e1f964a5204aaa20e3","name":"Bodean's","stats":{"checkinsCount":1138,"usersCount":678,"tipCount":31},"categories":[{"id":"4bf58dd8d48988d1df931735"}],"location":{"lat":51.46197544423673,"lng":-0.13728618621826172,"postalCode":"SW4 75S"}},{"id":"4ac518bcf964a520a0a220e3","name":"The Troubadour","stats":{"checkinsCount":1119,"usersCount":735,"tipCount":27},"categories":[{"id":"4bf58dd8d48988d16d941735"}],"location":{"lat":51.48895153961458,"lng":-0.19175205105817353,"postalCode":"SW5 9JA"}},{"id":"4acde945f964a52084cd20e3","name":"Ottolenghi","stats":{"checkinsCount":1060,"usersCount":689,"tipCount":38},"categories":[{"id":"4bf58dd8d48988d115941735"}],"location":{"lat":51.53968204,"lng":-0.102426,"postalCode":"N1 2TZ"}},{"id":"4acd90d9f964a52049cc20e3","name":"Pret A Manger","stats":{"checkinsCount":1468,"usersCount":500,"tipCount":19},"categories":[{"id":"4bf58dd8d48988d1c5941735"}],"location":{"lat":51.52328056089842,"lng":-0.12458324432373047,"postalCode":"WC1N1LE"}},{"id":"4ac518d4f964a520bea720e3","name":"Tokyo Diner","stats":{"checkinsCount":1037,"usersCount":666,"tipCount":30},"categories":[{"id":"4bf58dd8d48988d111941735"}],"location":{"lat":51.51175834641852,"lng":-0.12935632944777353,"postalCode":"WC2H 7JP"}},{"id":"4ac518d5f964a52001a820e3","name":"T.G.I. Friday's","stats":{"checkinsCount":951,"usersCount":759,"tipCount":25},"categories":[{"id":"4bf58dd8d48988d14e941735"}],"location":{"lat":51.510355064923246,"lng":-0.12426674365997314,"postalCode":"WC2E 9HZ"}},{"id":"4ac518c1f964a520b4a320e3","name":"Electric Brasserie","stats":{"checkinsCount":1054,"usersCount":626,"tipCount":27},"categories":[{"id":"4bf58dd8d48988d143941735"}],"location":{"lat":51.515579,"lng":-0.204791,"postalCode":"W11 2ED"}},{"id":"4bc0539e920eb71357ca182c","name":"Starbucks","stats":{"checkinsCount":1134,"usersCount":687,"tipCount":11},"categories":[{"id":"4bf58dd8d48988d1e0931735"}],"location":{"lat":51.50166367816015,"lng":-0.11758804321289062,"postalCode":"SE1 7GQ"}},{"id":"4acf3132f964a520aed220e3","name":"Song Que","stats":{"checkinsCount":1172,"usersCount":712,"tipCount":42},"categories":[{"id":"4bf58dd8d48988d14a941735"}],"location":{"lat":51.53072544881656,"lng":-0.0771203910592475,"postalCode":"E2 8DY"}},{"id":"4ac518b9f964a520b1a120e3","name":"Planet Hollywood","stats":{"checkinsCount":1003,"usersCount":884,"tipCount":13},"categories":[{"id":"4bf58dd8d48988d14e941735"}],"location":{"lat":51.50907633639145,"lng":-0.13246893882751465,"postalCode":"SW1Y 4QX"}},{"id":"4ac518c5f964a520c4a420e3","name":"Camden Head","stats":{"checkinsCount":968,"usersCount":669,"tipCount":11},"categories":[{"id":"4bf58dd8d48988d1c7941735"}],"location":{"lat":51.535588,"lng":-0.103194,"postalCode":"N1 8DY"}},{"id":"4ace027af964a520e0cd20e3","name":"Caffè Nero","stats":{"checkinsCount":1329,"usersCount":523,"tipCount":9},"categories":[{"id":"4bf58dd8d48988d1e0931735"}],"location":{"lat":51.51620711404753,"lng":-0.11953656996377698,"postalCode":"WC2B 6ST"}},{"id":"4acdbd4ff964a520decc20e3","name":"Starbucks","stats":{"checkinsCount":1246,"usersCount":739,"tipCount":11},"categories":[{"id":"4bf58dd8d48988d1e0931735"}],"location":{"lat":51.510429845292485,"lng":-0.12700882633170446,"postalCode":"WC2N 4AZ"}},{"id":"4ad73a36f964a5200d0921e3","name":"Bob Bob Ricard","stats":{"checkinsCount":1116,"usersCount":694,"tipCount":45},"categories":[{"id":"4bf58dd8d48988d1c4941735"}],"location":{"lat":51.51228140976224,"lng":-0.13729131563661542,"postalCode":"W1F 9DF"}},{"id":"4bd199b1046076b04b0d7271","name":"Bar Boulud","stats":{"checkinsCount":1011,"usersCount":655,"tipCount":33},"categories":[{"id":"4bf58dd8d48988d10c941735"}],"location":{"lat":51.501977133992575,"lng":-0.16017135562573862,"postalCode":"SW1X 7LA"}},{"id":"4cd05d2248b837040214f2de","name":"Busaba Eathai","stats":{"checkinsCount":1015,"usersCount":738,"tipCount":30},"categories":[{"id":"4bf58dd8d48988d149941735"}],"location":{"lat":51.50560388987785,"lng":-0.21890044212341309,"postalCode":"W12 7GA"}},{"id":"4ad6d40cf964a5204c0821e3","name":"Scandinavian Kitchen","stats":{"checkinsCount":1280,"usersCount":568,"tipCount":31},"categories":[{"id":"4bf58dd8d48988d1c6941735"}],"location":{"lat":51.51879670761272,"lng":-0.14067872115694388,"postalCode":"W1W 7PP"}},{"id":"4bdabd82c79cc92854897fe9","name":"Starbucks","stats":{"checkinsCount":1006,"usersCount":792,"tipCount":14},"categories":[{"id":"4bf58dd8d48988d16d941735"}],"location":{"lat":51.51558948618719,"lng":-0.1398694423837678,"postalCode":"W1D 2LE"}},{"id":"4adf272ff964a520e47721e3","name":"Yumchaa","stats":{"checkinsCount":1143,"usersCount":689,"tipCount":46},"categories":[{"id":"4bf58dd8d48988d1dc931735"}],"location":{"lat":51.51504565469807,"lng":-0.13629913330078125,"postalCode":"W1F 8SF"}},{"id":"4ad4354ef964a5206de720e3","name":"Cecconi's Restaurant","stats":{"checkinsCount":1141,"usersCount":682,"tipCount":23},"categories":[{"id":"4bf58dd8d48988d110941735"}],"location":{"lat":51.510078,"lng":-0.140302}},{"id":"4ad31fb7f964a52025e320e3","name":"My Old Dutch","stats":{"checkinsCount":1025,"usersCount":774,"tipCount":20},"categories":[{"id":"4bf58dd8d48988d143941735"}],"location":{"lat":51.517475891327564,"lng":-0.12196540832519531,"postalCode":"WC1V 6PS"}},{"id":"4ad0c7b0f964a520c2d920e3","name":"EAT.","stats":{"checkinsCount":1041,"usersCount":679,"tipCount":20},"categories":[{"id":"4bf58dd8d48988d1c5941735"}],"location":{"lat":51.506167,"lng":-0.117673,"postalCode":"SE1 8XX"}},{"id":"4ad6e1d5f964a520580821e3","name":"Pret A Manger","stats":{"checkinsCount":1095,"usersCount":622,"tipCount":4},"categories":[{"id":"4bf58dd8d48988d1c5941735"}],"location":{"lat":51.51627414216749,"lng":-0.13303756713867188,"postalCode":"W1D1BQ"}},{"id":"4bd8923351170f47d9b133e4","name":"Busaba Eathai","stats":{"checkinsCount":1048,"usersCount":753,"tipCount":25},"categories":[{"id":"4bf58dd8d48988d149941735"}],"location":{"lat":51.5098303231907,"lng":-0.13100545778576786,"postalCode":"SW1Y 4EA"}},{"id":"4ade28c7f964a520797321e3","name":"Gold Mine","stats":{"checkinsCount":1016,"usersCount":670,"tipCount":21},"categories":[{"id":"4bf58dd8d48988d145941735"}],"location":{"lat":51.51341986083332,"lng":-0.18758296966552734,"postalCode":"W2 3RR"}},{"id":"4ad3149bf964a5200ee320e3","name":"Starbucks","stats":{"checkinsCount":1221,"usersCount":609,"tipCount":7},"categories":[{"id":"4bf58dd8d48988d1e0931735"}],"location":{"lat":51.51887121584861,"lng":-0.0784599781036377,"postalCode":"E1 6AN"}},{"id":"4ad755b0f964a5209a0921e3","name":"Giraffe","stats":{"checkinsCount":1017,"usersCount":763,"tipCount":15},"categories":[{"id":"4bf58dd8d48988d14e941735"}],"location":{"lat":51.519342,"lng":-0.076086,"postalCode":"E1 6DW"}},{"id":"4ad5b779f964a5204c0321e3","name":"The Garrison","stats":{"checkinsCount":972,"usersCount":693,"tipCount":24},"categories":[{"id":"4bf58dd8d48988d155941735"}],"location":{"lat":51.500804,"lng":-0.081876,"postalCode":"SE1 3XB"}},{"id":"4ae22c6bf964a520718b21e3","name":"Jamie's Italian Canary Wharf","stats":{"checkinsCount":1031,"usersCount":756,"tipCount":28},"categories":[{"id":"4bf58dd8d48988d110941735"}],"location":{"lat":51.5045020005786,"lng":-0.015052556991577148,"postalCode":"E14 5RB"}},{"id":"4aeb4302f964a52047c021e3","name":"McDonald's","stats":{"checkinsCount":954,"usersCount":691,"tipCount":8},"categories":[{"id":"4bf58dd8d48988d16e941735"}],"location":{"lat":51.514912121454984,"lng":-0.14368057250976562,"postalCode":"W1D 2JU"}},{"id":"4ae17f99f964a520338621e3","name":"Canteen","stats":{"checkinsCount":977,"usersCount":701,"tipCount":30},"categories":[{"id":"4bf58dd8d48988d1c4941735"}],"location":{"lat":51.50537683608064,"lng":-0.11595726013183594,"postalCode":"SE1 8XX"}},{"id":"4ae1bdd5f964a520148721e3","name":"Leon","stats":{"checkinsCount":1158,"usersCount":659,"tipCount":19},"categories":[{"id":"4bf58dd8d48988d1e0931735"}],"location":{"lat":51.51381713409578,"lng":-0.13930320739746094,"postalCode":"W1F 7JB"}},{"id":"4ae19c48f964a520668621e3","name":"Starbucks","stats":{"checkinsCount":1019,"usersCount":740,"tipCount":8},"categories":[{"id":"4bf58dd8d48988d1e0931735"}],"location":{"lat":51.518387,"lng":-0.125981,"postalCode":"WC1B 3BA"}},{"id":"4ae89dc6f964a520e4b021e3","name":"Cafe Pacifico","stats":{"checkinsCount":1061,"usersCount":780,"tipCount":24},"categories":[{"id":"4bf58dd8d48988d1c1941735"}],"location":{"lat":51.513081,"lng":-0.125033,"postalCode":"WC2H 9JA"}},{"id":"4be808779a54a593506f0911","name":"The Anthologist","stats":{"checkinsCount":987,"usersCount":699,"tipCount":16},"categories":[{"id":"4bf58dd8d48988d1c4941735"}],"location":{"lat":51.51494884313586,"lng":-0.0912165641784668,"postalCode":"EC2V 7BB"}},{"id":"4ae2d576f964a520828f21e3","name":"Starbucks","stats":{"checkinsCount":1069,"usersCount":705,"tipCount":6},"categories":[{"id":"4bf58dd8d48988d1e0931735"}],"location":{"lat":51.507291384330166,"lng":-0.14239006150061342,"postalCode":"W1J 8ET"}},{"id":"4aec2705f964a52068c521e3","name":"Dragon Bar","stats":{"checkinsCount":1124,"usersCount":719,"tipCount":21},"categories":[{"id":"4bf58dd8d48988d155941735"}],"location":{"lat":51.52618094948909,"lng":-0.07802009582519531,"postalCode":"E1 6JE"}},{"id":"4af29835f964a52001e821e3","name":"Starbucks","stats":{"checkinsCount":1268,"usersCount":575,"tipCount":11},"categories":[{"id":"4bf58dd8d48988d1e0931735"}],"location":{"lat":51.5190239311883,"lng":-0.1687029004096985,"postalCode":"W2 1ES"}},{"id":"4aff6c05f964a520663822e3","name":"Chiquito","stats":{"checkinsCount":964,"usersCount":797,"tipCount":22},"categories":[{"id":"4bf58dd8d48988d1c1941735"}],"location":{"lat":51.51075067873304,"lng":-0.12933638897604655,"postalCode":"WC2H 7LE"}},{"id":"4af83657f964a520670b22e3","name":"Starbucks","stats":{"checkinsCount":1110,"usersCount":697,"tipCount":9},"categories":[{"id":"4bf58dd8d48988d1e0931735"}],"location":{"lat":51.513771,"lng":-0.100089,"postalCode":"EC4M 8EH"}},{"id":"4bfe3f44f7c82d7f0a4c8f04","name":"Starbucks","stats":{"checkinsCount":1216,"usersCount":584,"tipCount":16},"categories":[{"id":"4bf58dd8d48988d1e0931735"}],"location":{"lat":51.49996,"lng":-0.196082,"postalCode":"W8 6BA"}},{"id":"4b0b42e4f964a520992f23e3","name":"McDonald's","stats":{"checkinsCount":840,"usersCount":580,"tipCount":10},"categories":[{"id":"4bf58dd8d48988d16e941735"}],"location":{"lat":51.530736832534835,"lng":-0.12252842760128829,"postalCode":"N1 9XD"}},{"id":"4b0b40d1f964a5207c2f23e3","name":"Starbucks","stats":{"checkinsCount":1147,"usersCount":447,"tipCount":4},"categories":[{"id":"4bf58dd8d48988d1e0931735"}],"location":{"lat":51.5250595323084,"lng":-0.12846708297729492,"postalCode":"WC1H 9LT"}},{"id":"4b0d4c11f964a520d24523e3","name":"Starbucks","stats":{"checkinsCount":996,"usersCount":544,"tipCount":7},"categories":[{"id":"4bf58dd8d48988d1e0931735"}],"location":{"lat":51.52075176232655,"lng":-0.12316224139370027,"postalCode":"WC1B 5AA"}},{"id":"4b0a551ef964a5204d2323e3","name":"Street Coffee","stats":{"checkinsCount":1456,"usersCount":367,"tipCount":18},"categories":[{"id":"4bf58dd8d48988d1e0931735"}],"location":{"lat":51.499374,"lng":-0.08131716666666668,"postalCode":"SE1 3UW"}},{"id":"4b0c7433f964a520903d23e3","name":"Gilgamesh","stats":{"checkinsCount":846,"usersCount":662,"tipCount":31},"categories":[{"id":"4bf58dd8d48988d1c4941735"}],"location":{"lat":51.541597635122706,"lng":-0.14677047729492188}},{"id":"4b0f105af964a520b65e23e3","name":"The Rock And Sole Plaice","stats":{"checkinsCount":862,"usersCount":719,"tipCount":28},"categories":[{"id":"4edd64a0c7ddd24ca188df1a"}],"location":{"lat":51.51488229924188,"lng":-0.12508358976743358,"postalCode":"WC2H 9AJ"}},{"id":"4b0e79d1f964a520d25723e3","name":"Masala Zone Covent Garden","stats":{"checkinsCount":814,"usersCount":644,"tipCount":21},"categories":[{"id":"4bf58dd8d48988d10f941735"}],"location":{"lat":51.5132979,"lng":-0.122865,"postalCode":"WC2E 9DA"}},{"id":"4c06b415b4aa0f47d4866462","name":"Henry’s Café Bar","stats":{"checkinsCount":764,"usersCount":602,"tipCount":11},"categories":[{"id":"4bf58dd8d48988d1c4941735"}],"location":{"lat":51.511416,"lng":-0.123085,"postalCode":"WC2E 8PS"}},{"id":"4b0e8fa3f964a5207c5823e3","name":"Leon","stats":{"checkinsCount":1080,"usersCount":586,"tipCount":22},"categories":[{"id":"4bf58dd8d48988d1c4941735"}],"location":{"lat":51.509982840668975,"lng":-0.12256355390979863,"postalCode":"WC2R 0DE"}},{"id":"4c0d27c3336220a14949ca77","name":"Starbucks","stats":{"checkinsCount":805,"usersCount":595,"tipCount":5},"categories":[{"id":"4bf58dd8d48988d1e0931735"}],"location":{"lat":51.50744031283107,"lng":-0.12274324893951416,"postalCode":"WC2N 6NN"}},{"id":"4b0bab77f964a520f53223e3","name":"Starbucks","stats":{"checkinsCount":1217,"usersCount":417,"tipCount":12},"categories":[{"id":"4bf58dd8d48988d1e0931735"}],"location":{"lat":51.50657219484115,"lng":-0.10052919387817383,"postalCode":"SE1 0SU"}},{"id":"4c13010b127f9521419b2425","name":"Starbucks","stats":{"checkinsCount":933,"usersCount":474,"tipCount":8},"categories":[{"id":"4bf58dd8d48988d1e0931735"}],"location":{"lat":51.514825,"lng":-0.137499,"postalCode":"W1F 7HH"}},{"id":"4b12c38ef964a520a28d23e3","name":"Thomas Cubitt","stats":{"checkinsCount":906,"usersCount":649,"tipCount":17},"categories":[{"id":"4bf58dd8d48988d155941735"}],"location":{"lat":51.493677,"lng":-0.1507546,"postalCode":"SW1W 9PA"}},{"id":"4b1ccae9f964a520c00924e3","name":"Starbucks","stats":{"checkinsCount":971,"usersCount":461,"tipCount":8},"categories":[{"id":"4bf58dd8d48988d1e0931735"}],"location":{"lat":51.510892587612325,"lng":-0.08563756942749023,"postalCode":"EC3V 0EJ"}},{"id":"4b1e83e8f964a520d01a24e3","name":"Pret A Manger","stats":{"checkinsCount":893,"usersCount":552,"tipCount":8},"categories":[{"id":"4bf58dd8d48988d1c5941735"}],"location":{"lat":51.527666768470695,"lng":-0.1330862502713735,"postalCode":"NW1 2DY"}},{"id":"4b126d79f964a520cd8923e3","name":"Carluccio's","stats":{"checkinsCount":792,"usersCount":563,"tipCount":17},"categories":[{"id":"4bf58dd8d48988d110941735"}],"location":{"lat":51.516405250793525,"lng":-0.14004743834705252,"postalCode":"W1W 8AG"}},{"id":"4c1fdbb2d38ec9b6d64b4d83","name":"Gelupo","stats":{"checkinsCount":1219,"usersCount":501,"tipCount":41},"categories":[{"id":"4bf58dd8d48988d1c9941735"}],"location":{"lat":51.51165378901763,"lng":-0.13376712799072266,"postalCode":"W1D 7AU"}},{"id":"4b41c842f964a520e5c825e3","name":"Starbucks","stats":{"checkinsCount":1185,"usersCount":461,"tipCount":6},"categories":[{"id":"4bf58dd8d48988d1e0931735"}],"location":{"lat":51.51945537011874,"lng":-0.17956048250198364,"postalCode":"W2 6PY"}},{"id":"4b4362c4f964a5204ddf25e3","name":"Starbucks","stats":{"checkinsCount":1280,"usersCount":457,"tipCount":6},"categories":[{"id":"4bf58dd8d48988d1e0931735"}],"location":{"lat":51.518771074364295,"lng":-0.15155553817749023,"postalCode":"W1U 4RZ"}},{"id":"4b45bab5f964a520a40f26e3","name":"Starbucks","stats":{"checkinsCount":954,"usersCount":468,"tipCount":2},"categories":[{"id":"4bf58dd8d48988d1e0931735"}],"location":{"lat":51.496913,"lng":-0.138891,"postalCode":"SW1E 6RD"}},{"id":"4b4cc9c4f964a520e3be26e3","name":"Ed's Easy Diner","stats":{"checkinsCount":863,"usersCount":612,"tipCount":29},"categories":[{"id":"4bf58dd8d48988d147941735"}],"location":{"lat":51.5105111631705,"lng":-0.13229247906176766,"postalCode":"W1D 7PA"}},{"id":"4b4c950ff964a520b2b626e3","name":"Nando's","stats":{"checkinsCount":1002,"usersCount":576,"tipCount":15},"categories":[{"id":"4def73e84765ae376e57713a"}],"location":{"lat":51.517612755192935,"lng":-0.12140683829784393,"postalCode":"WC1A 2EA"}},{"id":"4b4630e0f964a520931926e3","name":"Wagamama","stats":{"checkinsCount":817,"usersCount":594,"tipCount":19},"categories":[{"id":"4bf58dd8d48988d1d1941735"}],"location":{"lat":51.497529,"lng":-0.141147,"postalCode":"SW1E 5JE"}},{"id":"4c3f4ef43735be9aa63115a4","name":"Starbucks","stats":{"checkinsCount":1201,"usersCount":455,"tipCount":12},"categories":[{"id":"4bf58dd8d48988d16d941735"}],"location":{"lat":51.48013483472816,"lng":-0.19446614901570033,"postalCode":"SW6 1BY"}},{"id":"4b3f214af964a5202ca425e3","name":"Caffe Concerto","stats":{"checkinsCount":833,"usersCount":701,"tipCount":20},"categories":[{"id":"4bf58dd8d48988d16d941735"}],"location":{"lat":51.51004376820559,"lng":-0.13662750001008092,"postalCode":"W1B 4EG"}},{"id":"4b201c44f964a520552d24e3","name":"The Hummingbird Bakery","stats":{"checkinsCount":868,"usersCount":612,"tipCount":31},"categories":[{"id":"4bf58dd8d48988d1bc941735"}],"location":{"lat":51.514124,"lng":-0.20369,"postalCode":"W11 2DY‎"}},{"id":"4d56c50958856dcbfd795c6d","name":"Starbucks","stats":{"checkinsCount":893,"usersCount":650,"tipCount":10},"categories":[{"id":"4bf58dd8d48988d1e0931735"}],"location":{"lat":51.506307,"lng":-0.1436339740091467,"postalCode":"W1V 9PH"}},{"id":"4b5da672f964a520166529e3","name":"Starbucks","stats":{"checkinsCount":1080,"usersCount":595,"tipCount":11},"categories":[{"id":"4bf58dd8d48988d1e0931735"}],"location":{"lat":51.53226148671587,"lng":-0.10637640953063965,"postalCode":"N1 9LQ"}},{"id":"4b5231c0f964a520e16e27e3","name":"Carluccio's","stats":{"checkinsCount":967,"usersCount":528,"tipCount":5},"categories":[{"id":"4bf58dd8d48988d110941735"}],"location":{"lat":51.49358183910838,"lng":-0.17407536506652832,"postalCode":"SW7 3HZ"}},{"id":"4d50128b7ee1a35d5ae98134","name":"Vapiano","stats":{"checkinsCount":1089,"usersCount":419,"tipCount":11},"categories":[{"id":"4bf58dd8d48988d1c0941735"}],"location":{"lat":51.505582249999996,"lng":-0.097548,"postalCode":"SE10FD"}},{"id":"4c59420bb05c1b8d4141d5b1","name":"Taylor St Baristas","stats":{"checkinsCount":2015,"usersCount":220,"tipCount":18},"categories":[{"id":"4bf58dd8d48988d1e0931735"}],"location":{"lat":51.523924108859525,"lng":-0.08229571924816932,"postalCode":"EC2A 4HT"}},{"id":"4b5f3a36f964a520a5ae29e3","name":"Nando's","stats":{"checkinsCount":862,"usersCount":680,"tipCount":8},"categories":[{"id":"4def73e84765ae376e57713a"}],"location":{"lat":51.51049,"lng":-0.137841,"postalCode":"W1B 5DR"}},{"id":"4e53f46cb0fb6cfefec85d75","name":"Jamie's Italian Islington","stats":{"checkinsCount":827,"usersCount":612,"tipCount":35},"categories":[{"id":"4bf58dd8d48988d110941735"}],"location":{"lat":51.53155,"lng":-0.106296}},{"id":"4b54303bf964a52024b427e3","name":"Caffè Nero","stats":{"checkinsCount":897,"usersCount":524,"tipCount":6},"categories":[{"id":"4bf58dd8d48988d1e0931735"}],"location":{"lat":51.51416,"lng":-0.122754,"postalCode":"WC2E 9NG"}},{"id":"4b533605f964a520739227e3","name":"Sunday UpMarket","stats":{"checkinsCount":784,"usersCount":610,"tipCount":13},"categories":[{"id":"4bf58dd8d48988d1cb941735"}],"location":{"lat":51.520653697427974,"lng":-0.07246255874633789,"postalCode":"E1 6QL"}},{"id":"4b545740f964a52009b827e3","name":"Wagamama","stats":{"checkinsCount":910,"usersCount":617,"tipCount":8},"categories":[{"id":"4bf58dd8d48988d1d1941735"}],"location":{"lat":51.51969236771462,"lng":-0.07540225982666016,"postalCode":"E1 6EW"}},{"id":"4b598999f964a520988b28e3","name":"Gourmet Burger Kitchen","stats":{"checkinsCount":789,"usersCount":596,"tipCount":16},"categories":[{"id":"4bf58dd8d48988d16c941735"}],"location":{"lat":51.513710304651504,"lng":-0.1316213607788086,"postalCode":"W1D 4RF"}},{"id":"4b8196bff964a52003b130e3","name":"Primrose Bakery","stats":{"checkinsCount":822,"usersCount":658,"tipCount":20},"categories":[{"id":"4bf58dd8d48988d1bc941735"}],"location":{"lat":51.512378,"lng":-0.119871,"postalCode":"WC2E 7PB"}},{"id":"4b839f7af964a5208b0b31e3","name":"Taylor St Baristas","stats":{"checkinsCount":1470,"usersCount":328,"tipCount":36},"categories":[{"id":"4bf58dd8d48988d16d941735"}],"location":{"lat":51.51443,"lng":-0.08624,"postalCode":"EC2N 1AR"}},{"id":"4b6de396f964a52009992ce3","name":"Snog Pure Frozen Yogurt","stats":{"checkinsCount":1095,"usersCount":524,"tipCount":10},"categories":[{"id":"4bf58dd8d48988d1d0941735"}],"location":{"lat":51.494774167457116,"lng":-0.17431139945983887,"postalCode":"SW7 2HQ"}},{"id":"4b688310f964a520137d2be3","name":"Carnaby Burger Co","stats":{"checkinsCount":806,"usersCount":630,"tipCount":21},"categories":[{"id":"4bf58dd8d48988d16c941735"}],"location":{"lat":51.513464,"lng":-0.139772,"postalCode":"W1F7PH"}},{"id":"4d63c1bc79deb1f707e01d11","name":"The Icecreamists","stats":{"checkinsCount":804,"usersCount":674,"tipCount":32},"categories":[{"id":"4bf58dd8d48988d1c9941735"}],"location":{"lat":51.511667143314725,"lng":-0.12274861335754395,"postalCode":"WC2E 8RF"}},{"id":"4b77e7cbf964a52046ae2ee3","name":"Bodean's","stats":{"checkinsCount":987,"usersCount":608,"tipCount":21},"categories":[{"id":"4bf58dd8d48988d1df931735"}],"location":{"lat":51.509784148786515,"lng":-0.07922172546386719,"postalCode":"EC3R 5BA"}},{"id":"4b792866f964a5204ced2ee3","name":"McDonald's","stats":{"checkinsCount":1066,"usersCount":497,"tipCount":8},"categories":[{"id":"4bf58dd8d48988d16e941735"}],"location":{"lat":51.50299938131981,"lng":-0.11151552200317383,"postalCode":"SE1 8SW"}},{"id":"4b7e8552f964a520b6f02fe3","name":"Franco Manca","stats":{"checkinsCount":871,"usersCount":556,"tipCount":43},"categories":[{"id":"4bf58dd8d48988d1ca941735"}],"location":{"lat":51.46199716862373,"lng":-0.11373639106750488,"postalCode":"SW9 8LD"}},{"id":"4b7152d5f964a52022412de3","name":"Taro Restaurant","stats":{"checkinsCount":1039,"usersCount":600,"tipCount":28},"categories":[{"id":"4bf58dd8d48988d111941735"}],"location":{"lat":51.511475,"lng":-0.135669,"postalCode":"W1F 9UW"}},{"id":"4b9f4295f964a520181a37e3","name":"Starbucks","stats":{"checkinsCount":1135,"usersCount":407,"tipCount":6},"categories":[{"id":"4bf58dd8d48988d1e0931735"}],"location":{"lat":51.54540201678746,"lng":-0.10342597961425781,"postalCode":"N5 1RU"}},{"id":"4b9a5929f964a520ffad35e3","name":"Tortilla","stats":{"checkinsCount":1416,"usersCount":439,"tipCount":13},"categories":[{"id":"4bf58dd8d48988d1c1941735"}],"location":{"lat":51.53256182151333,"lng":-0.10655879974365234,"postalCode":"N1 9LQ"}},{"id":"4ba3c58af964a520875d38e3","name":"Wagamama","stats":{"checkinsCount":792,"usersCount":664,"tipCount":10},"categories":[{"id":"4bf58dd8d48988d1d1941735"}],"location":{"lat":51.50718321807329,"lng":-0.09267032146453857,"postalCode":"SE1 9BU"}},{"id":"4ba66c6bf964a520f85039e3","name":"The Anglesea Arms","stats":{"checkinsCount":1081,"usersCount":589,"tipCount":10},"categories":[{"id":"4bf58dd8d48988d155941735"}],"location":{"lat":51.4901482936383,"lng":-0.17700433731079102,"postalCode":"SW7 3QG"}},{"id":"4baa7223f964a520eb6a3ae3","name":"Prince Regent","stats":{"checkinsCount":861,"usersCount":554,"tipCount":12},"categories":[{"id":"4bf58dd8d48988d155941735"}],"location":{"lat":51.521313606138584,"lng":-0.15194259364882273,"postalCode":"W1U 5JN"}},{"id":"4ea95d0b6d86765d4111781c","name":"Kahve Dünyası","stats":{"checkinsCount":975,"usersCount":567,"tipCount":23},"categories":[{"id":"4bf58dd8d48988d1e0931735"}],"location":{"lat":51.50908301391827,"lng":-0.13623476028442383,"postalCode":"W1J 9HU"}},{"id":"4bbc48be51b89c74e240872a","name":"Starbucks","stats":{"checkinsCount":1385,"usersCount":434,"tipCount":14},"categories":[{"id":"4bf58dd8d48988d1e0931735"}],"location":{"lat":51.51790500277546,"lng":-0.117852,"postalCode":"WC1V 6LJ"}},{"id":"4bbf9350461576b0f3c97832","name":"McDonald's","stats":{"checkinsCount":917,"usersCount":605,"tipCount":9},"categories":[{"id":"4bf58dd8d48988d16e941735"}],"location":{"lat":51.51760274077771,"lng":-0.08234918117523193,"postalCode":"EC2M 7PR"}},{"id":"4bb9b09e7421a593baeec240","name":"Goodman Steak House Restaurant","stats":{"checkinsCount":834,"usersCount":613,"tipCount":22},"categories":[{"id":"4bf58dd8d48988d1cc941735"}],"location":{"lat":51.51312273822952,"lng":-0.14226436614990234,"postalCode":"W1S 1QH"}},{"id":"4acdaa10f964a52097cc20e3","name":"Climpson & Sons","stats":{"checkinsCount":1162,"usersCount":388,"tipCount":22},"categories":[{"id":"4bf58dd8d48988d1e0931735"}],"location":{"lat":51.537457,"lng":-0.061126,"postalCode":"E8 4PH"}},{"id":"4ac518c3f964a52054a420e3","name":"Automat","stats":{"checkinsCount":932,"usersCount":660,"tipCount":32},"categories":[{"id":"4bf58dd8d48988d14e941735"}],"location":{"lat":51.508875,"lng":-0.143032,"postalCode":"W1S 4NF"}},{"id":"4ac518e1f964a52065aa20e3","name":"The Waterway","stats":{"checkinsCount":1046,"usersCount":606,"tipCount":24},"categories":[{"id":"4bf58dd8d48988d1c4941735"}],"location":{"lat":51.522675,"lng":-0.187816,"postalCode":"W9 2JU"}},{"id":"4ac518dff964a52003aa20e3","name":"Masala Zone Soho","stats":{"checkinsCount":763,"usersCount":606,"tipCount":24},"categories":[{"id":"4bf58dd8d48988d10f941735"}],"location":{"lat":51.513204,"lng":-0.137871,"postalCode":"W1F 7ER"}},{"id":"4ac518daf964a520c9a820e3","name":"Pizza Express","stats":{"checkinsCount":808,"usersCount":672,"tipCount":9},"categories":[{"id":"4bf58dd8d48988d1ca941735"}],"location":{"lat":51.51499595110305,"lng":-0.13334718145746924,"postalCode":"W1D 3RW"}},{"id":"4ac518c5f964a520e2a420e3","name":"The Charles Lamb","stats":{"checkinsCount":1158,"usersCount":489,"tipCount":25},"categories":[{"id":"4bf58dd8d48988d155941735"}],"location":{"lat":51.5319382,"lng":-0.1020542,"postalCode":"N1 8DE"}},{"id":"4acdf077f964a5209fcd20e3","name":"Hummus Bros.","stats":{"checkinsCount":1123,"usersCount":394,"tipCount":16},"categories":[{"id":"4bf58dd8d48988d1c0941735"}],"location":{"lat":51.519492,"lng":-0.121408,"postalCode":"WC1B 4DA"}},{"id":"4ace12c9f964a52039ce20e3","name":"Bea's of Bloomsbury","stats":{"checkinsCount":930,"usersCount":476,"tipCount":21},"categories":[{"id":"4bf58dd8d48988d1bc941735"}],"location":{"lat":51.520825,"lng":-0.11599364999999999,"postalCode":"WC1X 8NW"}},{"id":"4ace2fc8f964a520edce20e3","name":"The Warrington","stats":{"checkinsCount":1127,"usersCount":532,"tipCount":22},"categories":[{"id":"4bf58dd8d48988d155941735"}],"location":{"lat":51.52704869382908,"lng":-0.18320560455322266,"postalCode":"W9 1EH"}},{"id":"4ac518c3f964a52028a420e3","name":"Tom's Kitchen","stats":{"checkinsCount":801,"usersCount":595,"tipCount":32},"categories":[{"id":"4bf58dd8d48988d1c4941735"}],"location":{"lat":51.49051683175955,"lng":-0.16809864392352936,"postalCode":"SW3 3QP"}},{"id":"4ac518d7f964a5206aa820e3","name":"Lahore Kebab House","stats":{"checkinsCount":865,"usersCount":624,"tipCount":28},"categories":[{"id":"4bf58dd8d48988d10f941735"}],"location":{"lat":51.514576,"lng":-0.0631851,"postalCode":"E1 1PY"}},{"id":"4ace2415f964a520a3ce20e3","name":"Coco Momo","stats":{"checkinsCount":807,"usersCount":585,"tipCount":13},"categories":[{"id":"4bf58dd8d48988d155941735"}],"location":{"lat":51.520743,"lng":-0.152025,"postalCode":"W1U 5JZ"}},{"id":"4bc3524d461576b0ae737e32","name":"Le Pain Quotidien","stats":{"checkinsCount":927,"usersCount":597,"tipCount":10},"categories":[{"id":"4bf58dd8d48988d16a941735"}],"location":{"lat":51.520034,"lng":-0.133915,"postalCode":"W1T 2ET"}},{"id":"4ac518c2f964a5201aa420e3","name":"Albannach","stats":{"checkinsCount":772,"usersCount":590,"tipCount":27},"categories":[{"id":"4bf58dd8d48988d1c4941735"}],"location":{"lat":51.50731343507994,"lng":-0.12889623641967773,"postalCode":"WC2N 5DS"}},{"id":"4ace5183f964a520d5cf20e3","name":"Scootercaffe","stats":{"checkinsCount":1033,"usersCount":460,"tipCount":37},"categories":[{"id":"4bf58dd8d48988d1e0931735"}],"location":{"lat":51.50031457822975,"lng":-0.11396169662475586,"postalCode":"SE1 7AE"}},{"id":"4ac518e7f964a52033ab20e3","name":"Tapas Brindisa","stats":{"checkinsCount":902,"usersCount":617,"tipCount":22},"categories":[{"id":"4bf58dd8d48988d1db931735"}],"location":{"lat":51.50481754432783,"lng":-0.09051114320755005,"postalCode":"SE1 1TJ"}},{"id":"4ac518c2f964a520f4a320e3","name":"The Cuban","stats":{"checkinsCount":826,"usersCount":702,"tipCount":16},"categories":[{"id":"4bf58dd8d48988d154941735"}],"location":{"lat":51.54225156087969,"lng":-0.14689922332763672,"postalCode":"NW1 8AH"}},{"id":"4ac518e6f964a52011ab20e3","name":"Pho","stats":{"checkinsCount":888,"usersCount":514,"tipCount":16},"categories":[{"id":"4bf58dd8d48988d14a941735"}],"location":{"lat":51.516601,"lng":-0.1398580666666667,"postalCode":"W1W 8AX"}},{"id":"4ac518d5f964a520e5a720e3","name":"Mildred's","stats":{"checkinsCount":865,"usersCount":627,"tipCount":31},"categories":[{"id":"4bf58dd8d48988d1d3941735"}],"location":{"lat":51.51299587198401,"lng":-0.1364733160828166,"postalCode":"W1F 9AN"}},{"id":"4ac518caf964a520aaa520e3","name":"HK Diner","stats":{"checkinsCount":874,"usersCount":520,"tipCount":34},"categories":[{"id":"4bf58dd8d48988d145941735"}],"location":{"lat":51.51115843770774,"lng":-0.13183634019946158,"postalCode":"W1D 6QQ"}},{"id":"4ac518bdf964a520bea220e3","name":"Carluccio's","stats":{"checkinsCount":906,"usersCount":702,"tipCount":25},"categories":[{"id":"4bf58dd8d48988d110941735"}],"location":{"lat":51.51141,"lng":-0.1253099553227954,"postalCode":"WC2E 9EB"}},{"id":"4acdbe6df964a520e2cc20e3","name":"Daddy Donkey","stats":{"checkinsCount":1215,"usersCount":427,"tipCount":24},"categories":[{"id":"4bf58dd8d48988d1cb941735"}],"location":{"lat":51.519932702045374,"lng":-0.1093912124633789,"postalCode":"EC1N 7TE"}},{"id":"4acf62a8f964a52056d320e3","name":"Boundary","stats":{"checkinsCount":864,"usersCount":615,"tipCount":11},"categories":[{"id":"4bf58dd8d48988d10c941735"}],"location":{"lat":51.524534043773315,"lng":-0.07654116397056886,"postalCode":"E2 7JE"}},{"id":"4ac518d7f964a5205ba820e3","name":"Satsuma","stats":{"checkinsCount":928,"usersCount":636,"tipCount":15},"categories":[{"id":"4bf58dd8d48988d111941735"}],"location":{"lat":51.51248621608904,"lng":-0.13331194836033286,"postalCode":"W1D 4JG"}},{"id":"4ac518d7f964a52057a820e3","name":"French House","stats":{"checkinsCount":893,"usersCount":608,"tipCount":16},"categories":[{"id":"4bf58dd8d48988d10c941735"}],"location":{"lat":51.5126851,"lng":-0.1318192,"postalCode":"W1D 5BG"}},{"id":"4ad37705f964a5208ae420e3","name":"The Crabtree","stats":{"checkinsCount":972,"usersCount":526,"tipCount":23},"categories":[{"id":"4bf58dd8d48988d155941735"}],"location":{"lat":51.48195082732309,"lng":-0.2233421802520752}},{"id":"4add8ba4f964a520136521e3","name":"Starbucks","stats":{"checkinsCount":1018,"usersCount":491,"tipCount":6},"categories":[{"id":"4bf58dd8d48988d1e0931735"}],"location":{"lat":51.5154631,"lng":-0.153516,"postalCode":"W1U 3SD"}},{"id":"4ada5409f964a5205c2121e3","name":"The Walmer Castle","stats":{"checkinsCount":1071,"usersCount":492,"tipCount":14},"categories":[{"id":"4bf58dd8d48988d149941735"}],"location":{"lat":51.51514413001089,"lng":-0.199507,"postalCode":"W11 2AJ"}},{"id":"4ad06a95f964a52004d820e3","name":"Euphorium Bakery","stats":{"checkinsCount":1075,"usersCount":459,"tipCount":20},"categories":[{"id":"4bf58dd8d48988d16a941735"}],"location":{"lat":51.542941941231454,"lng":-0.10312323580088839,"postalCode":"N1 1RQ"}},{"id":"4addf279f964a520a16621e3","name":"Patisserie Valerie","stats":{"checkinsCount":849,"usersCount":652,"tipCount":24},"categories":[{"id":"4bf58dd8d48988d16a941735"}],"location":{"lat":51.51908485027928,"lng":-0.07782161235809326,"postalCode":"E1 6AA"}},{"id":"4ad21a3af964a52063df20e3","name":"Grand Union Camden","stats":{"checkinsCount":973,"usersCount":521,"tipCount":13},"categories":[{"id":"4bf58dd8d48988d14e941735"}],"location":{"lat":51.541904581035986,"lng":-0.1384449005126953,"postalCode":"NW1 9EA"}},{"id":"4ad9c2def964a520a91a21e3","name":"The Diner","stats":{"checkinsCount":910,"usersCount":595,"tipCount":28},"categories":[{"id":"4bf58dd8d48988d14e941735"}],"location":{"lat":51.536539402143234,"lng":-0.10205268859863281,"postalCode":"N1 2SA"}},{"id":"4ad9f573f964a520611c21e3","name":"Pret A Manger","stats":{"checkinsCount":980,"usersCount":508,"tipCount":13},"categories":[{"id":"4bf58dd8d48988d1c5941735"}],"location":{"lat":51.5137395070162,"lng":-0.139664443146789,"postalCode":"W1F 7HY"}},{"id":"4adccfcbf964a520193021e3","name":"Strada","stats":{"checkinsCount":713,"usersCount":642,"tipCount":14},"categories":[{"id":"4bf58dd8d48988d110941735"}],"location":{"lat":51.50583094254367,"lng":-0.11784553527832031,"postalCode":"SE1 8XX"}},{"id":"4adb3681f964a520f02421e3","name":"The Marylebone","stats":{"checkinsCount":818,"usersCount":573,"tipCount":6},"categories":[{"id":"4bf58dd8d48988d155941735"}],"location":{"lat":51.519816051604536,"lng":-0.15177}},{"id":"4ad4707df964a520dfe720e3","name":"Wasabi","stats":{"checkinsCount":895,"usersCount":577,"tipCount":16},"categories":[{"id":"4bf58dd8d48988d1d2941735"}],"location":{"lat":51.51412426735259,"lng":-0.15329360961914062,"postalCode":"W1C 2PN"}},{"id":"4bdad7a963c5c9b662242568","name":"Giraffe Burgers","stats":{"checkinsCount":870,"usersCount":624,"tipCount":41},"categories":[{"id":"4bf58dd8d48988d16c941735"}],"location":{"lat":51.51543716554076,"lng":-0.1507904463675994,"postalCode":"W1U 1EA"}},{"id":"4ad74e7cf964a5205d0921e3","name":"Starbucks","stats":{"checkinsCount":1027,"usersCount":605,"tipCount":2},"categories":[{"id":"4bf58dd8d48988d1e0931735"}],"location":{"lat":51.509165,"lng":-0.195931,"postalCode":"W11 3QS"}},{"id":"4ad75a21f964a520bd0921e3","name":"Leon","stats":{"checkinsCount":1161,"usersCount":545,"tipCount":17},"categories":[{"id":"4bf58dd8d48988d16e941735"}],"location":{"lat":51.506458670496485,"lng":-0.09992837905883789,"postalCode":"SE1 9AN"}},{"id":"4aeb0894f964a5205fbd21e3","name":"Tortilla","stats":{"checkinsCount":1672,"usersCount":364,"tipCount":14},"categories":[{"id":"4bf58dd8d48988d1c1941735"}],"location":{"lat":51.505804230524056,"lng":-0.09969234466552734,"postalCode":"SE1 0TA"}},{"id":"4ae8b5b2f964a5209ab121e3","name":"Gourmet Burger Kitchen","stats":{"checkinsCount":787,"usersCount":605,"tipCount":13},"categories":[{"id":"4bf58dd8d48988d16c941735"}],"location":{"lat":51.506632295850274,"lng":-0.2220010757446289,"postalCode":"W12 7GB"}},{"id":"4be9cc4f62c0c928b016e0d4","name":"KFC","stats":{"checkinsCount":751,"usersCount":635,"tipCount":5},"categories":[{"id":"4d4ae6fc7a7b7dea34424761"}],"location":{"lat":51.51358177514427,"lng":-0.15806794166564941,"postalCode":"W1C 1LT"}},{"id":"4ae89db6f964a520e1b021e3","name":"Costa Coffee","stats":{"checkinsCount":969,"usersCount":513,"tipCount":16},"categories":[{"id":"4bf58dd8d48988d1e0931735"}],"location":{"lat":51.512891,"lng":-0.131905,"postalCode":"W1V 6NP"}},{"id":"4be71eddcf200f479e4c153c","name":"Costa Coffee","stats":{"checkinsCount":930,"usersCount":599,"tipCount":14},"categories":[{"id":"4bf58dd8d48988d1e0931735"}],"location":{"lat":51.53107907117132,"lng":-0.12556835610909184,"postalCode":"MW1 2QP"}},{"id":"4aeaec3af964a520aebc21e3","name":"Wagamama","stats":{"checkinsCount":872,"usersCount":722,"tipCount":13},"categories":[{"id":"4bf58dd8d48988d1d1941735"}],"location":{"lat":51.511374016245405,"lng":-0.1224321165973001,"postalCode":"WC2E 7PG"}},{"id":"4ae14db4f964a520e48521e3","name":"Burger King","stats":{"checkinsCount":849,"usersCount":522,"tipCount":8},"categories":[{"id":"4bf58dd8d48988d16e941735"}],"location":{"lat":51.502839099007744,"lng":-0.11295318603515625,"postalCode":"SE1 8SW"}},{"id":"4bf6a8595efe2d7fe8866734","name":"El Camion Mexican Grill","stats":{"checkinsCount":811,"usersCount":554,"tipCount":27},"categories":[{"id":"4bf58dd8d48988d1c1941735"}],"location":{"lat":51.51213070422225,"lng":-0.13443080759634318,"postalCode":"W1F 0RR"}},{"id":"4af45b0af964a5209ef121e3","name":"Fix Coffee","stats":{"checkinsCount":1420,"usersCount":336,"tipCount":14},"categories":[{"id":"4bf58dd8d48988d1e0931735"}],"location":{"lat":51.52339237446915,"lng":-0.09329527616500854,"postalCode":"EC1Y 8JL"}},{"id":"4afb5874f964a5202a1d22e3","name":"Nando's","stats":{"checkinsCount":1027,"usersCount":628,"tipCount":8},"categories":[{"id":"4def73e84765ae376e57713a"}],"location":{"lat":51.521486,"lng":-0.157228,"postalCode":"W1U 6RS"}},{"id":"4cfd310b2d80a143ea8455d8","name":"Kopapa Cafe & Restaurant","stats":{"checkinsCount":828,"usersCount":626,"tipCount":33},"categories":[{"id":"4bf58dd8d48988d1c4941735"}],"location":{"lat":51.51354588697034,"lng":-0.1271595060825348,"postalCode":"WC2H 9HA"}},{"id":"4bfa6e20508c0f47e40e4031","name":"BiBimBap","stats":{"checkinsCount":956,"usersCount":553,"tipCount":24},"categories":[{"id":"4bf58dd8d48988d113941735"}],"location":{"lat":51.5143016,"lng":-0.1310452,"postalCode":"W1D 4DJ"}},{"id":"4b0828b0f964a5200d0523e3","name":"Tina, We Salute You","stats":{"checkinsCount":1132,"usersCount":334,"tipCount":42},"categories":[{"id":"4bf58dd8d48988d1e0931735"}],"location":{"lat":51.54901039759442,"lng":-0.07931948726936365,"postalCode":"N1 4NH"}},{"id":"4b0d7d90f964a520824923e3","name":"Starbucks","stats":{"checkinsCount":864,"usersCount":340,"tipCount":6},"categories":[{"id":"4bf58dd8d48988d1e0931735"}],"location":{"lat":51.53394241554968,"lng":-0.1717392047596347,"postalCode":"NW8 7NL"}},{"id":"4b070911f964a520eaf522e3","name":"Rasa Sayang","stats":{"checkinsCount":775,"usersCount":526,"tipCount":36},"categories":[{"id":"4bf58dd8d48988d156941735"}],"location":{"lat":51.51210338528377,"lng":-0.1313984257502674,"postalCode":"W1D 6AY"}},{"id":"4b072d9ef964a520ecf822e3","name":"Imperial China","stats":{"checkinsCount":734,"usersCount":541,"tipCount":19},"categories":[{"id":"4bf58dd8d48988d1f5931735"}],"location":{"lat":51.511694,"lng":-0.129759}},{"id":"4b03f201f964a5209c5022e3","name":"Starbucks","stats":{"checkinsCount":975,"usersCount":307,"tipCount":6},"categories":[{"id":"4bf58dd8d48988d1e0931735"}],"location":{"lat":51.51429786349476,"lng":-0.10755658149719238,"postalCode":"EC4A 2DQ"}},